"","business_id","name","city","state","postal_code","latitude","longitude","is_open","categories"
"1",192016,"B & M Bar-B-Que Shaw","Cleveland","OH","44108",41.5408904,-81.5953266,"1","Barbeque, Restaurants"
"2",25779,"The Pit","Beachwood","OH","44122",41.4675893,-81.4932632,"0","Barbeque, Restaurants"
"3",72460,"Woody's Barbq","Calgary","AB","T2A 6L8",51.0601777,-113.9810304,"0","Sandwiches, Restaurants, Barbeque, Salad"
"4",44219,"Piggly's At the Fair","Mesa","AZ","85204",33.38449,-111.80411,"0","Food, Beer, Wine & Spirits, Restaurants, Barbeque, Local Flavor, American (Traditional)"
"5",158496,"Ryan's Pub","Pittsburgh","PA","15221",40.4393965,-79.8971839,"0","Restaurants, Barbeque, Bars, Pubs, Burgers, Nightlife"
"6",170103,"Cusina Lounge","Toronto","ON","M3H 1S8",43.7372891748,-79.4349258766,"1","Barbeque, Filipino, Buffets, Fish & Chips, Restaurants"
"7",32114,"Prince Restaurant","Las Vegas","NV","89103",36.1140708,-115.2409255,"1","American (Traditional), Modern European, Ukrainian, Burgers, Barbeque, Imported Food, Mediterranean, Specialty Food, Food, Ethnic Food, Restaurants"
"8",68394,"JP's Dog House","Phoenix","AZ","85016",33.5238568924,-112.0472845529,"1","Barbeque, Restaurants, Hot Dogs, Food Stands, American (New)"
"9",82720,"Uncle Bo's Slow-n-low","North Ridgeville","OH","44039",41.3644602254,-82.056653629,"1","Restaurants, Barbeque"
"10",171468,"Big Foot Smoke House And Bar","Newmarket","ON","L3Y 8Y8",44.0524455,-79.4265604,"0","Restaurants, American (Traditional), Steakhouses, Bars, Nightlife, Barbeque"
"11",117426,"The Thumb BBQ","Scottsdale","AZ","85260",33.6393699646,-111.8792572021,"1","Farmers Market, Gas Stations, Automotive, Car Wash, Restaurants, Breakfast & Brunch, Burgers, Food, American (Traditional), American (New), Bakeries, Barbeque, Caterers, Event Planning & Services"
"12",172634,"Top Notch Barbeque","Las Vegas","NV","89146",36.158189,-115.214682,"0","Street Vendors, Barbeque, Restaurants, Food Stands, Food"
"13",182464,"Texas Roadhouse","Peoria","AZ","85382",33.6321621,-112.2375661,"1","Restaurants, American (Traditional), Steakhouses, Barbeque"
"14",88859,"La Station des Sports","Montréal","QC","H3H 1M6",45.4917988,-73.5818589,"1","Restaurants, Bars, Burgers, French, Nightlife, Sports Bars, Barbeque"
"15",15858,"The Dixie Pig Tega Cay","Fort Mill","SC","29708",35.0544299,-81.0073289,"1","Barbeque, Specialty Food, Food, Restaurants, Sandwiches"
"16",4354,"Treehouse Bourbon & BBQ","Charlotte","NC","28211",35.150823,-80.827849,"1","Restaurants, Barbeque, Bars, Nightlife, Whiskey Bars"
"17",28890,"AAA Bar","Toronto","ON","M4M 1Y3",43.6658422,-79.3519276,"1","Restaurants, Nightlife, Bars, Barbeque"
"18",74719,"Kings Delight Caribbean Cuisine","Toronto","ON","M9N 2S1",43.7019167,-79.5035253,"1","Ethnic Food, Food, Fish & Chips, Restaurants, Specialty Food, Barbeque, Caribbean"
"19",114530,"Harvard Wine & Grill","Cleveland","OH","44128",41.449265,-81.5827479,"1","Bars, Restaurants, Wine Bars, American (Traditional), Nightlife, Barbeque"
"20",117604,"Mayettes","Toronto","ON","M1L 1C5",43.6927912,-79.2811846,"1","Ethnic Food, Personal Chefs, Restaurants, Seafood, Event Planning & Services, Fast Food, Specialty Food, Barbeque, Party & Event Planning, Filipino, Local Flavor, Food, Caterers"
"21",145856,"Dickey's Barbecue Pit","Avondale","AZ","85392",33.4643167426,-112.2751433775,"1","Restaurants, Barbeque, American (Traditional), American (New), Southern"
"22",136054,"Tha Spot BBQ","Glendale","AZ","85306",33.611161,-112.153974,"0","Restaurants, Barbeque"
"23",180402,"Romados","Montréal","QC","H2W 1C8",45.51931,-73.580749,"1","Restaurants, Portuguese, Bakeries, Food, Chicken Shop, Barbeque"
"24",134856,"Sandoozles Smokehouse & Pub","Toronto","ON","M4S 2N4",43.7074876432,-79.3896615989,"0","Restaurants, Barbeque"
"25",140460,"House of Blues Restaurant & Bar","Cleveland","OH","44114",41.499225,-81.6906427,"1","American (New), Restaurants, Barbeque, Burgers, Southern"
"26",162994,"Place Western","Montréal","QC","H2V 4E8",45.5259188,-73.6106939,"0","Barbeque, American (New), Restaurants, Smokehouse, Food"
"27",176617,"Seoul House","Thornhill","ON","L4J 2L1",43.7967303,-79.4264179,"1","Restaurants, Korean, Japanese, Barbeque, Chinese"
"28",5146,"Sing Sing Barbeque House","Toronto","ON","M4M 2H1",43.6651176,-79.3522683,"1","Restaurants, Barbeque"
"29",73824,"Smoke N Pig","Las Vegas","NV","89166",36.3138121777,-115.3060238063,"0","Food Trucks, Food, Barbeque, Sandwiches, Street Vendors, Restaurants, Specialty Food"
"30",95525,"Chat Bar","Toronto","ON","M1V 5N1",43.822058,-79.298592,"1","Restaurants, Barbeque, Tapas Bars, Chinese"
"31",182261,"Texas Roadhouse","Tempe","AZ","85284",33.3383358638,-111.9703973585,"1","American (New), Barbeque, Restaurants, Sandwiches, American (Traditional), Salad, Steakhouses"
"32",77675,"Dickey's Barbecue Pit","Mentor","OH","44060",41.679798,-81.301188,"1","Southern, Restaurants, Barbeque, American (Traditional)"
"33",108112,"Chow Time","Las Vegas","NV","89128",36.1954258,-115.2549386,"1","Restaurants, Barbeque, Food Trucks, Food"
"34",119371,"City Barbeque","Charlotte","NC","28277",35.043396566,-80.8479089721,"1","American (Traditional), Caterers, Barbeque, Event Planning & Services, Restaurants"
"35",156529,"Little Piggy's","Toronto","ON","M5S 1X9",43.6659576268,-79.4067151693,"1","Korean, Barbeque, Restaurants"
"36",81878,"Mon Ami - Brossard","Brossard","QC","J4Z 3H1",45.477253,-73.447508,"1","Buffets, Barbeque, Korean, Restaurants"
"37",135639,"Hibi","Saint-Laurent","QC","H4R 1K4",45.5198942059,-73.7020041794,"1","Barbeque, Korean, Restaurants"
"38",116038,"Pork on a Fork","Phoenix","AZ","85016",33.5074647365,-112.0407363257,"1","Restaurants, Salad, Barbeque, Caterers, Sandwiches, Event Planning & Services"
"39",132439,"Moe's Original Bar B Que","Matthews","NC","28105",35.117562,-80.720445,"1","Restaurants, Caterers, Sandwiches, Barbeque, Salad, Nightlife, Event Planning & Services, Bars"
"40",66480,"La Jolie Boutique","Montréal","QC","H2V 4H2",45.522856,-73.6032293,"1","Toy Stores, Barbeque, Shopping, Restaurants"
"41",79002,"Kyle Fletcher's BBQ & Catering","Lowell","NC","28056",35.2563307,-81.1009118,"1","Restaurants, Barbeque"
"42",143398,"Casa Grecque","Dollard-des-Ormeaux","QC","H9G 1X2",45.474503,-73.835546,"1","Greek, Restaurants, Seafood, Barbeque"
"43",99364,"Holy Smoke Bbq","Las Vegas","NV","89102",36.1429701,-115.20935,"1","Barbeque, Local Flavor, Restaurants, Food, Food Trucks"
"44",8476,"Jojo's BBQ","Calgary","AB","T2E 2H8",51.0835156,-114.0533093,"0","Restaurants, Food, Street Vendors, Local Flavor, Food Trucks, Barbeque"
"45",178750,"Spitfirez Catering","Wilmerding","PA","15148",40.395472,-79.806074,"1","Food Delivery Services, Event Planning & Services, Restaurants, Food, Barbeque, Bartenders, Caterers, Soup, Sandwiches"
"46",104512,"RibCage","Henderson","NV","89052",35.9952822,-115.100014,"0","Food, Chicken Wings, Barbeque, Restaurants, Food Delivery Services"
"47",102851,"Empire Grill","Toronto","ON","M6C 2E2",43.699788833,-79.4318662615,"1","Nightlife, Wine Bars, Thai, Restaurants, Portuguese, Seafood, Chicken Shop, Barbeque, Bars, Indian"
"48",18318,"Texas Roadhouse","Bridgeville","PA","15017",40.369472,-80.1050829,"1","Restaurants, Barbeque, Steakhouses, American (Traditional)"
"49",45012,"Holland BBQ","Cleveland","OH","44119",41.5866352,-81.5498944,"1","Barbeque, Restaurants"
"50",26330,"Montana's BBQ & Bar","Calgary","AB","T3H 3P8",51.0195819431,-114.1679570385,"1","Restaurants, Steakhouses, Canadian (New), Barbeque, Comfort Food"
"51",165392,"Sonny's BBQ","Charlotte","NC","28226",35.096098,-80.785635,"1","Event Planning & Services, Barbeque, Restaurants, Caterers, American (New)"
"52",101327,"UmJi","Toronto","ON","M1T 3J7",43.7766273,-79.3171808,"0","Barbeque, Buffets, Korean, Restaurants"
"53",26080,"Ghadir Meat Market","Scarborough","ON","M1R 2Y4",43.7437559159,-79.3041437023,"1","Barbeque, Food, Restaurants, Meat Shops, Mediterranean, Specialty Food"
"54",50129,"Nelia's Smokehouse","Ambridge","PA","15003",40.5879393,-80.2248851,"0","Filipino, Food, Restaurants, Barbeque, Smokehouse"
"55",152215,"Happy's Pizza","Lorain","OH","44052",41.4423623,-82.1858509,"1","Pizza, Restaurants, Barbeque, Chicken Wings"
"56",116732,"Haroo","Toronto","ON","M2M 3V7",43.787427,-79.4170912,"0","Restaurants, Korean, Barbeque"
"57",86631,"Tony Roma's","Calgary","AB","T3G 4J8",51.0798557,-114.0025499,"1","Barbeque, Restaurants, Seafood, Steakhouses, American (Traditional)"
"58",106634,"Shane's Rib Shack","Chandler","AZ","85226",33.317906,-111.964138,"0","Restaurants, Barbeque"
"59",167318,"The Rib House Restaurant","East York","ON","M4C 4E5",43.6932653,-79.3158736,"1","Barbeque, Restaurants, American (Traditional), Steakhouses"
"60",171412,"CK'S BBQ & Catering","Henderson","NV","89002",35.9607337,-114.939821,"0","Street Vendors, Caterers, Barbeque, Event Planning & Services, Food, Burgers, Restaurants, Chicken Wings, Food Trucks"
"61",191515,"Scotty""s Kitchen","Las Vegas","NV","89121",36.1305272,-115.1084585,"0","Restaurants, Barbeque, Nightlife, American (Traditional), Chicken Wings, Burgers, Pubs, Bars"
"62",155472,"Joes Real Bbq","Phoenix","AZ","85034",33.435002,-111.998248,"1","Barbeque, Restaurants"
"63",68890,"Z-Best BBQ","Pittsburgh","PA","15219",40.4388749,-79.9875623,"1","Restaurants, Barbeque, American (New), Soul Food"
"64",73092,"Smokin Fins","Chandler","AZ","85226",33.3181579,-111.9692962,"1","Restaurants, Mexican, Seafood, American (Traditional), Barbeque, Sushi Bars"
"65",157515,"BLD Chandler","Chandler","AZ","85286",33.2770025,-111.8753357,"1","Food, Barbeque, Restaurants, American (Traditional), Breakfast & Brunch"
"66",43595,"Lagerheads","Medina","OH","44256",41.1971333,-81.8871139,"1","Restaurants, Barbeque"
"67",42633,"Crooked River Bbq + Beer","Lyndhurst","OH","44124",41.5194257856,-81.4956962317,"0","Barbeque, Salad, American (Traditional), Restaurants"
"68",82871,"Smoky Jon's No 1 BBQ","Madison","WI","53704",43.123698,-89.355581,"1","Fast Food, Barbeque, Restaurants"
"69",165156,"Senor Pizza","Phoenix","AZ","85042",33.3771567,-112.0456329,"1","Barbeque, Chicken Wings, Pizza, Restaurants"
"70",57590,"That BBQ Joint","Madison","WI","53703",43.087384,-89.358648,"0","Restaurants, Barbeque"
"71",78392,"Manila BBQ","Henderson","NV","89014",36.0723568358,-115.0758828586,"1","Restaurants, Barbeque, Filipino, Asian Fusion"
"72",86308,"SanToki Korean BBQ & Shabu Bar","Las Vegas","NV","89169",36.1088013,-115.152093,"0","Korean, Restaurants, Barbeque"
"73",14414,"Dickey's Barbecue Pit","Gilbert","AZ","85295",33.3063897071,-111.7496616951,"1","Restaurants, Barbeque"
"74",35136,"Fired Up","Mississauga","ON","L5G 1C9",43.5527566,-79.5838869,"1","Restaurants, Barbeque, Burgers"
"75",54372,"Shilla Korean BBQ","Las Vegas","NV","89102",36.1438599,-115.178936,"0","Barbeque, Japanese, Vietnamese, Restaurants, Korean"
"76",171844,"Whisky River at the Airport","Charlotte","NC","28208",35.2231187519,-80.9403813657,"1","Barbeque, Southern, Restaurants"
"77",81421,"Butch's Saloon","North Royalton","OH","44133",41.336731,-81.7847172,"0","Pubs, Caterers, Steakhouses, Bars, Nightlife, Barbeque, Restaurants, Event Planning & Services"
"78",121574,"Famous Dave's","Champaign","IL","61821",40.1118938,-88.2780325,"0","Restaurants, Barbeque"
"79",70781,"Smoke and Go BBQ","Huntersville","NC","28078",35.4438745266,-80.895629169,"1","Food, Event Planning & Services, Street Vendors, Food Stands, Restaurants, Food Trucks, Fast Food, Barbeque, Caterers"
"80",110592,"Pho MC","Brossard","QC","J4X 2S6",45.448805,-73.471791,"1","Vietnamese, Barbeque, Restaurants, Soup"
"81",177296,"Ono Hawaiian BBQ","Phoenix","AZ","85042",33.376977,-112.029821,"1","Barbeque, Event Planning & Services, Caterers, Hawaiian, Restaurants"
"82",131028,"Po' Boys Restaurant","Urbana","IL","61801",40.11771,-88.2059038,"1","Restaurants, Pizza, Barbeque"
"83",132752,"Woo Che","Las Vegas","NV","89102",36.1261038,-115.2054322,"0","Barbeque, Buffets, Restaurants, Korean"
"84",95329,"Barbeques Galore","Phoenix","AZ","85050",33.67637,-111.975619,"1","Restaurants, Barbeque, Grilling Equipment, Shopping, Outdoor Furniture Stores, Home & Garden, Appliances"
"85",118836,"Brown Derby","Mentor","OH","44060",41.71438,-81.298804,"0","Steakhouses, Restaurants, Food, Beer, Wine & Spirits, Barbeque"
"86",185694,"Grillades Torino","Laval","QC","H7T 1C8",45.5714505671,-73.7544280933,"1","Barbeque, Restaurants, Mediterranean"
"87",149840,"Suck Bang Blow Smokehouse","Concord","NC","28027",35.363335,-80.711935,"0","Barbeque, Restaurants"
"88",187629,"Hap's Pit Barbecue","Phoenix","AZ","85034",33.446945762,-111.9779896845,"1","Restaurants, Barbeque"
"89",38090,"Dang Good BBQ","Toronto","ON","M7A",43.6623015,-79.3894938,"1","Food Trucks, Barbeque, Restaurants, Smokehouse, Food"
"90",151684,"Casa Alentejo","Montréal","QC","H2S 2L7",45.5338324,-73.5983174,"1","Barbeque, Portuguese, Restaurants"
"91",37377,"O Poleiro BBQ","Bradford","ON","L3Z 0G1",44.109183945,-79.5852348581,"1","Restaurants, Portuguese, Barbeque"
"92",90043,"Smokin Hot BBQ","Chandler","AZ","85224",33.3260297,-111.8747445,"1","Food Trucks, Event Planning & Services, Caterers, Barbeque, Restaurants, Food"
"93",66438,"Cowtown Beef Shack","Calgary","AB","T2M 3M7",51.0671323,-114.0896244,"0","Southern, Barbeque, Restaurants, Delis, Sandwiches"
"94",29310,"Le Pirate de Laval","Laval","QC","H7G 2V9",45.5734551713,-73.6961740628,"1","Italian, Canadian (New), Barbeque, Seafood, Restaurants"
"95",65124,"Q Bistro","Las Vegas","NV","89146",36.1273969,-115.2240685,"1","American (New), Nightlife, Korean, Bars, Barbeque, Chicken Wings, Restaurants, Asian Fusion, Pizza, Soup"
"96",84278,"Hot Sauce Legacy BBQ","Cleveland","OH","44106",41.522815,-81.600429,"1","Soul Food, Barbeque, Restaurants"
"97",97288,"Timeout Pizza Pub & Grub","Cheswick","PA","15024",40.541278,-79.818972,"0","Pizza, Barbeque, Restaurants"
"98",131127,"Tucky's Smokin BBQ","Henderson","NV","89015",36.0420584,-114.9838294,"1","Restaurants, Barbeque"
"99",17769,"Garden Grill","Cleveland","OH","44135",41.4337349653,-81.8230739236,"0","Barbeque, Food, Restaurants, Salad, Desserts"
"100",185569,"Legacy Restaurant & Grille","Avon Lake","OH","44012",41.4795924972,-81.9988745423,"1","Nightlife, American (Traditional), Barbeque, Restaurants, American (New), Bars"
"101",118650,"Rhema Soul Cuisine","Phoenix","AZ","85034",33.4469064,-112.0567192,"0","Restaurants, Soul Food, Comfort Food, Barbeque"
"102",11957,"Eldorado Barbecue Lounge","Calgary","AB","T2P 1G6",51.0459705,-114.0753528,"0","American (Traditional), Nightlife, Wine Bars, Barbeque, Bars, Restaurants"
"103",65854,"Famous Dave's Barbeque","Las Vegas","NV","89147",36.1141807443,-115.3039205521,"0","Caterers, Restaurants, Event Planning & Services, Sandwiches, Barbeque"
"104",28128,"Locomoco Hawaii  BBQ","Las Vegas","NV","89110",36.1756895125,-115.0631254142,"0","Restaurants, Barbeque, Hawaiian, Asian Fusion"
"105",5595,"Burgers + Ethnic Food + BBQ","Madison","WI","53719",43.0586334579,-89.5049548626,"0","Specialty Food, Imported Food, Ethnic Food, Restaurants, Food, Barbeque, Burgers"
"106",38252,"Boardwalk Billy's Raw Bar-river & Ribs - Crown Point","Charlotte","NC","28270",35.138449,-80.736385,"1","Seafood, Sandwiches, Sports Bars, Barbeque, Bars, Nightlife, Restaurants, American (Traditional), Beer Bar, Cocktail Bars"
"107",49527,"Smoke Modern Barbeque","Huntersville","NC","28078",35.4440133,-80.8816011,"0","Barbeque, Restaurants"
"108",40962,"Hansik Korea","Toronto","ON","M3J 2C9",43.7687378377,-79.4696001336,"1","Korean, Seafood, Barbeque, Restaurants"
"109",117205,"Naked BBQ","Phoenix","AZ","85023",33.6408095,-112.1113381,"1","Restaurants, Barbeque, American (New), Caterers, Southern, Event Planning & Services"
"110",149234,"The Orchard House","Brunswick","OH","44212",41.26905,-81.840503,"0","American (New), Restaurants, Barbeque"
"111",177117,"Chubby Hubby BBQ Sport & Grille","Mesa","AZ","85206",33.4122752,-111.683851,"0","Barbeque, American (Traditional), Restaurants"
"112",165829,"Mr. Schnapp's Pub & Grill","Calgary","AB","T2E 2L8",51.084743,-114.049423,"1","Barbeque, Restaurants, Sports Bars, Bars, Nightlife"
"113",83113,"Swiss Chalet Rotisserie & Grill","Calgary","AB","T3J 3E8",51.0975103,-113.9568659,"1","Barbeque, Fast Food, Comfort Food, American (Traditional), Restaurants"
"114",483,"Samdae Korean BBQ","Las Vegas","NV","89103",36.1160823641,-115.2255387604,"0","Food, Barbeque, Juice Bars & Smoothies, Restaurants, Korean"
"115",15367,"Manna Korean BBQ","Las Vegas","NV","89146",36.1586808,-115.2367199,"1","Korean, Restaurants, Soul Food, Bubble Tea, Barbeque, Food"
"116",58111,"Dickey's Barbecue Pit","Scottsdale","AZ","85260",33.581501,-111.923393,"0","Caterers, Event Planning & Services, Barbeque, Restaurants"
"117",16123,"Jimmy's Backyard BBQ","Cuyahoga Falls","OH","44221",41.1578353,-81.4927271,"1","Tex-Mex, Sandwiches, Restaurants, Mexican, Barbeque"
"118",9498,"Bâton Rouge Steakhouse & Bar","Montréal","QC","H3G 1Y8",45.496022,-73.571486,"1","Restaurants, Southern, Barbeque, Seafood, Nightlife, Gluten-Free, Steakhouses, Bars"
"119",152661,"Comfort Cravings","Phoenix","AZ","85003",33.4495511,-112.0789355,"0","Food, Food Trucks, Sandwiches, Barbeque, Restaurants, American (Traditional), Cuban, Comfort Food"
"120",104002,"Cowtown Beef Shack","Calgary","AB","T2Z 0N2",50.9155748,-113.9619684,"1","Sandwiches, Restaurants, Barbeque, Delis"
"121",156085,"Bad to the Bone BBQ","Scottsdale","AZ","85260",33.6372504,-111.9210057,"0","Barbeque, Restaurants"
"122",88584,"The Palomino","Calgary","AB","T2P 0W5",51.0464663644,-114.0635331701,"1","Restaurants, Music Venues, Arts & Entertainment, Nightlife, Barbeque"
"123",47184,"Stewart's Smokin Backyard BBQ","Kirtland","OH","44094",41.6289365,-81.3614985,"1","Barbeque, Caterers, Restaurants, Food Trucks, Event Planning & Services, Food"
"124",29885,"El Paso Bar-B-Que Company","Glendale","AZ","85302",33.5815256,-112.1520175,"0","Barbeque, Restaurants"
"125",44609,"Beauty Barbecue & Smokehouse","Toronto","ON","M2K 1E6",43.7686369,-79.3884264,"1","Food, Smokehouse, Restaurants, Barbeque"
"126",111301,"Costa Verde BBQ Chicken","Toronto","ON","M6M 1T4",43.6906996,-79.4717288,"0","Restaurants, Portuguese, Barbeque"
"127",141677,"Que Supper Club","Toronto","ON","M5A 3A8",43.6557576,-79.3638181,"0","Barbeque, Restaurants"
"128",108814,"La Traite","Montréal","QC","H3A 2K4",45.5067229547,-73.5680980453,"0","Canadian (New), Barbeque, Restaurants, Breakfast & Brunch, Hot Dogs"
"129",189792,"The Rib Palace","Charlotte","NC","28263",35.22081,-80.8168684,"0","Barbeque, Restaurants"
"130",136100,"La Station des Sports","Saint Leonard","QC","H1P 1W7",45.598484,-73.577985,"1","Canadian (New), Restaurants, Bars, Breakfast & Brunch, Burgers, Nightlife, Sports Bars, Barbeque"
"131",107531,"Little Miss BBQ","Phoenix","AZ","85034",33.4218771341,-111.9893442839,"1","Barbeque, Restaurants"
"132",186070,"Old Carolina Barbecue Company","Strongsville","OH","44136",41.3068855,-81.8345881,"1","Restaurants, Caterers, Event Planning & Services, Barbeque"
"133",50855,"Twelve Whiskey Barbecue","Pittsburgh","PA","15203",40.428689,-79.9854892,"1","Barbeque, Restaurants"
"134",167520,"Nevada Chicken Cafe","Las Vegas","NV","89146",36.1437858,-115.2266305,"1","Cafes, Sandwiches, Delis, Wraps, Restaurants, American (Traditional), Barbeque, Chicken Shop, Food, American (New), Salad"
"135",132131,"Mission BBQ","Pittsburgh","PA","15205",40.4480044,-80.1590415,"1","Barbeque, American (Traditional), Restaurants"
"136",73260,"Chalet Bar-B-Q","Montréal","QC","H4A 1V9",45.472721,-73.610958,"1","Chicken Shop, Food, Restaurants, Barbeque"
"137",69311,"Copa By Sea","Toronto","ON","M5H 3H1",43.648443,-79.3882263,"0","Vegetarian, Brazilian, Seafood, Restaurants, Barbeque"
"138",63866,"Galo Do Sardinha Churrasqeira","Toronto","ON","M6E 2W1",43.6877675,-79.4387488,"1","Portuguese, Nightlife, American (Traditional), Barbeque, Caterers, Event Planning & Services, Restaurants, Bars"
"139",5951,"New York Pizza Ribs & Wings","Las Vegas","NV","89107",36.1601188815,-115.2348516157,"1","Barbeque, Event Planning & Services, Food, Pizza, Restaurants, Food Delivery Services, Italian, Chicken Wings, Caterers"
"140",164435,"Restaurant Yas","Montréal","QC","H4A 2A7",45.4698333,-73.6086882,"1","Restaurants, Barbeque, Mediterranean, Persian/Iranian"
"141",49533,"Montana's BBQ & Bar","Thornhill","ON","L3T 7X1",43.8122004,-79.3581215,"0","Comfort Food, Bars, Nightlife, Canadian (New), Restaurants, Barbeque, Steakhouses"
"142",86045,"Le Milsa","Laval","QC","H7M 1Y9",45.5764889499,-73.7137208907,"1","Restaurants, Brazilian, Barbeque, Buffets"
"143",18201,"Canadian BBQ","Mississauga","ON","L4Y 2C1",43.6038454138,-79.5876101312,"1","Restaurants, Hot Dogs, Barbeque"
"144",25220,"Pork On A Fork","Phoenix","AZ","85027",33.683323,-112.092428,"1","Farmers Market, Caterers, Barbeque, Food, Event Planning & Services, Restaurants"
"145",7662,"Soyo Korean Barstaurant","Las Vegas","NV","89139",36.0468023773,-115.2441707253,"1","Nightlife, Korean, Barbeque, Restaurants, Bars"
"146",14067,"Village Suya","Mississauga","ON","L5C 4L2",43.5782985,-79.6612622,"1","Restaurants, Caribbean, African, Barbeque"
"147",97065,"The Hub Grill and Bar","Mesa","AZ","85209",33.380424,-111.66622,"1","Barbeque, Restaurants, Nightlife, Burgers, American (Traditional), Sports Bars, Bars"
"148",189740,"Seven Seas Restaurant & Lounge","Las Vegas","NV","89106",36.1960195,-115.1522128,"0","Nightlife, Barbeque, Lounges, Restaurants, Bars, Soul Food"
"149",163078,"Angry Crab Shack","Mesa","AZ","85212",33.3641467,-111.6556854,"1","Barbeque, Seafood, Restaurants"
"150",167706,"Memphis Best BBQ","Goodyear","AZ","85338",33.457728,-112.393819,"0","Restaurants, Barbeque"
"151",15591,"Wild Wing Cafe","Charlotte","NC","28202",35.225324,-80.842187,"1","American (Traditional), Barbeque, Chicken Wings, Burgers, Restaurants"
"152",33939,"LongHorn Steakhouse","Pineville","NC","28134",35.0886094,-80.876996,"1","Barbeque, American (Traditional), Steakhouses, Restaurants"
"153",30107,"Texas Roadhouse","Surprise","AZ","85374",33.65198,-112.368332,"1","Burgers, Steakhouses, Restaurants, American (Traditional), Barbeque"
"154",38855,"Bar-B-Q King","Bradford","ON","L0G 1R0",44.11226,-79.541928,"1","Barbeque, Restaurants"
"155",16389,"Manna BBQ","Peoria","AZ","85382",33.6368949,-112.2339774,"1","Barbeque, Restaurants, Korean"
"156",188752,"Ye Olde Orchard","Montréal","QC","H3G 1Z2",45.497317,-73.5735009,"1","Nightlife, Bars, Irish, Irish Pub, Barbeque, Restaurants, Pubs"
"157",62614,"The One Sushi","Calgary","AB","T2H 0J4",51.007827,-114.068006,"0","Korean, Sushi Bars, Restaurants, Japanese, Thai, Barbeque"
"158",58698,"LongHorn Steakhouse","Pittsburgh","PA","15205",40.451402576,-80.161831434,"1","Barbeque, Steakhouses, Restaurants, American (Traditional)"
"159",38813,"Rôtisserie St-Hubert","Montréal","QC","H2J 2L1",45.5235859,-73.5823961,"0","Chicken Wings, Barbeque, Restaurants, Chicken Shop"
"160",186522,"Le Coq Rico","Montréal","QC","H2M 1P5",45.547047057,-73.6420729477,"1","Restaurants, Barbeque, Portuguese"
"161",117128,"True Island BBQ","Las Vegas","NV","89123",36.0153561,-115.1185146,"0","Barbeque, Hawaiian, Restaurants"
"162",127373,"Bryan's BBQ Real Korean","Toronto","ON","M6G 1K4",43.6647836,-79.4133806,"1","Korean, Hot Pot, Restaurants, Barbeque"
"163",84043,"B Korean BBQ","Toronto","ON","M5T 1G9",43.6532539109,-79.3969659135,"0","Barbeque, Korean, Restaurants"
"164",110050,"BoBo's BBQ","Champaign","IL","61820",40.1125152,-88.2715751,"1","Hot Dogs, Restaurants, Barbeque"
"165",78895,"Breakwall BBQ","Toronto","ON","M4L 1H5",43.6693242,-79.304498,"1","Nightlife, Sports Bars, Bars, American (Traditional), Barbeque, Restaurants, Breakfast & Brunch"
"166",78016,"Shinta Japanese BBQ","Richmond Hill","ON","L4B 3B1",43.8439761,-79.3878015,"1","Buffets, Asian Fusion, Restaurants, Barbeque, Japanese"
"167",43281,"Mac's Speed Shop - Lake Norman","Cornelius","NC","28031",35.4808154,-80.8784689,"1","Nightlife, American (Traditional), Bars, Restaurants, Sports Bars, Barbeque"
"168",176315,"Gen Korean BBQ House","Las Vegas","NV","89146",36.1441245,-115.2108226,"1","Barbeque, Korean, Restaurants"
"169",66266,"Blackstrap BBQ","Verdun","QC","H4G 1W6",45.4596462,-73.5671386,"1","Sandwiches, Barbeque, Restaurants, Canadian (New)"
"170",166198,"Swiss Chalet Rotisserie & Grill","Toronto","ON","M2P 1N9",43.7475448574,-79.40731287,"1","American (Traditional), Comfort Food, Barbeque, Restaurants"
"171",145334,"Tong Ha Supreme BBQ","Toronto","ON","M1V 5N1",43.8222357134,-79.2987155914,"1","Barbeque, Food Court, Chinese, Restaurants"
"172",41775,"Kookminhakgyo","Toronto","ON","M2M 3W2",43.788963,-79.4183573,"1","Korean, Barbeque, Restaurants"
"173",51358,"Young's Hawaiian Style Kitchen","Las Vegas","NV","89130",36.2183313,-115.2081814,"0","Restaurants, Sushi Bars, Hawaiian, Korean, Fast Food, Barbeque"
"174",75055,"Rôtisserie St-Hubert","Laval","QC","H7T 1S2",45.5568512,-73.7497799,"1","Barbeque, Fast Food, Restaurants, Chicken Shop"
"175",48517,"TIG BBQ","Las Vegas","NV","89032",36.238327,-115.182809,"1","Chicken Wings, Burgers, Food, Barbeque, Restaurants, Southern, Food Trucks"
"176",103001,"LongHorn Steakhouse","Phoenix","AZ","85051",33.5780591596,-112.1181255206,"1","Restaurants, American (Traditional), Steakhouses, Barbeque"
"177",48020,"Bar-Be-Que Hut","Toronto","ON","M4L 1Z9",43.6722484,-79.3212267,"0","Restaurants, Pakistani, Middle Eastern, Indian, Barbeque"
"178",190682,"La Station des Sports","Montréal","QC","H2L 2E3",45.5162165318,-73.5580845665,"1","Sports Bars, Barbeque, Burgers, Restaurants, Bars, Nightlife"
"179",71568,"Lucille's Smokehouse Bar-B-Que","Las Vegas","NV","89135",36.1568053738,-115.3341114173,"1","American (Traditional), Smokehouse, Barbeque, Food, Southern, Restaurants, Bars, Nightlife"
"180",81833,"Smokin' Q's BBQ and Beer House","Mayfield","OH","44143",41.543775,-81.43913,"1","Nightlife, Sandwiches, Beer Bar, Restaurants, Caterers, Bars, Event Planning & Services, Barbeque"
"181",133250,"Troutman's Bar-B-Que","Concord","NC","28025",35.3764712,-80.553054,"0","Restaurants, Barbeque, Event Planning & Services, Caterers"
"182",192058,"Grill City","Las Vegas","NV","89119",36.1181769595,-115.1360216169,"1","Barbeque, Seafood, Filipino, Restaurants"
"183",131472,"Boston Market","Phoenix","AZ","85021",33.553471,-112.099212,"1","Comfort Food, American (New), American (Traditional), Barbeque, Restaurants"
"184",55351,"Yang's BBQ Restaurant","Toronto","ON","M1S 5C9",43.8042008789,-79.2884373665,"1","Barbeque, Restaurants"
"185",66745,"Dickey's Barbecue Pit","Las Vegas","NV","89123",36.0544365,-115.171454,"1","Barbeque, Southern, American (Traditional), Event Planning & Services, Caterers, Restaurants"
"186",127251,"Hogs Heaven Barbecue","Las Vegas","NV","89131",36.261503,-115.2070725,"0","Restaurants, Barbeque"
"187",22077,"Rock & Rita's","Las Vegas","NV","89109",36.136946734,-115.1638135787,"0","Restaurants, American (New), Barbeque, American (Traditional)"
"188",154622,"Long Zu Bbq","Mississauga","ON","L4Y 4G6",43.5978632948,-79.5946014673,"1","Barbeque, Chinese, Restaurants"
"189",56220,"Churrasco of Portugal","Ajax","ON","L1T 0A9",43.8971681626,-79.033591604,"1","Barbeque, Portuguese, Restaurants, Food"
"190",57025,"Social Resto Lounge","Whitby","ON","L1N 4K2",43.8779937,-78.9413965,"0","Barbeque, Salad, Nightlife, Steakhouses, Tapas Bars, Bars, Restaurants"
"191",147346,"Brown Derby Roadhouse","Akron","OH","44310",41.1140412,-81.4659925,"0","Restaurants, Barbeque, Steakhouses, Diners"
"192",51268,"Wood N' Hog Barbecue","Champaign","IL","61820",40.12454,-88.233577,"1","Barbeque, Chicken Wings, Restaurants, Event Planning & Services, Caterers"
"193",31897,"K's Bbq","Las Vegas","NV","89123",36.0151319,-115.1721706,"0","Restaurants, Barbeque"
"194",151497,"Famous Dave's Bar-B-Que","Madison","WI","53715",43.0578774,-89.4001047,"1","American (Traditional), Barbeque, Restaurants, Comfort Food"
"195",88397,"Momma Wade's Smokehouse","Cuyahoga Falls","OH","44221",41.1362185,-81.4828198,"1","Food, Caterers, Barbeque, Food Stands, Food Trucks, Event Planning & Services, Southern, Restaurants, Smokehouse"
"196",143878,"Queen City Q","Charlotte","NC","28277",35.0282288523,-80.8509961143,"0","Barbeque, Restaurants, Southern"
"197",173078,"Johnny Midnights BBQ Smokehouse","Pickering","ON","L1W 3R2",43.8304449064,-79.0821173048,"0","Barbeque, Restaurants"
"198",78349,"Swiss Chalet Rotisserie & Grill","Toronto","ON","M5B 1S5",43.6583169,-79.382174,"1","Barbeque, Comfort Food, Canadian (New), Restaurants, American (Traditional), Chicken Wings"
"199",28756,"XYZ the Tavern","Cleveland","OH","44102",41.4841386,-81.7298609,"1","Pizza, Bars, Nightlife, American (New), Barbeque, Restaurants, Pubs"
"200",149241,"Pork & Pickle","Dorval","QC","H4Y 1H1",45.4583439,-73.7485196,"1","Restaurants, Bars, Barbeque, Nightlife, Pubs, American (Traditional)"
"201",74928,"Andrew's BBQ","Tempe","AZ","85283",33.3649138593,-111.9305216116,"1","Restaurants, Barbeque, Chicken Wings"
"202",83965,"Blair Street BBQ & Catering","Madison","WI","53703",43.078469,-89.378072,"0","Restaurants, Barbeque"
"203",125989,"Big Bone BBQ & Wicked Wings","Maple","ON","L4J 1M3",43.8557521,-79.5134886,"1","Barbeque, Chicken Wings, Restaurants, Southern"
"204",104168,"Extra Bbq House","Markham","ON","L3R 3P3",43.8497470643,-79.3472914025,"1","Restaurants, Barbeque"
"205",8285,"Cadillac Ranch","Tempe","AZ","85281",33.433210772,-111.9033366766,"0","Restaurants, Barbeque, Burgers, Steakhouses"
"206",22811,"Can't Stop Smokin Bar-B-Q","Mesa","AZ","85213",33.4234709,-111.7733946,"1","Restaurants, Sandwiches, Barbeque"
"207",70428,"Chako","Mississauga","ON","L5T 2Y3",43.638172,-79.692596,"1","Barbeque, Korean, Asian Fusion, Restaurants"
"208",172377,"LongHorn Steakhouse","Gastonia","NC","28054",35.2619021,-81.1341213,"1","Steakhouses, Restaurants, Barbeque, American (Traditional)"
"209",32619,"Wai's BBQ House","Calgary","AB","T2P 0H5",51.0505715,-114.063558,"1","Barbeque, Chinese, Canadian (New), Restaurants"
"210",72381,"Z-Best Barbeque Chicken & Ribs","Pittsburgh","PA","15219",40.4521327,-79.9646801,"0","Barbeque, Restaurants"
"211",120198,"5 Star BBQ & Grill","Mesa","AZ","85201",33.418815,-111.840378,"0","Caterers, Barbeque, Restaurants, Event Planning & Services"
"212",186042,"Wings Over Madison","Madison","WI","53705",43.0737170375,-89.4354120167,"1","Chicken Wings, Barbeque, Restaurants, American (Traditional)"
"213",36450,"Ol'chefskis BBQ","Aurora","OH","44202",41.3185659,-81.302344,"1","Modern European, Restaurants, Sandwiches, Barbeque"
"214",102558,"The Street Eatery","Calgary","AB","T2P 0K4",51.0501231,-114.0807025,"1","Nightlife, Burgers, Comfort Food, Mexican, Food, Canadian (New), Vegan, Indian, Vietnamese, Korean, Sandwiches, Street Vendors, Cocktail Bars, Bars, Beer Bar, Restaurants, Barbeque, Thai"
"215",108538,"Moo Woo Korean BBQ","Las Vegas","NV","89149",36.266339,-115.258826,"1","Korean, Asian Fusion, Barbeque, Restaurants"
"216",162798,"Horn Dawgs","Pickering","ON","L1W 3R3",43.8299691969,-79.0823559086,"1","Barbeque, Chicken Wings, Restaurants"
"217",33760,"Marky's BBQ","Toronto","ON","M6S 3Z3",43.6577905,-79.4878006,"0","Restaurants, Barbeque"
"218",64282,"Texas Roadhouse","Concord","NC","28025",35.368956,-80.711873,"1","Barbeque, American (Traditional), Steakhouses, Restaurants"
"219",88774,"Fritzi's Heart & Soul BBQ","Avondale","AZ","85323",33.4537199,-112.340385,"0","Restaurants, Barbeque, Food"
"220",22932,"Athenian Grill","Indian Trail","NC","28079",35.068953,-80.678809,"1","Specialty Food, American (Traditional), Mediterranean, Food, Greek, Sandwiches, Ethnic Food, Barbeque, Salad, Restaurants"
"221",32879,"Bourbon Street Bar & BBQ","Chandler","AZ","85249",33.2359121,-111.789788,"0","Restaurants, Cajun/Creole, Barbeque, Beer, Wine & Spirits, Food, Bars, Nightlife"
"222",177665,"Ray's Country Smokehouse & Grill","Gastonia","NC","28052",35.2611292,-81.1789721,"1","Food, Smokehouse, American (Traditional), Restaurants, Barbeque"
"223",55116,"Jim 'N Nick's Bar-B-Q","Indian Land","SC","29707",34.998849,-80.856373,"1","Southern, Restaurants, Barbeque, Caterers, Event Planning & Services, Sandwiches"
"224",62374,"Whitmore's Bar-B-Q","Warrensville Heights","OH","44122",41.4502447,-81.5371994,"1","Restaurants, Barbeque"
"225",1417,"Cherry Street Bar-B-Que","Toronto","ON","M5H 2G4",43.6502911,-79.3839517,"1","Barbeque, Restaurants"
"226",111160,"JT's Barbecue Buffet and Catering","Medina","OH","44256",41.1442994,-81.8898098,"1","Sandwiches, Buffets, Event Planning & Services, Caterers, Barbeque, Food Trucks, Restaurants, Food"
"227",50695,"TEXAZ Grill","Phoenix","AZ","85016",33.523984,-112.04698,"1","Restaurants, Steakhouses, Barbeque, Desserts, Food"
"228",163257,"Phil's Original BBQ","Toronto","ON","M6H 1A2",43.6544131379,-79.4231388408,"0","Sandwiches, Barbeque, Restaurants"
"229",75552,"Yagyu Yakiniku","Las Vegas","NV","89102",36.125908,-115.197906,"0","Korean, Seafood, Japanese, Barbeque, Restaurants, Steakhouses"
"230",180152,"Dillon's Grand","Surprise","AZ","85374",33.661349,-112.403597,"0","American (Traditional), Restaurants, Barbeque"
"231",132346,"Café Cravings","Pittsburgh","PA","15211",40.4318531,-80.0156807,"1","Cafes, Sandwiches, Restaurants, Breakfast & Brunch, Barbeque"
"232",96389,"Dickey's Barbecue Pit","Phoenix","AZ","85032",33.5986921,-111.9783076,"1","Southern, Sandwiches, American (Traditional), Event Planning & Services, Caterers, Restaurants, Barbeque"
"233",24270,"Aylwin Barbecue","Montréal","QC","H4C 2H6",45.479518,-73.576967,"1","Restaurants, Barbeque"
"234",80595,"Tom's BBQ","Chandler","AZ","85249",33.2359121,-111.789788,"0","Barbeque, Restaurants, Event Planning & Services, Caterers"
"235",141921,"Ironwood Cafe","Westlake","OH","44145",41.4769713,-81.921274,"1","American (Traditional), Restaurants, Nightlife, Event Planning & Services, Barbeque, Bars, Cafes, Caterers, Sports Bars"
"236",9918,"Rocky Top BBQ Co","Charlotte","NC","28211",35.1972889694,-80.7998236699,"1","Barbeque, Food, Event Planning & Services, Southern, Caterers, Food Trucks, Restaurants"
"237",54672,"Cook's BBQ","Las Vegas","NV","89102",36.1557391,-115.1595405,"0","Restaurants, Barbeque"
"238",27496,"Bâton Rouge","Terrebonne","QC","J6V 1P7",45.725013,-73.501875,"1","Bars, Barbeque, Steakhouses, Nightlife, Restaurants"
"239",152052,"Rôtisserie St-Hubert","Kirkland","QC","H9H 3B5",45.4474996018,-73.852859649,"1","Chicken Shop, Barbeque, Restaurants"
"240",78431,"Texas Roadhouse","Elyria","OH","44035",41.389171,-82.106366,"1","American (Traditional), Barbeque, Steakhouses, Restaurants"
"241",160022,"Les 3 Maria","Dollard-des-Ormeaux","QC","H8Y 3C7",45.5045656715,-73.8180620119,"1","Barbeque, Portuguese, Restaurants, Chicken Shop"
"242",6761,"J&J BBQ And Grill","Elyria","OH","44035",41.395137996,-82.1111928135,"1","Restaurants, Asian Fusion, American (Traditional), Barbeque"
"243",114554,"Ssam","North York","ON","M2N 5S2",43.779495,-79.4158253,"0","Bars, Barbeque, Restaurants, Nightlife, Korean"
"244",105177,"521 BBQ & Grill","Tega Cay","SC","29708",35.0479586,-80.9923305,"1","Chicken Wings, Burgers, Restaurants, Barbeque"
"245",32085,"Dickey's Barbecue Pit","Mesa","AZ","85206",33.3802306,-111.6885614,"1","Caterers, Event Planning & Services, American (Traditional), Restaurants, Barbeque, Southern"
"246",155289,"Thee Pitts Again","Glendale","AZ","85308",33.6393583,-112.1790923,"1","Barbeque, Food, Restaurants"
"247",163126,"Naked BBQ","Scottsdale","AZ","85258",33.579389,-111.88718,"1","Restaurants, Barbeque, Sandwiches, Salad"
"248",31313,"The Suya Spot Scarborough","Toronto","ON","M1E 3G1",43.7715993,-79.1869592,"1","Barbeque, Soul Food, Restaurants, African"
"249",174464,"BBQ King","Las Vegas","NV","89146",36.1259475,-115.2189011,"1","Barbeque, Chinese, Cantonese, Restaurants, Food"
"250",179681,"Tom's BBQ","Tempe","AZ","85283",33.3777444,-111.9382295,"1","Restaurants, Barbeque, Hot Dogs, Caterers, Event Planning & Services"
"251",144920,"Hong Fatt B-B-Q","Toronto","ON","M5T 1G6",43.6532063,-79.3958906,"1","Restaurants, Barbeque, Chinese"
"252",6985,"Garage Beirut","Montréal","QC","H3G 2H4",45.4951918,-73.5762322,"1","Barbeque, Restaurants, Lebanese, Middle Eastern"
"253",74825,"Big Belly's BBQ","Tempe","AZ","85281",33.421676,-111.959765,"0","Restaurants, Barbeque"
"254",33840,"Moe's Bar & Grill","Pointe-Claire","QC","H9R 5N8",45.46764,-73.831312,"1","Restaurants, Barbeque, Nightlife, Bars"
"255",58782,"Sticky Fingers Ribhouse","Concord","NC","28027",35.369963,-80.7173096,"1","Sandwiches, Barbeque, Burgers, Salad, American (Traditional), Event Planning & Services, Restaurants, Caterers"
"256",187244,"Kum Kang San","North York","ON","M3H 5T5",43.7831172,-79.4710748,"0","Korean, Barbeque, Restaurants, Japanese, Asian Fusion"
"257",85303,"Fresh BBQ Innovations Food Truck","Scottsdale","AZ","85264",33.4943493443,-111.9258373233,"0","Bars, Barbeque, Food, Whiskey Bars, Food Trucks, Nightlife, Restaurants"
"258",100588,"Shane's Rib Shack","Charlotte","NC","28216",35.3490893,-80.8558106,"1","Steakhouses, Barbeque, Restaurants, Fast Food, Event Planning & Services, Southern, Caterers"
"259",59775,"Charlie Graingers","Concord","NC","28027",35.385188,-80.6891052,"0","Barbeque, Restaurants, Hot Dogs"
"260",186475,"Big Butcher Barbeque","Toronto","ON","M8Z 5G9",43.6332915,-79.531768,"0","Burgers, Restaurants, Fast Food, Barbeque, Food"
"261",103502,"Texas Roadhouse","Phoenix","AZ","85051",33.578692,-112.1182908,"1","American (Traditional), Barbeque, American (New), Restaurants, Steakhouses"
"262",186341,"Appalachia Smokehouse Barbeque","Toronto","ON","M8V 1C4",43.6146370266,-79.4890316584,"1","Smokehouse, Barbeque, Food, Restaurants"
"263",155132,"Three Brothers Restaurant","Etobicoke","ON","M8Y 1K8",43.6270685,-79.4985962,"1","Soup, Restaurants, Barbeque, Canadian (New), Salad, Mediterranean, Nightlife, Modern European, Bars"
"264",59568,"Logan's Roadhouse","Phoenix","AZ","85085",33.7124261365,-112.112801671,"0","Steakhouses, Barbeque, Nightlife, Restaurants, American (Traditional), Bars"
"265",90961,"Smoke BBQ Grill","Painesville","OH","44077",41.7506113233,-81.2073023083,"1","American (Traditional), Restaurants, Barbeque"
"266",97795,"Li'l Porgy's Bar-B-Que","Champaign","IL","61821",40.112421,-88.280002,"1","Barbeque, Caterers, Event Planning & Services, Restaurants"
"267",190833,"Crooked River BBQ + Beer","Mentor","OH","44060",41.6745459,-81.3131701,"0","Restaurants, Bars, Nightlife, Barbeque, Beer Bar"
"268",124900,"Souriana","Montréal","QC","H3G 2E2",45.4962872,-73.5757801,"1","Barbeque, Restaurants, Middle Eastern, Food, Meat Shops, Steakhouses, Butcher, Specialty Food"
"269",65850,"Henry's American Grill","Henderson","NV","89074",36.0442971,-115.04814,"1","Barbeque, American (Traditional), Restaurants"
"270",169236,"Sunny Jim's Tavern","Pittsburgh","PA","15202",40.5172794,-80.0938524,"1","Food, Beer, Wine & Spirits, American (Traditional), Restaurants, American (New), Nightlife, Mexican, Barbeque, Bars, Beer Bar"
"271",140755,"Smokey Bones Bar & Fire Grill","Tarentum","PA","15084",40.5704565,-79.7996866,"1","Barbeque, Restaurants, Food, American (Traditional), Burgers"
"272",189927,"Hillbilly's BBQ & Steaks","Charlotte","NC","28217",35.1651733,-80.8816148,"0","Barbeque, Restaurants"
"273",131906,"Bubba Phatz","Phoenix","AZ","85004",33.4586895,-112.0671875,"0","Barbeque, Restaurants"
"274",19991,"Bbq Express","Calgary","AB","T2E 2R8",51.064562,-114.0630348,"1","Barbeque, Restaurants"
"275",166453,"Fuji Lamb House","Scarborough","ON","M1W 3V8",43.8042553225,-79.3310516328,"1","Chinese, Barbeque, Restaurants"
"276",143437,"Seoul BBQ","Montréal","QC","H4B 2M8",45.463196,-73.627229,"1","Restaurants, Korean, Barbeque"
"277",24685,"Lulu Hawaiian BBQ","Las Vegas","NV","89131",36.2785951848,-115.2060102144,"1","Hawaiian, Barbeque, Restaurants"
"278",111703,"Dickey's Barbecue Pit","Phoenix","AZ","85016",33.4948977,-112.0146382,"1","Barbeque, Southern, American (Traditional), Restaurants"
"279",96540,"Burger de Ville","Montréal-Ouest","QC","H4X 1Y8",45.4532844,-73.6459719,"1","Filipino, Steakhouses, Restaurants, Barbeque, Burgers"
"280",79343,"Wings Express","Mesa","AZ","85210",33.4009410111,-111.8565704129,"1","Barbeque, American (New), Restaurants, Food"
"281",180013,"L'Afghan Grillade","Laval","QC","H7V 3T4",45.5391034596,-73.7351162493,"1","Barbeque, Restaurants, Afghan"
"282",185633,"Churrasqueira Grelha D'ouro","Brampton","ON","L6W 1V1",43.688504313,-79.7418001906,"1","Restaurants, Portuguese, Barbeque"
"283",162641,"Smokey Bones Bar & Fire Grill","Mentor","OH","44060",41.6605075,-81.3773621,"1","Restaurants, American (Traditional), Burgers, Barbeque"
"284",9073,"Hogtown Smoke","Toronto","ON","M5E 1E3",43.6490919,-79.3746483,"1","Southern, Restaurants, Steakhouses, Barbeque"
"285",92444,"Lo-Lo's Chicken & Waffles","Phoenix","AZ","85004",33.435393,-112.074021,"1","Waffles, Hot Dogs, Restaurants, Chicken Wings, Southern, Barbeque, Chicken Shop"
"286",101414,"SmokeN'Grind","Phoenix","AZ","85085",33.7635354,-112.0714835,"1","Restaurants, Event Planning & Services, Barbeque, Food, Food Trucks, Caterers"
"287",10399,"Stacy's Pit Stop BBQ","Phoenix","AZ","85020",33.5609161,-112.0654251,"0","Restaurants, American (New), Southern, Soul Food, Barbeque"
"288",159328,"Crabby Joe's Tap & Grill","Brampton","ON","L6W 3E1",43.6955261,-79.7491455,"0","American (Traditional), Barbeque, Pubs, Nightlife, Bars, Restaurants"
"289",134508,"Swiss Chalet Rotisserie & Grill","Brampton","ON","L6T 4P9",43.706683,-79.736149,"1","American (Traditional), Barbeque, Restaurants, Comfort Food"
"290",141990,"Cho Won Garden","Charlotte","NC","28227",35.143439,-80.722294,"0","Restaurants, Korean, Barbeque"
"291",93809,"Buffalo Chip Saloon & Steakhouse","Cave Creek","AZ","85331",33.8316835,-111.9345868,"1","Dive Bars, Bars, American (Traditional), Barbeque, Steakhouses, Nightlife, Restaurants"
"292",77705,"#1 Hawaiian Barbecue","Las Vegas","NV","89139",36.0433052,-115.2430625,"1","Restaurants, Hawaiian, Barbeque, Seafood"
"293",121656,"Stouffville Country Ribfest","Whitchurch-Stouffville","ON","L4A",43.9705861,-79.2442842,"1","Barbeque, Restaurants, Local Flavor, Festivals, Arts & Entertainment"
"294",112967,"Sassy Sal's BBQ","Las Vegas","NV","89131",36.3025669071,-115.2823852434,"0","Barbeque, Restaurants"
"295",140698,"Eat With Fun Roast Restaurant","Markham","ON","L3R 0W4",43.86123,-79.3049625,"1","Barbeque, Restaurants"
"296",24616,"Happy's Pizza","Cleveland","OH","44135",41.4345741272,-81.8018722534,"1","Pizza, American (Traditional), Restaurants, Barbeque, Chicken Wings"
"297",2427,"Union Pig & Chicken","Pittsburgh","PA","15206",40.4629577488,-79.9240576056,"0","Food, Chicken Wings, Beer, Wine & Spirits, Bars, Barbeque, Restaurants, Nightlife, Local Flavor"
"298",85904,"Hog Wild Pit Bar-B-Q","Phoenix","AZ","85018",33.4807622,-111.9933762,"1","Barbeque, Restaurants"
"299",22197,"Smoke Dem Bones BBQ","Phoenix","AZ","85016",33.4949202,-112.0455882,"1","Barbeque, Restaurants"
"300",65102,"L&L Hawaiian BBQ","Henderson","NV","89015",36.0264616215,-114.9647736375,"1","Event Planning & Services, Barbeque, Caterers, Hawaiian, Restaurants"
"301",87596,"Salt 'N Pepper Southern Comfort Bar and Grill","Las Vegas","NV","89145",36.166727198,-115.2868417678,"0","Southern, American (New), Restaurants, American (Traditional), Barbeque, Comfort Food, Nightlife, Bars"
"302",45628,"LongHorn Steakhouse","Matthews","NC","28105",35.132053,-80.711299,"1","American (Traditional), Restaurants, Barbeque, Steakhouses"
"303",127332,"Angelo's Diner/Restaurant","Garfield Heights","OH","44125",41.425735,-81.613844,"0","Barbeque, Restaurants"
"304",67521,"The Rib Cage","Cleveland","OH","44113",41.4861069,-81.705329,"1","Barbeque, Nightlife, Smokehouse, Bars, Food, American (Traditional), Restaurants"
"305",53066,"Trapp Haus BBQ","Phoenix","AZ","85004",33.4585501,-112.0670434,"1","Food, Caterers, Bars, Nightlife, Restaurants, Barbeque, Event Planning & Services, Beer Bar, Food Trucks"
"306",17751,"Elwoods Barbecue & Burger Bar","Charlotte","NC","28277",35.0279798,-80.8509451,"0","Barbeque, Restaurants, Burgers, Chicken Wings"
"307",56236,"Desert Eagle Brewing Company","Mesa","AZ","85215",33.4629333492,-111.7195365205,"1","Food, Bars, Nightlife, Breweries, Restaurants, Beer, Wine & Spirits, Pubs, Barbeque, Burgers"
"308",29254,"LongHorn Steakhouse","Rocky River","OH","44116",41.4614963334,-81.8521149967,"1","Restaurants, Steakhouses, Barbeque, American (Traditional)"
"309",74019,"Big Mess Bar-BQ","Las Vegas","NV","89122",36.1128082,-115.0622887,"0","Barbeque, Restaurants"
"310",141439,"Rogue BBQ PGH","West Mifflin","PA","15122",40.377935,-79.885376,"1","Food, Event Planning & Services, Barbeque, Caterers, Street Vendors, Restaurants"
"311",22489,"Le Pionnier","Pointe-Claire","QC","H9S 4K9",45.4288954,-73.8254509,"1","Barbeque, Bars, Restaurants, Nightlife"
"312",58100,"Amaravati Grill","Charlotte","NC","28277",35.039035,-80.7935942,"1","Food, Seafood, Restaurants, Barbeque, Indian, Desserts"
"313",86301,"Honey Bear's BBQ","Tempe","AZ","85284",33.3481590509,-111.9637082206,"0","Restaurants, Food, Barbeque"
"314",137254,"Mint Hill Rock Store BBQ","Mint Hill","NC","28227",35.172221,-80.660724,"1","Restaurants, Barbeque"
"315",78307,"Anntony's Caribbean Cafe","Charlotte","NC","28269",35.3354357,-80.7962394,"1","Restaurants, Chicken Wings, Barbeque, Caribbean, Seafood, Salad"
"316",158991,"Smoke Signals Bar-B-Q","Toronto","ON","M6J 1X5",43.6496172,-79.424082,"1","Sandwiches, Restaurants, Barbeque"
"317",87168,"Damons Grill","Cleveland","OH","44130",41.3711281736,-81.8258910262,"0","Nightlife, Bars, Beer, Wine & Spirits, Food, Barbeque, Sports Bars, Restaurants, American (Traditional)"
"318",119267,"Mama Bravo","L'ile-Perrot","QC","J7V 4X4",45.3876618898,-73.9661258127,"1","Pizza, Restaurants, Barbeque"
"319",33186,"Swiss Chalet Rotisserie & Grill","Mississauga","ON","L4W 4G1",43.6401087,-79.6250323,"1","American (Traditional), Barbeque, Fast Food, Restaurants, Comfort Food"
"320",57273,"Honey Bear's BBQ","Phoenix","AZ","85004",33.479644,-112.0741615,"1","Restaurants, Barbeque, Soul Food"
"321",134014,"Mabel's BBQ","Cleveland","OH","44115",41.4989512054,-81.6902246154,"1","Restaurants, Bars, Barbeque, Nightlife"
"322",112910,"Let's Meat Kbbq","Charlotte","NC","28203",35.2190478215,-80.8576791734,"1","Korean, Buffets, Barbeque, Restaurants"
"323",67529,"Ohana Hawaiian BBQ","Las Vegas","NV","89139",36.0387297,-115.1986027,"1","Hawaiian, Chinese, Barbeque, Restaurants, Cantonese"
"324",90010,"Hick's H&H BBQ Pit Stop","Las Vegas","NV","89104",36.200972,-115.122717,"0","Barbeque, Caterers, Event Planning & Services, Restaurants"
"325",105508,"Red Rooster Portuguese BBQ","Vaughan","ON","L6A 1W2",43.8545768,-79.5161502,"1","Chicken Shop, Restaurants, Portuguese, Barbeque"
"326",25586,"Honey Pig Korean BBQ","Las Vegas","NV","89123",36.0150169665,-115.1171830467,"1","Korean, Barbeque, Restaurants"
"327",158588,"Memphis Championship Barbecue","Las Vegas","NV","89119",36.0577242,-115.1225863,"1","Venues & Event Spaces, Barbeque, Event Planning & Services, Restaurants, Nightlife, Sports Bars, Bars"
"328",46725,"Smokey Bones Bar & Fire Grill","Robinson Township","PA","15205",40.4506374455,-80.1605859492,"1","American (Traditional), Barbeque, Restaurants, Burgers"
"329",105045,"Boneyard Grill","Thornhill","ON","L4J 9G7",43.8105093112,-79.4542329743,"1","Barbeque, Restaurants, American (Traditional), British, Burgers"
"330",156842,"Buzz BBQ","Las Vegas","NV","89129",36.240299,-115.2499187,"0","Restaurants, Barbeque"
"331",40518,"Sushi & BBQ Restaurant","Toronto","ON","M5T 1G2",43.6544758,-79.3911634,"0","Korean, Restaurants, Sushi Bars, Barbeque"
"332",159892,"Seoul Food Meat Company","Charlotte","NC","28203",35.2192166,-80.8577141,"1","Barbeque, Restaurants, Chicken Wings, Korean, Asian Fusion"
"333",54304,"Minder Binder","Tempe","AZ","85281",33.422747,-111.9082,"0","Arts & Entertainment, Nightlife, Music Venues, Steakhouses, Pizza, Burgers, Chicken Wings, Restaurants, Barbeque"
"334",12723,"JB's Smokehouse Jerky","Las Vegas","NV","89146",36.146903,-115.2429308,"0","Food Trucks, Restaurants, Meat Shops, Food, Barbeque, Smokehouse, Specialty Food"
"335",44735,"Angela's Family Restaurant","Cleveland","OH","44103",41.5283291,-81.6391318,"1","Restaurants, Barbeque, Italian, Breakfast & Brunch, Desserts, Diners, Food, American (New)"
"336",190711,"Chuck's Roadhouse","Ajax","ON","L1Z 0K5",43.863996311,-79.0117618069,"1","Burgers, Steakhouses, Restaurants, Barbeque"
"337",123543,"Texas Roadhouse","Willoughby","OH","44094",41.60434,-81.438285,"1","American (Traditional), Restaurants, Steakhouses, Barbeque"
"338",167161,"Espadon Plateau","Montréal","QC","H2W 1Y7",45.5178700274,-73.5810940723,"0","Mediterranean, Fish & Chips, Seafood, Restaurants, Barbeque"
"339",19103,"The Chicken Shack","Boulder City","NV","89005",35.972837,-114.848771,"1","Barbeque, Fast Food, Chicken Shop, Restaurants, Chicken Wings, American (Traditional)"
"340",181518,"Hogs Heaven Barbeque","North Las Vegas","NV","89031",36.2633606,-115.1794688,"0","Barbeque, Restaurants"
"341",154549,"Happy BBQ","Markham","ON","L3R 0A7",43.8425060594,-79.3059488386,"1","Restaurants, Chinese, Barbeque"
"342",187914,"Joe's Island Grindz","Las Vegas","NV","89146",36.1587068,-115.2367353,"0","Barbeque, Restaurants, Comfort Food, Hawaiian"
"343",183929,"Lahori's Dhaba","Chandler","AZ","85224",33.3195331,-111.8592616,"1","Pakistani, Food Stands, Barbeque, Halal, Indian, Restaurants"
"344",156739,"J&M Fish Market","Scottsdale","AZ","85257",33.4652707845,-111.9284427166,"0","Seafood, Restaurants, Barbeque, Seafood Markets, Food, Specialty Food"
"345",311,"Big Paul's BBQ","Las Vegas","NV","89122",36.1289388,-115.1090577,"0","Barbeque, Restaurants, Soul Food, Cajun/Creole"
"346",171304,"8oz Korean Steak House","Las Vegas","NV","89102",36.1256249415,-115.2025783095,"1","Barbeque, Restaurants, Korean, Steakhouses"
"347",44167,"Nomade SO6","Montréal","QC","H4C 2G3",45.4796534,-73.576577,"1","Barbeque, Restaurants, Food Stands, Food, Food Trucks"
"348",27265,"BBQ Boy and Catering","Las Vegas","NV","",36.175,-115.136389,"0","Specialty Food, Ethnic Food, Food Delivery Services, Food, Food Stands, Restaurants, Barbeque"
"349",149889,"Tony Roma's","Las Vegas","NV","89104",36.1443082166,-115.1456908329,"0","Barbeque, Steakhouses, Seafood, Restaurants, American (Traditional)"
"350",41307,"Wok Vegas Asian BBQ","Las Vegas","NV","89104",36.1473845,-115.1566778,"1","Restaurants, Barbeque"
"351",32717,"The Flame BBQ","Pittsburgh","PA","15209",40.5015764,-79.9832494,"1","Barbeque, Restaurants, Food"
"352",13743,"Texas Roadhouse","Brooklyn","OH","44144",41.4246092,-81.7383189,"1","Steakhouses, Restaurants, American (Traditional), Barbeque"
"353",162966,"The Smoke Pit","Concord","NC","28027",35.4219555,-80.6144356,"1","Barbeque, Restaurants, American (Traditional), Cafeteria"
"354",123010,"Barque Smokehouse","Toronto","ON","M6R 2M3",43.6480097,-79.4496592,"1","Bars, Smokehouse, Hookah Bars, Restaurants, Food, Barbeque, Chicken Wings, Breakfast & Brunch, Nightlife, American (Traditional)"
"355",152524,"Ron's Grilled Barbeque and Kabobs","Las Vegas","NV","89148",36.0782601,-115.2985593,"1","Restaurants, Mediterranean, Middle Eastern, Barbeque, Greek"
"356",162667,"Boney Fingers BBQ","Cleveland","OH","44114",41.4999744,-81.6902403,"1","Event Planning & Services, Barbeque, Salad, Breakfast & Brunch, Restaurants, Caterers"
"357",188835,"BBQ CLE","Cleveland","OH","44135",41.4338855,-81.7917346,"1","Barbeque, Latin American, Restaurants, Event Planning & Services, Caterers"
"358",98412,"Québec Smoked Meat","Montréal","QC","H3K 1J1",45.4831141,-73.561756,"1","Specialty Food, Food, Meat Shops, Restaurants, Delis, Barbeque"
"359",29986,"Texas Meltz","Las Vegas","NV","89102",36.145219,-115.2048529391,"1","Southern, Restaurants, Fast Food, Barbeque, Food, Sandwiches, Desserts"
"360",133258,"Fort Mill BBQ","Fort Mill","SC","29708",35.0627828,-80.9920002,"0","Southern, Gluten-Free, Restaurants, Barbeque"
"361",54143,"Blair Street Brew & BBQ","Madison","WI","53703",43.0785923,-89.3783104,"0","Barbeque, Restaurants"
"362",32760,"Mesa Grill","Las Vegas","NV","89109",36.1171245659,-115.174792707,"1","American (Traditional), Restaurants, Mexican, New Mexican Cuisine, Barbeque, Spanish, Southern, Tex-Mex, American (New)"
"363",157865,"Dukes Rib House & Grille","Pittsburgh","PA","15220",40.3939438279,-80.0632630227,"1","American (Traditional), Barbeque, Restaurants"
"364",141283,"The Proper Pig Smokehouse","Lakewood","OH","44107",41.485585,-81.815822,"1","Smokehouse, Food, Food Trucks, Sandwiches, Restaurants, Barbeque"
"365",70291,"Famous Dave's","Las Vegas","NV","89123",36.043483,-115.171085,"0","Restaurants, Barbeque"
"366",146409,"Mochiko Chicken","Las Vegas","NV","89102",36.1487348,-115.2099431,"1","American (New), Hawaiian, Chicken Shop, Chicken Wings, Comfort Food, Asian Fusion, Restaurants, Food, Barbeque, Bubble Tea, American (Traditional), Southern"
"367",7720,"BBQ Shak","Las Vegas","NV","89139",36.055414,-115.241332,"0","Barbeque, Restaurants"
"368",49253,"Harvey's & Swiss Chalet Combo","Scarborough","ON","M1T 1A3",43.7730667478,-79.3217573762,"1","Barbeque, American (Traditional), Fast Food, Restaurants, Burgers"
"369",100934,"Bâton Rouge Steakhouse & Bar","Toronto","ON","M5B 2H6",43.6538951,-79.3801867,"0","Restaurants, Gluten-Free, Steakhouses, Seafood, Barbeque"
"370",89540,"Smoke 'N The Real Q","Peoria","AZ","85345",33.5628981,-112.2585703,"0","Restaurants, Caterers, Event Planning & Services, Barbeque"
"371",127908,"The Dream BBQ","Pittsburgh","PA","15208",40.4530376642,-79.8911726475,"1","Soul Food, Chicken Wings, Restaurants, Barbeque"
"372",36677,"Marky & Sparky's Smokehouse","Toronto","ON","M6P 1S3",43.660199,-79.4797899,"0","Barbeque, Restaurants"
"373",75849,"Rôtisserie Kiri-Piri","Montréal","QC","H2T 1R4",45.5201491517,-73.5861530313,"0","Portuguese, Barbeque, Restaurants"
"374",47235,"Big B's Texas BBQ","Henderson","NV","89052",36.003414165,-115.1175117865,"1","Sandwiches, Restaurants, Salad, American (Traditional), Southern, Barbeque"
"375",6032,"Dixie's Tavern","Charlotte","NC","28202",35.2277289,-80.837321,"0","Sandwiches, Nightlife, Cajun/Creole, Sports Bars, Barbeque, Bars, Pubs, Restaurants"
"376",51879,"Bar-B Barn","Montréal","QC","H3H 2K5",45.4945217,-73.576321,"1","Restaurants, Barbeque, Soul Food"
"377",185657,"Mary Brown's","Brampton","ON","L6W 3C9",43.6945685,-79.7491965,"1","Barbeque, Restaurants, Chicken Wings"
"378",186233,"All Fired Up","North Ridgeville","OH","44039",41.3972664272,-81.9954115525,"1","Bars, Nightlife, Burgers, Barbeque, Restaurants"
"379",131318,"Bama's Southern Kitchen","Pittsburgh","PA","15226",40.3951787,-80.0225039,"0","Restaurants, Barbeque, Soul Food"
"380",176392,"Stacy's Smokehouse BBQ","Scottsdale","AZ","85254",33.5820579,-111.9289958,"0","American (Traditional), Barbeque, Sandwiches, Restaurants"
"381",68573,"BBQ Chinois","Montréal","QC","H3H",45.4944693,-73.5798446,"0","Barbeque, Restaurants, Chinese"
"382",77840,"Dan Marino's Fine Food & Spirits","Las Vegas","NV","89109",36.1245963217,-115.1465865767,"0","Restaurants, Barbeque, American (Traditional), Burgers"
"383",97848,"Al & B's Barbeque","Cleveland","OH","44135",41.4335801,-81.8023272,"1","Barbeque, Restaurants"
"384",109678,"Montana's BBQ & Bar","Mississauga","ON","L4W 1C2",43.644913,-79.63457,"1","Restaurants, Food, Barbeque, Comfort Food, Canadian (New), Steakhouses, Nightlife"
"385",123157,"Mucho Burrito","Montréal","QC","H2X 3Y2",45.5074075531,-73.564099744,"1","Mexican, Barbeque, Restaurants"
"386",64150,"Grill'n Go","Montréal","QC","H2C 1T3",45.5675759658,-73.6539808289,"1","Chicken Wings, Restaurants, Barbeque, Steakhouses, Portuguese, Sandwiches"
"387",91224,"Black Angus Steakhouse","Toronto","ON","M8X 2X3",43.6452181628,-79.5219870799,"1","Restaurants, Barbeque, Bars, Steakhouses, Nightlife"
"388",105939,"Hole 'n One","Sun City West","AZ","85375",33.6550266,-112.3534643,"1","Barbeque, American (Traditional), Restaurants, Breakfast & Brunch"
"389",159037,"Handlebar J","Scottsdale","AZ","85254",33.5832099,-111.9276099,"1","American (New), Bars, Steakhouses, Music Venues, Arts & Entertainment, Dance Clubs, Barbeque, Country Dance Halls, Nightlife, American (Traditional), Burgers, Restaurants"
"390",96862,"Rôtisserie St-Hubert","Sainte-Adèle","QC","J8B 2N2",45.946514,-74.127088,"1","Chicken Shop, Food, Barbeque, Chicken Wings, Restaurants"
"391",4645,"Vic's Hong Kong Style Café","Calgary","AB","T2G 0B6",51.0503667344,-114.062853845,"1","Barbeque, Chinese, Restaurants"
"392",103132,"Kimchi Korean Bbq","Las Vegas","NV","89109",36.131875,-115.163618,"1","Korean, Barbeque, Restaurants"
"393",135816,"My Mother's Restaurant","Phoenix","AZ","85015",33.496074,-112.1003113,"1","Desserts, Restaurants, Barbeque, Sandwiches, Food, Pizza"
"394",13852,"Texas Roadhouse","Pittsburgh","PA","15237",40.5620812755,-80.0259171054,"1","Burgers, Barbeque, American (Traditional), Sandwiches, Restaurants, Steakhouses"
"395",37576,"Bill Johnson's Big Apple Restaurants","Goodyear","AZ","85338",33.4610622,-112.3415599,"0","Restaurants, Barbeque, Steakhouses, American (Traditional)"
"396",30846,"Dickey's Barbecue Pit","Tempe","AZ","85281",33.424665,-111.934767,"1","Southern, Event Planning & Services, American (Traditional), Caterers, Sandwiches, Barbeque, Restaurants"
"397",150214,"Easy Time BBQ","Las Vegas","NV","89146",36.1261864,-115.2233683,"0","Asian Fusion, Food, Juice Bars & Smoothies, Bubble Tea, Coffee & Tea, Restaurants, Barbeque, Chinese"
"398",131397,"Big Ern's BBQ","Las Vegas","NV","89101",36.167526,-115.138435,"1","Barbeque, Restaurants"
"399",74589,"Maple City Taps & Eatery","Chardon","OH","44024",41.5803216,-81.242825,"1","Pizza, Barbeque, Restaurants, American (Traditional)"
"400",183688,"Rôtisserie Scores","Brossard","QC","J4Y 0G4",45.4492368,-73.4426237,"1","Restaurants, Steakhouses, Chicken Wings, Chicken Shop, Barbeque"
"401",160266,"Steak And Stone","Mesa","AZ","85215",33.462996,-111.719339,"1","Barbeque, Restaurants, Steakhouses"
"402",71566,"Chicken Master","Brampton","ON","L7A 2X9",43.7136665,-79.799599,"1","Chicken Wings, Restaurants, Barbeque"
"403",107324,"Joe Chicago","Saint-Laurent","QC","H4N 2W2",45.5356456,-73.6649422,"0","Burgers, American (Traditional), Barbeque, Delis, Restaurants, Pizza"
"404",109576,"CJ's Texas Barbeque","Las Vegas","NV","89117",36.1432226,-115.2622884,"0","Barbeque, Restaurants"
"405",180205,"Lovejoys Kansas City Bar-B-Q","Phoenix","AZ","85022",33.639197,-112.064368,"0","Barbeque, Restaurants"
"406",170478,"The Corktown Kitchen","Toronto","ON","M5A 1K9",43.6532485,-79.3623477,"0","Asian Fusion, Canadian (New), Vietnamese, Sandwiches, American (Traditional), Restaurants, Barbeque"
"407",21679,"Bodrick's Bar-B-Q Rib Tips","Charlotte","NC","28206",35.2687946,-80.8378437,"0","Restaurants, Barbeque"
"408",170059,"Peter's Reggae Kitchen","North York","ON","M2J 4A8",43.7883567,-79.3291698,"0","Barbeque, Restaurants, Caribbean"
"409",8843,"SNS Diner","North Las Vegas","NV","89030",36.22162,-115.126378,"1","Restaurants, Barbeque, Diners"
"410",85873,"LongHorn Steakhouse","Cuyahoga Falls","OH","44221",41.1195369,-81.4784828,"1","Steakhouses, American (Traditional), Restaurants, Barbeque"
"411",22212,"BBQ","Montréal","QC","H2Y 2A6",45.5008349,-73.5564927,"1","Restaurants, Barbeque"
"412",141959,"Bill Spoon's Barbecue","Charlotte","NC","28217",35.1596107023,-80.8767139511,"1","Barbeque, Restaurants"
"413",11332,"Monteiro Grillades Portugaises","Montréal","QC","H3T 1X1",45.4971773255,-73.6215633899,"1","Restaurants, Portuguese, Sandwiches, Barbeque, Halal"
"414",175832,"Stacy's Pampered Pig","Phoenix","AZ","85013",33.487248,-112.082387,"0","Restaurants, Soul Food, Barbeque, Southern"
"415",10562,"Rose and Sons","Toronto","ON","M6G 3G8",43.675786,-79.403665,"1","Mediterranean, Coffee & Tea, Food, Comfort Food, Restaurants, Diners, Canadian (New), Barbeque, Breakfast & Brunch"
"416",143780,"Cool Bar","Las Vegas","NV","89102",36.127655,-115.1979112,"1","Karaoke, Chinese, Restaurants, Asian Fusion, Nightlife, Barbeque, Bars"
"417",90206,"Happy's Pizza","Garfield Hts","OH","44125",41.4262354,-81.6129562,"1","Chicken Wings, Barbeque, Pizza, Restaurants"
"418",45336,"Coin Mechoui","Chateauguay","QC","J6K 4Y7",45.3624936,-73.7136226,"0","Barbeque, Food, Restaurants"
"419",105008,"Blues Bar-B-Q","Henderson","NV","89014",36.069818,-115.044513,"0","Barbeque, Food, Restaurants"
"420",113043,"LongHorn Steakhouse","Phoenix","AZ","85032",33.5988384,-111.9827632,"1","Steakhouses, American (Traditional), Barbeque, Restaurants"
"421",8881,"Sammy's BBQ & Deli","Toronto","ON","M5R 3G1",43.6653686,-79.4115376,"0","Delis, Barbeque, Restaurants, Greek"
"422",137524,"Rock Store Bar-B-Q","Stallings","NC","28104",35.0819793,-80.6925926,"1","Barbeque, Restaurants"
"423",15716,"Jabo's Smoke House and Saloon","Pittsburgh","PA","15224",40.4629895,-79.9521097,"0","Restaurants, Food, Smokehouse, Barbeque, Hair Salons, Beauty & Spas"
"424",9832,"Le Cristal Chinois","Montréal","QC","H4K 1M9",45.5286318,-73.7217072,"1","Restaurants, Pan Asian, Chinese, Barbeque"
"425",59634,"Goen Yakiniku","Richmond Hill","ON","L4B 3P7",43.8415653484,-79.3993877428,"1","Diners, Steakhouses, Japanese, Barbeque, Noodles, Restaurants"
"426",10860,"Mario's BBQ","Vaughan","ON","L6A 0A5",43.8465298,-79.5359349,"0","Restaurants, Barbeque, Portuguese"
"427",106835,"LongHorn Steakhouse","Pittsburgh","PA","15237",40.5712919,-80.0229697,"1","Steakhouses, American (Traditional), Restaurants, American (New), Barbeque"
"428",38078,"Honmachi","Las Vegas","NV","89183",36.012764,-115.136056,"0","Steakhouses, Vegetarian, Restaurants, Japanese, Barbeque, Tapas Bars, Live/Raw Food"
"429",182950,"Viet Noodle Bar","Las Vegas","NV","89146",36.1265668,-115.2132314,"1","Soup, Vietnamese, Barbeque, Restaurants"
"430",29209,"Ke Charcoal Grill & Sushi","Calgary","AB","T3C 0Y1",51.0393051974,-114.0949554249,"1","Sushi Bars, Barbeque, Japanese, Restaurants"
"431",69048,"The Notorious P I G","Phoenix","AZ","85032",33.6119171,-112.0125521,"0","Barbeque, Restaurants"
"432",116493,"Bill Johnson's Big Apple Restaurants","Phoenix","AZ","85008",33.4506964,-112.0000523,"0","Steakhouses, Restaurants, Barbeque, Local Flavor"
"433",60146,"Champions Seafood Grill and Bar","Markham","ON","L3R 1J5",43.8562278234,-79.304366,"0","Barbeque, Seafood, Bars, Nightlife, Restaurants"
"434",152884,"Brown Barn","Chardon","OH","44024",41.527434,-81.257394,"1","Barbeque, Restaurants"
"435",21921,"B's Smokehouse Bbq","Las Vegas","NV","89178",36.0194241518,-115.2792438778,"1","Food, Barbeque, Street Vendors, Restaurants, Food Trucks"
"436",165565,"Dickey's Barbecue Pit","Las Vegas","NV","89118",36.0875159,-115.243704,"1","Barbeque, American (Traditional), Southern, Restaurants"
"437",140701,"City Barbeque","Charlotte","NC","28262",35.310381,-80.746777,"1","Restaurants, Caterers, Barbeque, Event Planning & Services"
"438",101779,"Nando's Chickenland","Brampton","ON","L6T 4S3",43.7246911,-79.7163741,"0","Restaurants, Barbeque"
"439",24360,"Ironwood Cafe","Cleveland","OH","44111",41.4497744,-81.8171009,"0","Restaurants, Nightlife, Bars, Sports Bars, Event Planning & Services, American (New), Barbeque, Caterers"
"440",59941,"Mr. Ribs & Mrs. Rice","Las Vegas","NV","89102",36.126894,-115.195024,"0","Food Trucks, Restaurants, Food, Barbeque"
"441",125533,"ATL Wings","Phoenix","AZ","85018",33.479889,-111.997771,"1","Barbeque, Food, Chicken Wings, Soul Food, Restaurants"
"442",122636,"Yum Yum BBQ & Chicken","Calgary","AB","T3B 4M9",51.0752702,-114.1673836,"1","Barbeque, Restaurants, Food"
"443",132756,"Famous BBQ Express","Toronto","ON","M5V 2A5",43.6491857,-79.39415,"0","Restaurants, Barbeque"
"444",161941,"Hwaro","Spring Valley","NV","89146",36.1270307944,-115.209860464,"1","Korean, Buffets, Barbeque, Restaurants"
"445",29704,"Potbelly BBQ","Charlotte","NC","28203",35.2146586,-80.8599193,"1","Barbeque, Restaurants, Food Trucks, Food, Caterers, Event Planning & Services, Sandwiches"
"446",71913,"Cherry Blossom Chinese Restaurant","Charlotte","NC","28277",35.0953817,-80.7780359,"1","Barbeque, Seafood, Ethnic Food, Chinese, Restaurants, Food, Specialty Food, Soup"
"447",49729,"Winner Bbq","Thornhill","ON","L3T 0C7",43.8035434,-79.4195738,"1","Chinese, Fast Food, Barbeque, Restaurants"
"448",87847,"Bites and Brews","Pittsburgh","PA","15232",40.4556962,-79.9308834,"0","Pizza, Chicken Wings, Barbeque, Beer Bar, Nightlife, Restaurants, Bars"
"449",122015,"Fresh BBQ Innovations","Scottsdale","AZ","85260",33.622208,-111.904186,"1","Nightlife, Vegan, American (New), Whiskey Bars, Breakfast & Brunch, Restaurants, Barbeque, Bars"
"450",146289,"Wild Wing","Mississauga","ON","L5M 7L9",43.5585072739,-79.7418349852,"1","Restaurants, Chicken Wings, Barbeque"
"451",91449,"Tom's BBQ","Mesa","AZ","85215",33.4516018,-111.7226332,"1","Food, Food Trucks, Barbeque, Salad, Restaurants, American (Traditional), Event Planning & Services, Caterers"
"452",121498,"Benny's Burgers & BBQ","Sun City","AZ","85351",33.6372393,-112.2754603,"1","Hot Dogs, American (Traditional), Restaurants, Barbeque, Burgers"
"453",184879,"Bats BBQ","Rock Hill","SC","29732",34.9790608,-81.0051466,"0","Mexican, Barbeque, Restaurants"
"454",134378,"The Grille Restaurant & Bar","Etobicoke","ON","M8Z 1V1",43.6177085,-79.5428851,"1","Nightlife, American (Traditional), Greek, Bars, Diners, Barbeque, Breakfast & Brunch, Restaurants"
"455",27520,"Southern RUB Smokehouse","Vaughan","ON","L4L 1S6",43.7837466,-79.5747244,"0","Barbeque, Restaurants, Southern"
"456",14282,"Sage Garden BBQ & Catering","Charlotte","NC","28205",35.196533,-80.7903369,"0","Food Delivery Services, Barbeque, Food, Restaurants, Event Planning & Services, Caterers, American (New)"
"457",5216,"Logan's Roadhouse","Gastonia","NC","28056",35.260224,-81.128767,"1","American (Traditional), Steakhouses, Restaurants, Barbeque"
"458",2259,"Big Bone BBQ & Wicked Wings","Whitby","ON","L1N 9K3",43.8995341,-78.9384357,"1","Restaurants, Southern, Chicken Wings, Barbeque"
"459",106876,"Soul Kitchen BBQ","Calgary","AB","T2T 0H7",51.017283863,-114.0265638381,"1","Food, Restaurants, Cajun/Creole, Food Trucks, Barbeque"
"460",53297,"Kings Corner","Toronto","ON","M5V 1N3",43.6436172,-79.405205,"0","Barbeque, Breakfast & Brunch, Steakhouses, Burgers, Sandwiches, Restaurants, Fish & Chips"
"461",119321,"Love Hawaiian BBQ","Glendale","AZ","85301",33.5243379,-112.2037058,"1","Barbeque, Restaurants, Japanese, Hawaiian, Seafood, Ramen"
"462",21972,"Best Of The Best DJ's","Las Vegas","NV","89139",36.055128,-115.242644,"1","Event Planning & Services, Fashion, Food Court, Bakeries, Food, Ice Delivery, Nail Salons, Pizza, Home & Garden, Pilates, Beauty & Spas, Party & Event Planning, Furniture Rental, Music Venues, Home Services, Auto Repair, Fitness & Instruction, Karaoke, Fur Clothing, Electronics, Automotive, Lighting Fixtures & Equipment, Local Services, Active Life, Furniture Repair, Nightlife, Cafes, Italian, Restaurants, Photo Booth Rentals, Furniture Stores, Shopping, DJs, Barbeque, Arts & Entertainment, Audio/Visual Equipment Rental, Party Equipment Rentals"
"463",88526,"WB Chinese Cooking","Richmond Hill","ON","L4B 3B1",43.8439761,-79.3878015,"1","Chinese, Restaurants, Barbeque"
"464",160770,"Hayden Block Smoke & Whiskey","Calgary","AB","T2N 3P3",51.0526549,-114.0882959,"1","Barbeque, Nightlife, Whiskey Bars, American (Traditional), Restaurants, Bars"
"465",58055,"Dickey's Barbecue Pit","Las Vegas","NV","89107",36.1725319,-115.197258,"1","Barbeque, Restaurants, Southern, American (Traditional)"
"466",171730,"Original Chicken & Ribs","Charlotte","NC","28216",35.2529397,-80.855963,"1","Barbeque, Restaurants, Event Planning & Services, Caterers"
"467",16153,"Gyu-Kaku Japanese BBQ","Toronto","ON","M5C 2G2",43.6516056,-79.3748812,"1","Japanese, Barbeque, Restaurants"
"468",183123,"A Taste of Silk BBQ","Phoenix","AZ","85037",33.5081323,-112.2918161,"1","Barbeque, Restaurants"
"469",75533,"L&L Hawaiian Barbecue","Las Vegas","NV","89149",36.2707534,-115.2666723,"1","Barbeque, Hawaiian, Restaurants"
"470",83272,"RD's Southern BBQ","Mississauga","ON","L5T 3A1",43.6454686903,-79.704356119,"1","Restaurants, Barbeque, Southern"
"471",50617,"Blowin' Smoke BBQ","Waunakee","WI","53597",43.174189,-89.4134032,"0","Restaurants, Food Trucks, Barbeque, Sandwiches, Food"
"472",98840,"Smoakie Kitchen","Laveen Village","AZ","85339",33.3776603,-112.1680448,"1","Smokehouse, Food, Restaurants, Barbeque"
"473",166670,"Nevada Chicken Cafe","Las Vegas","NV","89113",36.0636453,-115.2520481,"1","Wraps, Restaurants, American (Traditional), Sandwiches, Cafes, Salad, Chicken Wings, Food, Barbeque"
"474",177526,"Smoke Bourbon Bar-B-Q House","Toronto","ON","M6G 1G5",43.6603391,-79.4150747,"1","Barbeque, Restaurants"
"475",2964,"Gyubee Japanese BBQ - Downtown","Toronto","ON","M5S 1W7",43.6671472,-79.400645,"1","Barbeque, Do-It-Yourself Food, Restaurants, Steakhouses, Japanese, Food"
"476",169168,"Logan's Roadhouse","Mesa","AZ","85201",33.3019012,-111.7430967,"0","American (Traditional), Bars, Barbeque, Steakhouses, Nightlife, Restaurants"
"477",55814,"YZ's Hot Pot & BBQ","Tempe","AZ","85282",33.406526,-111.924348,"1","Nightlife, Bars, Barbeque, Asian Fusion, Hot Pot, Restaurants"
"478",4008,"Sina's Bbq","Mississauga","ON","L4W 1P1",43.6298591,-79.6357782,"1","Restaurants, Barbeque"
"479",22768,"Ave Seoul","Montréal","QC","H4L 3M2",45.5128093,-73.6803233,"1","Korean, Barbeque, Restaurants"
"480",160730,"Aj's Fine Foods","Scottsdale","AZ","85250",33.6220938744,-111.8730840786,"1","Farmers Market, Seafood Markets, Coffee & Tea, Flowers & Gifts, Bagels, Restaurants, Shopping, Florists, Health Markets, Beer, Wine & Spirits, Grocery, Specialty Food, Barbeque, Bakeries, Food"
"481",151115,"Kathy's Southern Cooking","Las Vegas","NV","89121",36.1292353,-115.0925631,"0","Restaurants, Barbeque, Soul Food, Southern, American (New)"
"482",68193,"Briskit Gourmet Slow Cooked Sandwiches","Brampton","ON","L6T 4Z4",43.6923259956,-79.7000226659,"1","Breakfast & Brunch, Event Planning & Services, Restaurants, Gluten-Free, Barbeque, Sandwiches, Burgers, Caterers"
"483",176566,"Lakeshore Bbq","Denver","NC","28037",35.2160166,-80.8320292,"1","Fashion, Used, Vintage & Consignment, Shopping, Barbeque, American (New), Home & Garden, Restaurants"
"484",10197,"Gyubee Japanese BBQ - Markham","Markham","ON","L3R 5J2",43.8157563,-79.3500531,"1","Japanese, Korean, Restaurants, Barbeque, Steakhouses"
"485",176332,"Little AAA","Toronto","ON","M4L 1C4",43.6636892,-79.3287505,"1","Restaurants, Barbeque"
"486",36758,"Kababish Restaurant","Calgary","AB","T3J 3W1",51.0821378,-114.0126372,"0","Caterers, Event Planning & Services, Restaurants, Pakistani, Halal, Barbeque"
"487",46402,"BBQ House","Mesa","AZ","85202",33.363563,-111.876153,"1","Barbeque, Buffets, Korean, Steakhouses, Restaurants"
"488",96141,"360 Seahood","Toronto","ON","M1W",43.8039075,-79.2870353,"0","Asian Fusion, Barbeque, Restaurants, Chinese"
"489",123009,"Aloha Hawaiian BBQ","Las Vegas","NV","89120",36.072454464,-115.1013189233,"1","Restaurants, Barbeque, Hawaiian"
"490",100134,"Dae Jang Keum Korean BBQ & Tofu Restaurant","Las Vegas","NV","89102",36.1258698833,-115.1923266481,"1","Restaurants, Korean, Barbeque"
"491",44289,"Lancaster's BBQ","Huntersville","NC","28078",35.3513949,-80.888219,"1","Restaurants, Barbeque, Salad, Bars, Nightlife, Seafood"
"492",116720,"L & L Hawaiian Barbecue","Las Vegas","NV","89123",36.0209001,-115.1247688,"1","Restaurants, Barbeque, Hawaiian"
"493",168958,"Garionban","Las Vegas","NV","89103",36.1259897637,-115.2024704218,"1","Restaurants, Barbeque, Soup, Korean"
"494",138961,"Bootleggers Modern American Smokehouse","Scottsdale","AZ","85251",33.4922045,-111.9255493,"1","Smokehouse, American (New), Cocktail Bars, Food, Nightlife, Bars, Comfort Food, Barbeque, Restaurants"
"495",118446,"Wild Wing","Toronto","ON","M1P 5B7",43.7727485,-79.2803748,"1","Barbeque, Food, American (Traditional), Restaurants, Chicken Wings"
"496",99411,"James Cheese Back Ribs","Toronto","ON","M5T 2G6",43.65687,-79.39924,"1","Korean, Restaurants, Japanese, Asian Fusion, Barbeque"
"497",129814,"Long Time No See","Scarborough","ON","M1W 2P3",43.8105131,-79.3379876,"1","Chinese, Barbeque, Restaurants"
"498",93982,"B.B.Ques","Toronto","ON","M5S 2H7",43.6632022,-79.4022766,"0","Barbeque, Caterers, Juice Bars & Smoothies, Restaurants, Food, Vegetarian, Event Planning & Services"
"499",54939,"Sota BBQ Coréen","Montréal","QC","H3H 1M2",45.4935173,-73.5798552,"1","Korean, Barbeque, Restaurants"
"500",192590,"Rôtisserie St-Hubert","Piedmont","QC","J0R 1R3",45.8900853,-74.1460249,"1","Restaurants, Barbeque, Chicken Shop"
"501",134779,"Oming's Kitchen","Las Vegas","NV","89145",36.1683449,-115.2659777,"1","Barbeque, Event Planning & Services, Food Trucks, Food, Street Vendors, Caterers, Restaurants, Filipino"
"502",49258,"Elliott's BBQ and Steakhouse","Pittsburgh","PA","15236",40.3253741,-79.956298,"0","Bars, Restaurants, Nightlife, Food, Steakhouses, Barbeque"
"503",112864,"Sonny's BBQ","Charlotte","NC","28217",35.1629543,-80.8865704,"1","Restaurants, Barbeque, American (New), Event Planning & Services, Caterers"
"504",10955,"Wonton Gourmet & BBQ","Cleveland","OH","44114",41.5089027,-81.6662795,"1","Chinese, Restaurants, Cantonese, Barbeque"
"505",11726,"Patrick's Grill","Mcfarland","WI","53558",42.983861,-89.302204,"0","Dive Bars, Sandwiches, Nightlife, Restaurants, Bars, Barbeque"
"506",174978,"Drake BBQ","Toronto","ON","M6J",43.6430884,-79.424424,"0","Restaurants, Barbeque"
"507",151491,"TooGood Cafe","Markham","ON","L3R",43.8656562,-79.3109674,"0","Food, Coffee & Tea, Juice Bars & Smoothies, Delis, Cafes, Restaurants, Barbeque"
"508",112500,"Ono Hawaiian BBQ","Peoria","AZ","85305",33.5521645466,-112.2576272371,"1","Barbeque, Restaurants, Hawaiian"
"509",174388,"Boomerang Grill","Whitby","ON","L1N 2M1",43.8795880079,-78.9428199828,"0","Burgers, Breakfast & Brunch, Barbeque, American (Traditional), Cafes, Restaurants"
"510",2582,"Wheelfish","Pittsburgh","PA","15237",40.5395819,-79.9914534,"1","Barbeque, Bars, American (Traditional), Nightlife, American (New), Restaurants"
"511",8560,"Brisketburgh","Pittsburgh","PA","15222",40.4475255,-79.9933976,"1","Restaurants, Food, Barbeque, Food Trucks"
"512",117880,"Big Mitch BBQ","Litchfield Park","AZ","85340",33.5175689155,-112.3441605745,"0","American (Traditional), Soul Food, Event Planning & Services, Food Delivery Services, Food, Caterers, Barbeque, Restaurants"
"513",148165,"Tony Roma's","Pineville","NC","28134",35.0855733,-80.8809029,"0","American (Traditional), Restaurants, Barbeque"
"514",120859,"Pacer's Ribhouse","Euclid","OH","44132",41.5989218,-81.5036784,"0","Restaurants, Barbeque"
"515",47121,"Sura BBQ Buffet","Las Vegas","NV","89102",36.12695,-115.201296,"1","Barbeque, Korean, Buffets, Restaurants"
"516",163784,"Rotisseries Benny","Saint-Hubert","QC","J3Y 1A7",45.4763534,-73.4450414,"1","Barbeque, Restaurants"
"517",169308,"Angry Crab Shack","Goodyear","AZ","85338",33.4502610986,-112.3589181527,"1","Cajun/Creole, Restaurants, Barbeque, Southern, Seafood"
"518",36558,"Phoenix BBQ and Grilling School","Mesa","AZ","85210",33.3894245,-111.834734,"1","Cooking Schools, Education, Specialty Schools, Food, Barbeque, Restaurants"
"519",103646,"Le Grand Ribfest de Montréal","Montréal","QC","H2Y 2E2",45.5066651,-73.5521832,"1","Barbeque, Arts & Entertainment, American (Traditional), Festivals, Restaurants"
"520",96976,"Ichiban Korean BBQ & Sushi","Tempe","AZ","85281",33.4143548,-111.9262937,"0","Japanese, Restaurants, Barbeque, Korean"
"521",124663,"Ono Hawaiian BBQ","Avondale","AZ","85392",33.4611694844,-112.3397907341,"1","Hawaiian, Seafood, Barbeque, Japanese, Restaurants, Korean"
"522",153333,"Rôtisserie Scores","Laval","QC","H7M 2X9",45.5824829899,-73.7051455831,"1","Chicken Shop, Barbeque, French, Restaurants"
"523",30304,"Serrano Bar-B-Q","Montréal","QC","H2T 2L4",45.523856,-73.60093,"1","Chicken Shop, Sandwiches, Restaurants, Barbeque"
"524",10872,"Copacabana Brazilian Steakhouse","Toronto","ON","M5H 1W7",43.6483440823,-79.3878309801,"1","Nightlife, Steakhouses, Bars, Restaurants, Barbeque, Brazilian"
"525",121262,"Markham Ribfest and Music Festival","Markham","ON","L3R 9W3",43.84951,-79.321413,"1","Arts & Entertainment, Restaurants, Festivals, Barbeque"
"526",39156,"The Salt Lick Bar-BQ","Las Vegas","NV","89136",36.1569658,-115.3335939,"0","Restaurants, Barbeque"
"527",74179,"Holy Smoke BBQ","Calgary","AB","T2G 4B5",51.0116418987,-114.0517008305,"1","Restaurants, Barbeque, Food"
"528",101131,"Restaurant Hot Africa","Montréal","QC","H3W 1X4",45.4865264,-73.6270046,"1","African, Barbeque, Restaurants"
"529",57798,"Asian Picnic","Monroeville","PA","15146",40.4370996,-79.78721,"0","Barbeque, Asian Fusion, Restaurants"
"530",14156,"Annie Lee's Southern Kitchen","Ambridge","PA","15003",40.5992447,-80.2264719,"1","Southern, Barbeque, Restaurants"
"531",40076,"Genghis Khan Mongolian Grill","North York","ON","M3C 1V6",43.7269871,-79.3414943,"1","Barbeque, Buffets, Mongolian, Restaurants, Chinese"
"532",85165,"Tony Roma's","Las Vegas","NV","89101",36.1710444967,-115.1430353522,"1","American (Traditional), Steakhouses, Restaurants, Barbeque, Seafood"
"533",61392,"Makai Pacific Island Grill","Las Vegas","NV","89128",36.1949913,-115.2461811,"1","Hawaiian, Barbeque, Restaurants, Asian Fusion"
"534",128407,"Dickey's Barbecue Pit","Las Vegas","NV","89131",36.2799309122,-115.2063769802,"1","Southern, Barbeque, American (Traditional), Restaurants"
"535",58222,"JB's Frozen Gold","Waxhaw","NC","28173",34.9248398848,-80.7417117097,"0","Ice Cream & Frozen Yogurt, Food, Barbeque, American (Traditional), Restaurants"
"536",65794,"The Que Stand","Harrisburg","NC","28075",35.3221649,-80.6431953,"0","Restaurants, Barbeque, Burgers"
"537",111423,"Alex Rei Dos Leitoes","Toronto","ON","M6J 2Z8",43.6488882,-79.4204422,"1","Portuguese, Restaurants, Chicken Shop, Barbeque, Delis, Sandwiches"
"538",141597,"Excellent Bbq Restaurant","Richmond Hill","ON","L4B 3N7",43.8663797,-79.386063,"1","Restaurants, Barbeque"
"539",143960,"Saxony Restaurant","Toronto","ON","M4X 1K7",43.6711125,-79.3762239,"0","Salad, Restaurants, Barbeque, Delis"
"540",106735,"Two Brothers BBQ","Presto","PA","15142",40.3727235,-80.1195004,"1","Barbeque, Food Trucks, Chicken Wings, Caterers, Cajun/Creole, Restaurants, Food, Event Planning & Services, Sandwiches"
"541",31608,"Wynner Grill","Toronto","ON","M1W 3V8",43.8043291239,-79.3310938776,"0","Chinese, Food, Barbeque, Canadian (New), Restaurants, Bars, Nightlife"
"542",113757,"Maria's Pizzeria","North Olmsted","OH","44070",41.407011,-81.946026,"0","Barbeque, Salad, Restaurants, Sandwiches, Pizza"
"543",66687,"El Paso BBQ","Scottsdale","AZ","85258",33.5706,-111.9021,"0","Restaurants, Barbeque"
"544",22835,"Rôtisserie St-Hubert","Montréal","QC","H3T 1Y1",45.496097,-73.621041,"1","Restaurants, Barbeque, Chicken Shop, Chicken Wings"
"545",41826,"Swiss Chalet Rotisserie & Grill","East York","ON","M4B 2T8",43.7128560314,-79.3075517014,"0","Restaurants, Barbeque, American (Traditional)"
"546",33444,"The Tandem Connection","Canonsburg","PA","15317",40.2992411,-80.1523737,"1","Barbeque, Local Services, Restaurants, Bike Rentals, Active Life"
"547",165314,"Mac's Speed Shop - Southend","Charlotte","NC","28203",35.2029595,-80.8643709,"1","Nightlife, Sports Bars, American (Traditional), Burgers, Chicken Wings, Bars, Barbeque, Restaurants"
"548",9641,"Big Ern's BBQ","Las Vegas","NV","89101",36.167841,-115.139075,"0","Restaurants, Farmers Market, Food, Barbeque"
"549",57030,"Gogi Korean BBQ","Calgary","AB","T2M 2Z6",51.0732227364,-114.0715297312,"1","Korean, Barbeque, Restaurants"
"550",191916,"Hillbilly's Bbq & Steaks","Gastonia","NC","28054",35.2534569,-81.1674716,"1","Steakhouses, Restaurants, Barbeque"
"551",129059,"Ohio City BBQ","Cleveland","OH","44113",41.4804755,-81.7125465,"1","Restaurants, Barbeque"
"552",78746,"Lai Lai Mongolian Bbq","Phoenix","AZ","85051",33.5527544,-112.1356087,"0","Restaurants, Mongolian, Barbeque"
"553",67356,"Santa Maria Grill","Markham","ON","L3P 1Y6",43.8838701,-79.2613019,"1","Mediterranean, Convenience Stores, Barbeque, Food, Restaurants, Burgers"
"554",51005,"Bell's BBQ","Henderson","NV","89052",35.9936882,-115.1016894,"1","American (Traditional), American (New), Southern, Restaurants, Barbeque"
"555",80144,"The Brisket Grille","Middlefield","OH","44062",41.4619986,-81.0737079,"0","Breakfast & Brunch, Sandwiches, Barbeque, Restaurants, Delis"
"556",181382,"Cherry Tree Smokehouse BBQ","Phoenix","AZ","85006",33.4655511,-112.040087,"0","Barbeque, Food, Restaurants"
"557",106703,"Firegrill Steakhouse & Bar","Montréal","QC","H3A 1P7",45.5000119,-73.5751515,"1","Steakhouses, Seafood, Arts & Crafts, Restaurants, Shopping, Barbeque"
"558",67543,"Benny&Co.","Sainte-Julie","QC","J3E 2T4",45.5762338484,-73.328194432,"1","Barbeque, Chicken Shop, Chicken Wings, Restaurants, Fast Food, Poutineries"
"559",51114,"Paddy's Barbecue & Brewery","Calgary","AB","T2G 3Z2",51.0228546,-114.0575884,"1","Brewpubs, Barbeque, Food, Breweries, Comfort Food, Restaurants"
"560",170048,"Poppa Naps BBQ","Las Vegas","NV","89121",36.1165487,-115.0881146,"1","American (New), Barbeque, Food Stands, Caterers, Hot Dogs, Restaurants, Event Planning & Services"
"561",85271,"Spork Pit","Pittsburgh","PA","15224",40.4648998995,-79.936539866,"1","Restaurants, American (Traditional), Cocktail Bars, Desserts, Dinner Theater, Food, Nightlife, Barbeque, Bars"
"562",108733,"Richmond Court Restaurant","Richmond Hill","ON","L4B 1B9",43.8448223771,-79.3838653341,"1","Food, Dim Sum, Chinese, Barbeque, Restaurants, Bakeries"
"563",152067,"Smoke N Sams","Las Vegas","NV","89129",36.175,-115.136389,"1","Food Stands, Barbeque, Food, Street Vendors, Restaurants"
"564",135276,"Johnny Roger's BBQ & Burgers","Concord","NC","28027",35.3692491577,-80.6640866352,"1","Barbeque, Restaurants, Burgers, American (New)"
"565",139195,"Midwood Smokehouse","Huntersville","NC","28078",35.4439253,-80.8813988,"1","American (Traditional), Smokehouse, Restaurants, Salad, Food, Barbeque"
"566",106623,"Hog Father's Old Fashioned BBQ","Canonsburg","PA","15317",40.2631123063,-80.1740170734,"1","Barbeque, Restaurants"
"567",92629,"Amherst Pit BBQ and Pub","Amherst","OH","44001",41.3995113183,-82.2422048577,"0","Pubs, Bars, Nightlife, Restaurants, Barbeque"
"568",44951,"Sunset Grill","Toronto","ON","M4P 2C6",43.7078846,-79.3982536,"0","Restaurants, Barbeque, Breakfast & Brunch, Salad"
"569",182445,"Sushi 2 Go","Etobicoke","ON","M9B 1A9",43.6374204,-79.538922,"1","Restaurants, Sushi Bars, Barbeque, Japanese"
"570",147782,"Mon Ami","Montréal","QC","H4L 3L3",45.51128,-73.67758,"1","Barbeque, Korean, Restaurants"
"571",84940,"Hankang Korean Restaurant","Calgary","AB","T2L 1V9",51.1014362,-114.1400454,"1","Restaurants, Korean, Barbeque"
"572",137675,"Your BBQ Guys - Sales, Service and so much more","Phoenix","AZ","85022",33.608806,-112.066921,"1","Home & Garden, Barbeque, Grilling Equipment, Contractors, Professional Services, Restaurants, Fireplace Services, Outdoor Furniture Stores, Appliances, Shopping, Home Cleaning, Home Services, Local Services, Appliances & Repair"
"573",2035,"Mick & Shirley's Catering and Cafe","Akron","OH","44320",41.0543369,-81.581282,"1","Comfort Food, Vegetarian, Soul Food, American (New), Restaurants, Barbeque, Event Planning & Services, Caterers, Sandwiches"
"574",136040,"La Fondue du Prince","Sainte-Anne-de-Bellevue","QC","H9X 1L8",45.4032819,-73.9515153,"1","Restaurants, Fondue, Barbeque, Chinese, French"
"575",95530,"House of Manchester Primal Brasserie -Organic Gluten-Free Fusion","North Las Vegas","NV","89030",36.2011662,-115.1389362,"1","Coffee & Tea, Food, Gluten-Free, Barbeque, Caribbean, Juice Bars & Smoothies, Restaurants"
"576",122908,"Rôtisserie St-Hubert","Saint-Hyacinthe","QC","J2S 7K7",45.6404952446,-72.9687513961,"1","Chicken Wings, Chicken Shop, Restaurants, Barbeque"
"577",102299,"Dragon Flame Chinese Grill","Tempe","AZ","85281",33.4165712,-111.9255048,"1","Restaurants, Barbeque, Noodles, Chinese"
"578",138270,"Beckham's B & M Bar B Que","North Randall","OH","44128",41.4275763,-81.5245419,"1","Breakfast & Brunch, Barbeque, Fast Food, Restaurants"
"579",17936,"Swiss Chalet Rotisserie and Grill/Roost","Mississauga","ON","L4W 1S9",43.671782,-79.5966169,"1","Restaurants, Barbeque, American (Traditional)"
"580",131218,"Vera's Kitchen","Toronto","ON","M4P 2Y3",43.7071961,-79.3962565,"0","Barbeque, Restaurants, Russian, Canadian (New)"
"581",189476,"That BBQ Joint","Madison","WI","53703",43.0794811,-89.3694005,"1","Barbeque, Restaurants"
"582",103516,"Retro Bleu Cafe","Las Vegas","NV","89146",36.1586808,-115.2367199,"0","Hawaiian, Comfort Food, Barbeque, Hot Dogs, Asian Fusion, Restaurants"
"583",135182,"Billys Barbeque Family","Mount Holly","NC","28120",35.3101629,-81.0363466,"1","Barbeque, Restaurants, Southern"
"584",63116,"Buffalo Wild Wings","Las Vegas","NV","89123",36.054301,-115.171477,"1","Bars, Sports Bars, Barbeque, Nightlife, Chicken Wings, Restaurants, American (Traditional)"
"585",181608,"Freddie's Rib House","Cleveland","OH","44110",41.5580157,-81.5693255,"0","Barbeque, Restaurants, American (Traditional)"
"586",158056,"Claim Jumper Restaurant & Saloon","Henderson","NV","89074",36.0258372,-115.0859834,"1","Steakhouses, Restaurants, Barbeque, Nightlife, American (Traditional), Seafood, Bars"
"587",128921,"Walt's BBQ","Avondale","AZ","85392",33.467119,-112.3392713,"0","Barbeque, Food, Restaurants"
"588",37324,"Balls Grill & Produce","Gastonia","NC","28052",35.232541,-81.1952167,"1","Burgers, Restaurants, American (Traditional), Barbeque"
"589",143797,"The Getaway Cafe","Pittsburgh","PA","15226",40.3845997,-80.0157241,"1","American (New), Restaurants, American (Traditional), Barbeque, Nightlife, Bars"
"590",43162,"KG BBQ","Las Vegas","NV","89102",36.1258775,-115.197855,"1","Barbeque, Vietnamese, Korean, Restaurants, Asian Fusion"
"591",69815,"Doh Korean BBQ","Las Vegas","NV","89139",36.0447344,-115.2425,"1","Barbeque, Restaurants, Korean"
"592",73844,"Moon Korean BBQ","Calgary","AB","T2X 1N4",50.9140491257,-114.063915624,"0","Restaurants, Korean, Barbeque"
"593",77265,"Cafe Noodle & Chinese Barbeque","Las Vegas","NV","89102",36.1258775,-115.197855,"1","Restaurants, Chinese, Noodles, Barbeque"
"594",171614,"Art's Barbecue & Deli","Charlotte","NC","28204",35.213685,-80.844951,"1","Barbeque, Restaurants, Delis"
"595",37461,"Stacy's Off Da Hook BBQ and Soul Food","Phoenix","AZ","85021",33.5389198,-112.0975187,"1","Restaurants, Soul Food, Southern, Barbeque"
"596",181582,"Le Boucan","Montréal","QC","H1Y 1W9",45.547789,-73.574919,"0","Barbeque, Restaurants"
"597",177854,"Dickey's Barbecue Pit","Phoenix","AZ","85022",33.6382752375,-112.0665541837,"1","Restaurants, American (Traditional), Barbeque, Southern"
"598",170798,"Houston Avenue Bar & Grill","Montréal","QC","H2Z 0A4",45.5024364,-73.5623366,"1","Bars, Burgers, Nightlife, Restaurants, Barbeque, Steakhouses"
"599",44706,"Smokey Mountain BBQ","Las Vegas","NV","89139",36.055363,-115.225306,"0","Barbeque, Restaurants"
"600",51103,"The Butcher's Pantry","Solon","OH","44139",41.3873915,-81.4397117,"1","Restaurants, Butcher, Meat Shops, Caterers, Nightlife, Event Planning & Services, Food, Sandwiches, Bars, Specialty Food, Barbeque, Beer, Wine & Spirits"
"601",62346,"The Kickin' Pig","Rock Hill","SC","29732",34.9528098,-81.0160225,"0","Restaurants, Local Flavor, Barbeque, Food"
"602",40825,"Phoenix Roadhouse Diner 66","Phoenix","AZ","85034",33.4372686,-112.0077881,"1","Restaurants, Barbeque"
"603",35069,"Swiss Chalet Rotisserie & Grill","Brampton","ON","L7A 3R9",43.7242890142,-79.813195467,"1","Comfort Food, American (Traditional), Barbeque, Restaurants, Food"
"604",47540,"Jessie Rae's BBQ","Henderson","NV","89052",35.996832,-115.137164,"0","Event Planning & Services, Barbeque, Bars, American (New), Restaurants, Caterers, Dive Bars, Nightlife"
"605",42810,"Frankie Boys","Charlotte","NC","28277",35.053486,-80.815603,"0","Barbeque, Burgers, Restaurants"
"606",114444,"Yummy Wok N Bbq House","North York","ON","M3N 2V3",43.7572127,-79.5183147,"1","Restaurants, Barbeque"
"607",73543,"Moderne Sushi & BBQ","Chestermere","AB","T1X 1M1",51.0517174,-113.8143914,"0","Sushi Bars, Barbeque, Restaurants, Japanese, Korean"
"608",70155,"Meat Here","Pittsburgh","PA","15213",40.4385568,-79.9547478,"0","Wraps, Restaurants, Chicken Wings, Barbeque, Southern"
"609",86404,"Seoul BBQ","Toronto","ON","M1S 3V1",43.8032491,-79.288433,"0","Restaurants, Buffets, Barbeque, Korean"
"610",162699,"Cabbagetown Kitchen","Toronto","ON","M4X 1G6",43.6682885,-79.3693663,"0","Barbeque, Burgers, Chicken Wings, Restaurants"
"611",182988,"Smokehouse Bar & Grill","Phoenix","AZ","85032",33.5972271441,-112.0140078664,"0","Barbeque, Burgers, Tex-Mex, Chicken Wings, Restaurants, Breakfast & Brunch"
"612",129294,"Cross Creek Inn","Elizabeth","PA","15037",40.2918167,-79.8333071,"1","Nightlife, Sandwiches, Bars, Restaurants, Barbeque"
"613",63940,"MR Bulgogi","Pittsburgh","PA","15206",40.4720642,-79.9136731,"1","Asian Fusion, Food Trucks, Barbeque, Korean, Street Vendors, Food, Restaurants"
"614",51187,"Bar B Q Tonite","Mississauga","ON","L4W 4G1",43.6402856336,-79.6248552884,"1","Barbeque, Restaurants, Pakistani"
"615",53290,"Fastbacks Brewhouse & Grill","Brook Park","OH","44142",41.4182767686,-81.8187642843,"1","Nightlife, Barbeque, American (Traditional), Bars, Restaurants"
"616",75501,"Pinnacle Peak Patio","Scottsdale","AZ","85262",33.7273959088,-111.8555598103,"0","Barbeque, Restaurants, Nightlife, Bars, Steakhouses"
"617",191341,"Charleys Philly Steaks","Las Vegas","NV","89107",36.1725320001,-115.1972578838,"1","Barbeque, Fast Food, Restaurants"
"618",177627,"Pittsburgh Barbecue Company","Pittsburgh","PA","15216",40.4198992597,-80.0300516362,"1","Event Planning & Services, Barbeque, Caterers, Restaurants"
"619",112074,"STACK","Toronto","ON","M4N 2L5",43.729286,-79.40309,"1","Barbeque, Restaurants"
"620",11419,"OUTLAWS Bar & Restaurant","Phoenix","AZ","85331",33.8322253,-111.9353557,"1","Restaurants, Barbeque"
"621",177667,"Hyde Park Prime Steakhouse","Akron","OH","44333",41.1367374795,-81.6465704509,"1","Japanese, Barbeque, Restaurants, Salad, Seafood, Steakhouses"
"622",36401,"T.I.G. BBQ","Las Vegas","NV","89102",36.144201795,-115.161916092,"0","Burgers, Barbeque, Chicken Wings, Restaurants, Food"
"623",40086,"The Notorious P.I.G.","Mesa","AZ","85204",33.4001772,-111.8057393,"1","Restaurants, Barbeque"
"624",126994,"Ohana Hawaiian Bbq","Las Vegas","NV","89123",36.0556282,-115.1201353,"1","Barbeque, Hawaiian, Restaurants"
"625",137262,"Nevada Chicken Cafe","Las Vegas","NV","89148",36.0958,-115.296779,"1","Barbeque, Restaurants, Wraps, Chicken Shop, American (New), Salad, Sandwiches, American (Traditional)"
"626",187058,"Robbie's Super-Stuff Super-Licious Bbq Restaurant","Pittsburgh","PA","15104",40.409566,-79.843961,"1","Barbeque, Restaurants"
"627",94719,"Marie Callender's Catering","Las Vegas","NV","89104",36.1445849,-115.1460011,"1","Food, Caterers, Barbeque, Event Planning & Services, Restaurants, American (Traditional)"
"628",188764,"Fat Casual BBQ","Macedonia","OH","44056",41.299616,-81.51808,"0","Restaurants, Barbeque"
"629",43418,"Carribean Cowboy","North Royalton","OH","44133",41.3130983,-81.727417,"0","Pubs, Barbeque, Nightlife, Beauty & Spas, Hair Salons, Bars, American (Traditional), Restaurants"
"630",182147,"Churrasqueira Alto Minho","Toronto","ON","M6N 1C1",43.670211,-79.4569077,"0","Restaurants, Barbeque, Portuguese"
"631",31892,"Yum Yum BBQ Chicken","Calgary","AB","T2W 1G1",50.962673462,-114.0874392531,"1","Barbeque, Restaurants, Korean"
"632",159462,"Ox Noodle","Vaughan","ON","L4K 5Y6",43.8279652353,-79.5373121571,"1","Restaurants, Vietnamese, Asian Fusion, Cafes, Barbeque, Juice Bars & Smoothies, Coffee & Tea, Food"
"633",35310,"Butchies","Whitby","ON","L1N 2N8",43.8755958,-78.9595591,"1","Diners, Restaurants, Barbeque, Burgers"
"634",85377,"Uncle Bears Grill & Bar","Surprise","AZ","85374",33.6414198,-112.3557678,"0","Burgers, American (Traditional), Restaurants, Barbeque"
"635",100723,"Famous Dave's Bar-B-Que","Mesa","AZ","85201",33.4355095953,-111.8691243026,"1","Restaurants, American (Traditional), Comfort Food, Barbeque"
"636",115238,"Côte St-Luc Bar-B-Q","Dollard-des-Ormeaux","QC","H8Y 3B7",45.4972643654,-73.8115510791,"1","Barbeque, Restaurants, Diners"
"637",184251,"Joe Boo's Cookoos","Thornhill","ON","L4J 3W1",43.7989606468,-79.4463799218,"0","Barbeque, Kosher, Burgers, Restaurants"
"638",187699,"Helles & Dunkel","Charlotte","NC","28203",35.2160363,-80.8538011,"0","Cocktail Bars, Pizza, American (New), Sushi Bars, Music Venues, Barbeque, Food, Bars, Nightlife, Restaurants, Sports Bars, Arts & Entertainment, Sandwiches, Karaoke, Breweries, Pubs"
"639",111555,"Famous Dave's Bar-B-Que","Chandler","AZ","85226",33.298165,-111.8984525,"1","Barbeque, Restaurants, American (Traditional), Comfort Food"
"640",53609,"Troutman's","Concord","NC","28025",35.420995,-80.590048,"1","Barbeque, Restaurants, Comfort Food"
"641",9772,"Smile Thai Cuisine","Tempe","AZ","85282",33.4059944088,-111.9258569061,"1","Restaurants, Noodles, Thai, Barbeque"
"642",174078,"Le Milsa","Montréal","QC","H3G 2E4",45.4972277,-73.5774177,"0","Restaurants, Brazilian, Steakhouses, Barbeque, Seafood"
"643",90329,"Sushi Bbq Inn","Calgary","AB","T2M 0K9",51.0669854,-114.0887466,"1","Restaurants, Japanese, Sushi Bars, Barbeque"
"644",92017,"Ono's Island BBQ","Las Vegas","NV","89146",36.1593711089,-115.2201970656,"1","Hawaiian, Barbeque, Restaurants"
"645",3894,"Charcoal Grill Legend","Unionville","ON","L3R 9W4",43.8593407,-79.3047018,"1","Chinese, American (Traditional), Barbeque, Restaurants"
"646",105917,"The Proper Pig Smokehouse","Mentor","OH","44060",41.7141677,-81.2952155,"1","Food, Barbeque, Food Trucks, Restaurants, Smokehouse"
"647",105865,"Hungry Kepuha","Las Vegas","NV","89178",36.008231,-115.279549,"1","Guamanian, Barbeque, Food Trucks, Restaurants, Food"
"648",191013,"L&L Hawaiian Barbecue","Las Vegas","NV","89103",36.1159009,-115.2263204,"1","Restaurants, Barbeque, Hawaiian"
"649",104722,"Babe's Good N Plenty","Cleveland","OH","44111",41.453732,-81.769322,"0","Barbeque, Soul Food, Restaurants"
"650",62076,"JL Smokehouse","Phoenix","AZ","85040",33.4069903648,-112.0445367694,"1","Sandwiches, Smokehouse, Barbeque, American (Traditional), Food, Restaurants"
"651",179560,"Chicken & Pig Bar B Que","Las Vegas","NV","89141",35.9996941257,-115.2071079612,"0","Restaurants, Barbeque"
"652",179827,"Cookin On Wood","Phoenix","AZ","85040",33.4084094,-112.0080011,"1","Restaurants, Caterers, Event Planning & Services, Barbeque"
"653",31478,"88=Eighteight Korean Cuisine","Markham","ON","L3R 1K9",43.8189308,-79.3306248,"1","Korean, Barbeque, Restaurants"
"654",31230,"Beef Butter BBQ","Sun Prairie","WI","53590",43.1645509,-89.266922,"1","Barbeque, Food, Restaurants, Caterers, Event Planning & Services, Food Trucks"
"655",47412,"L & L Hawaiian Barbecue","Las Vegas","NV","89123",36.0520271,-115.17155,"1","Restaurants, Hawaiian, Barbeque"
"656",158404,"Big Bone BBQ & Wicked Wings","Newmarket","ON","L3Y 1J6",44.047918,-79.46888,"1","Barbeque, Restaurants, Sandwiches, Chicken Wings"
"657",39627,"Greedy Duck","Toronto","ON","M5T 1S3",43.6576853,-79.4023603,"1","Chinese, Barbeque, Noodles, Restaurants"
"658",39206,"WOW Rotisserie Chicken","Toronto","ON","M5V 1M1",43.6444322,-79.3994776,"0","Barbeque, Restaurants"
"659",159300,"Valdez","Toronto","ON","M5V 1M6",43.6444801,-79.4005463,"0","Bars, Latin American, Barbeque, Cocktail Bars, Restaurants, Nightlife"
"660",11185,"Yummy Dumpling and BBQ","Richmond Hill","ON","L4B 3Z4",43.8447290394,-79.3837208301,"1","Barbeque, Chinese, Restaurants"
"661",17359,"Q Up Barbeque","Phoenix","AZ","85005",33.4476587,-112.1345677,"1","Food, Event Planning & Services, Barbeque, Caterers, Restaurants, Food Trucks, Street Vendors"
"662",140710,"The Smokehouse Bar & Grill","Pittsburgh","PA","15226",40.399184,-80.025491,"0","Nightlife, Restaurants, Barbeque, American (Traditional), Bars"
"663",164820,"Cowboy Steak Chicken Ribs","Cornelius","NC","28031",35.458582,-80.86835,"1","Nightlife, Bars, Wine Bars, Steakhouses, Barbeque, American (Traditional), Restaurants"
"664",188357,"Midwood Smokehouse","Charlotte","NC","28209",35.1748509,-80.847318,"1","Barbeque, Restaurants, Bars, Nightlife, Food, Smokehouse"
"665",26803,"BBQ Mexicana","Las Vegas","NV","89119",36.087535,-115.174742,"1","Mexican, Restaurants, Barbeque"
"666",40432,"Swiss Chalet Rotisserie & Grill","Markham","ON","L3R 1A7",43.8230086,-79.3492399,"1","American (Traditional), Restaurants, Barbeque, Comfort Food"
"667",77481,"Cactus Sandwiches & BBQ chicken","Toronto","ON","M1L",43.7234564814,-79.2989965528,"0","Barbeque, Mediterranean, Sandwiches, Restaurants, Halal"
"668",50466,"Memphis Championship Barbecue","Las Vegas","NV","89146",36.155701,-115.244204,"0","Barbeque, Restaurants"
"669",90651,"JB's Street Meat","Brampton","ON","L6V 1X6",43.697117847,-79.751787204,"0","Burgers, Barbeque, Sandwiches, Restaurants"
"670",95351,"Swiss Chalet Rotisserie & Grill","Calgary","AB","T2H 0M4",50.9736705,-114.0703344,"0","Comfort Food, Canadian (New), American (Traditional), Barbeque, Restaurants"
"671",158142,"Luen Hing Barbecue","Mississauga","ON","L4Y 4G6",43.5973104227,-79.5949380845,"1","Barbeque, Restaurants"
"672",183824,"Hap's Pit Barbeque","Phoenix","AZ","85034",33.4382789,-112.0178286,"0","Restaurants, Barbeque"
"673",83827,"South Main Street BBQ","Waxhaw","NC","28173",34.924601,-80.742835,"1","Ice Cream & Frozen Yogurt, Barbeque, Food, Restaurants"
"674",124204,"Toronto BBQ and Beer","Toronto","ON","M5J 2E9",43.616023,-79.3768256,"1","Restaurants, Barbeque, Venues & Event Spaces, Canadian (New), Event Planning & Services"
"675",91110,"Pacific Island Taste","Las Vegas","NV","89104",36.158478,-115.13427,"1","Sandwiches, Restaurants, Hawaiian, Asian Fusion, Comfort Food, Breakfast & Brunch, Barbeque, Poke, Food"
"676",96399,"Cook Out","Charlotte","NC","28270",35.1407686,-80.7356176,"1","Burgers, Hot Dogs, Fast Food, American (New), Barbeque, Restaurants"
"677",160698,"Rôtisserie Scores","Sainte-Julie","QC","J3E 1Y8",45.5770212431,-73.3298390384,"1","Chicken Shop, Barbeque, Restaurants"
"678",146296,"Cook Out","Indian Trail","NC","28079",35.0859107,-80.6618451,"1","Burgers, Restaurants, Fast Food, Barbeque"
"679",59695,"Vogue Restaurant & Bar","Las Vegas","NV","89146",36.1275457,-115.225503,"0","Barbeque, Chinese, Nightlife, Karaoke, Restaurants"
"680",62170,"Hobak Korean BBQ","Las Vegas","NV","89146",36.1259456853,-115.2219796307,"1","Barbeque, Restaurants, Korean"
"681",66998,"Hung Fok BBQ Gourmet","Toronto","ON","M2J",43.7857392633,-79.3521449783,"1","Dim Sum, Chinese, Ethnic Food, Restaurants, Barbeque, Specialty Food, Imported Food, Food"
"682",46664,"Elephant BBQ Restaurant","Las Vegas","NV","89104",36.143672,-115.1409598,"0","Restaurants, Barbeque, Korean"
