"","business_id","name","city","state","postal_code","latitude","longitude","is_open","categories"
"1",16100,"PA Wine & Spirits Store","Wexford","PA","15090",40.6320526,-80.0564758,"1","Beer, Wine & Spirits, Food"
"2",170311,"Ohio Beer Garden","North Olmsted","OH","44070",41.4165875685,-81.9043700652,"1","Restaurants, Pubs, Bars, Nightlife, American (Traditional), Beer Gardens"
"3",87650,"Vince Neil's Tatuado | Eat, Drink, Party","Las Vegas","NV","89169",36.1020497898,-115.1562883,"1","Bars, Sports Bars, Nightlife, Beer, Wine & Spirits, Restaurants, Food, American (Traditional)"
"4",170257,"Arc Bar","Las Vegas","NV","89109",36.1121506,-115.17155,"1","Hotels & Travel, Nightlife, Food, Beer, Wine & Spirits"
"5",44219,"Piggly's At the Fair","Mesa","AZ","85204",33.38449,-111.80411,"0","Food, Beer, Wine & Spirits, Restaurants, Barbeque, Local Flavor, American (Traditional)"
"6",56109,"Carolina Beer Company","Charlotte","NC","28208",35.2205899237,-80.940057576,"1","Local Flavor, Beer, Wine & Spirits, Food"
"7",191469,"Minotti's Wine & Liquor","Rocky River","OH","44116",41.4788179,-81.840142,"1","Beer, Wine & Spirits, Food"
"8",31873,"Uncle Joe's Bar & Grill","Parma Heights","OH","44130",41.394558,-81.783869,"1","Beer Bar, Beer, Wine & Spirits, Restaurants, American (New), Nightlife, Bars, Food"
"9",75692,"Bathurst Local","Toronto","ON","M5T 2S3",43.6514918,-79.4058339,"1","Beer, Wine & Spirits, Whiskey Bars, Coffee & Tea, Beer Bar, Breakfast & Brunch, Bars, Cocktail Bars, Food, Cafes, Wine Bars, Restaurants, Local Flavor, Nightlife"
"10",25777,"Saq","Montreal","QC","H3B 1H4",45.4989869,-73.5734636,"1","Food, Beer, Wine & Spirits"
"11",31059,"Sam's Market & Liquor","Scottsdale","AZ","85257",33.4663854,-111.8934221,"1","Food, Beer, Wine & Spirits, Shopping, Tobacco Shops"
"12",129478,"Jade Fine Chinese Dining","Phoenix","AZ","85085",33.7971416,-112.1180452,"0","Chinese, Beer, Wine & Spirits, Restaurants, Food"
"13",183677,"Jones Market & Deli","Las Vegas","NV","89146",36.1274446,-115.2250141,"0","Grocery, Food, Imported Food, Beer, Wine & Spirits"
"14",61008,"Assorted Table Wine Shoppe","Charlotte","NC","28202",35.2273295255,-80.838524611,"1","Food, Arts & Entertainment, Beer, Wine & Spirits, Wineries"
"15",78516,"Ohio Liquor Agency","Painesville","OH","44077",41.7242327,-81.2402355,"1","Beer, Wine & Spirits, Food"
"16",24476,"Lake Town Tavern","Cornelius","NC","28031",35.4631169,-80.8887062,"1","Nightlife, Food, Beer, Wine & Spirits, Burgers, Restaurants, American (Traditional), Chicken Wings, Arts & Entertainment, Music Venues, Pubs, Sports Bars, Bars"
"17",76113,"Devils Den Sports Grill","Tempe","AZ","85281",33.4231472,-111.9328392,"0","Bars, Restaurants, Burgers, Beer, Wine & Spirits, Food, Nightlife"
"18",61712,"Délires du Terroir","Montréal","QC","H2S 2M2",45.5358641,-73.6028048,"1","Food, Farmers Market, Local Flavor, Beer, Wine & Spirits"
"19",182686,"Fionn MacCool's Irish Pub","Brampton","ON","L6Y 5L8",43.658148,-79.723291,"1","Pubs, Nightlife, Beer, Wine & Spirits, Food, Irish Pub, Restaurants, Gastropubs, Bars"
"20",152557,"North Coast Wine & Beer","Lakewood","OH","44107",41.477248,-81.7691747,"1","Food, Beer, Wine & Spirits"
"21",160591,"Il Tetto:  A Rooftop Beer Garden","Pittsburgh","PA","15222",40.4439496,-79.9964366,"1","Italian, Restaurants, Bars, Nightlife, Beer Gardens"
"22",91984,"City Brew Tours Pittsburgh","Pittsburgh","PA","15213",40.4394236,-79.9921601,"1","Beer Tours, Hotels & Travel, Bar Crawl, Tours, Event Planning & Services, Breweries, Team Building Activities, Nightlife, Food"
"23",187547,"LCBO","Mississauga","ON","L5B 1M2",43.5972926288,-79.6432664848,"1","Beer, Wine & Spirits, Food"
"24",184144,"Bar Kada Avenue","Las Vegas","NV","89102",36.142762,-115.209066,"0","Specialty Food, Street Vendors, Filipino, Asian Fusion, Food, Nightlife, Restaurants, Karaoke, Ethnic Food, Bars, Beer, Wine & Spirits"
"25",23868,"Rockne's","Medina","OH","44256",41.1358602,-81.8146315,"1","Sandwiches, American (New), Bars, Beer Bar, Restaurants, Nightlife"
"26",124138,"Liberty Beer","Pittsburgh","PA","15224",40.4638608,-79.953304,"1","Beer, Wine & Spirits, Food"
"27",24497,"Bonfyre American Grille","Madison","WI","53713",43.034735369,-89.4225611388,"1","Bars, Cocktail Bars, Nightlife, American (New), American (Traditional), Restaurants, Beer Bar"
"28",129329,"Twisted Rose Winery and Eatery","Scottsdale","AZ","85260",33.6222438,-111.8974713,"0","Sandwiches, Wineries, Food, Beer, Wine & Spirits, Arts & Entertainment, American (New), Restaurants"
"29",98471,"The Lion's Tail Tavern","Las Vegas","NV","89117",36.1467032996,-115.3008587093,"0","Nightlife, Bars, Food, Beer, Wine & Spirits"
"30",79013,"Gimme Some Sugar","Henderson","NV","89012",36.0281354672,-115.0483156803,"0","Coffee & Tea, Restaurants, Bakeries, Beer, Wine & Spirits, Desserts, Food, Cafes"
"31",177875,"Rott n' Grapes Uptown","Phoenix","AZ","85012",33.5071180897,-112.0742981546,"1","Lounges, Gastropubs, Sports Bars, Breakfast & Brunch, Bars, Wine Bars, Nightlife, Restaurants, Pubs, Italian, Beer, Wine & Spirits, Food, Tapas/Small Plates, Beer Bar"
"32",107548,"The Coal Mine","Pittsburgh","PA","15234",40.3717019,-80.0090216,"1","Pubs, Pizza, Chicken Wings, American (Traditional), Beer, Wine & Spirits, Restaurants, Bars, Food, Nightlife"
"33",117215,"Fine Wine & Good Spirits","Pittsburgh","PA","15216",40.3938897,-80.0351897,"1","Beer, Wine & Spirits, Food"
"34",137429,"Palanzos Beer Distributor","Pittsburgh","PA","15224",40.4621046,-79.9504294,"0","Beer, Wine & Spirits, Food"
"35",4694,"LCBO - Maple Leaf Gardens","Toronto","ON","M5B 1J2",43.6622575889,-79.3797508975,"1","Beer, Wine & Spirits, Food"
"36",110161,"French Grocery","Phoenix","AZ","85013",33.5164493875,-112.0821531733,"0","Restaurants, Bars, Wine Bars, Bakeries, Coffee & Tea, Breakfast & Brunch, Food, French, Macarons, Nightlife, Grocery, Specialty Food, Beer, Wine & Spirits"
"37",78651,"Johnson Public House","Madison","WI","53703",43.084781,-89.376208,"1","Bars, Breakfast & Brunch, Pubs, Coffee & Tea, Food, Nightlife, Restaurants, Beer, Wine & Spirits"
"38",53418,"URBO","Phoenix","AZ","85003",33.454725,-112.081398,"1","Coffee & Tea, Restaurants, Food, Breakfast & Brunch, Convenience Stores, Beer, Wine & Spirits"
"39",15810,"Azuza Hookah Lounge & Cafe","Las Vegas","NV","89169",36.108898,-115.151261,"1","Beer, Wine & Spirits, Bars, Ethnic Food, Cafes, Specialty Food, Restaurants, Cocktail Bars, Arts & Entertainment, Hookah Bars, Tea Rooms, Food, Nightlife, Mediterranean, Coffee & Tea, Music Venues"
"40",120649,"Cactus Jacks Saloon","Las Vegas","NV","89183",35.9968968,-115.1371786,"1","Pizza, Beer, Wine & Spirits, Food, Restaurants, Nightlife, American (Traditional), Chicken Wings, Sports Bars, Bars"
"41",18169,"Miller's Liquor","Madison","WI","53726",43.071949,-89.4273908,"1","Food, Beer, Wine & Spirits"
"42",83606,"Manhattan Deli Bar & Grille","Willoughby","OH","44094",41.6071023,-81.4414043,"1","Sandwiches, Delis, American (Traditional), Restaurants, Bars, Beer Bar, Nightlife, Breakfast & Brunch, Event Planning & Services, Caterers"
"43",177930,"Ora Tapas & Lounge","Markham","ON","L3R 0B9",43.8338295,-79.3542399,"0","Tapas Bars, Restaurants, Tapas/Small Plates, Beer, Wine & Spirits, Food"
"44",16797,"WineStyles","Peoria","AZ","85345",33.5515304,-112.2707018,"0","Wine Bars, Beer, Wine & Spirits, Bars, Food, Musical Instruments & Teachers, Nightlife, Shopping"
"45",3379,"Macleod Liquor Store","Calgary","AB","T2H 0L3",50.9900909,-114.0705957,"1","Food, Beer, Wine & Spirits"
"46",146524,"P.J. Clarke's New York Chophouse","Las Vegas","NV","89109",36.118399,-115.172945,"0","Steakhouses, Gastropubs, Seafood, American (New), Venues & Event Spaces, Beer, Wine & Spirits, Restaurants, Food, Event Planning & Services"
"47",100001,"32 Shea","Phoenix","AZ","85028",33.5834783394,-112.0134559392,"1","Nightlife, Food, Restaurants, Beer, Wine & Spirits, Coffee & Tea, Breakfast & Brunch, Bars, Wine Bars, Do-It-Yourself Food, Cafes"
"48",140445,"Mascot Brewery","Toronto","ON","M5V 1H2",43.6456481909,-79.3907867509,"0","Breweries, Food, Nightlife, Beer Gardens, Bars"
"49",22086,"Beerbistro","Toronto","ON","M5C 1C4",43.649817,-79.377147,"1","Restaurants, Bistros, Bars, Beer Bar, Pubs, Nightlife, American (New), Canadian (New)"
"50",145525,"Share Wine Lounge And Bistro","Monroeville","PA","15146",40.4318151,-79.7922189,"1","Wine Bars, Restaurants, Nightlife, Beer, Wine & Spirits, American (Traditional), Bars, American (New), Food"
"51",153176,"B Spot","Westlake","OH","44145",41.4603545053,-81.9525702814,"1","Salad, Burgers, Desserts, Bars, Food, Whiskey Bars, Nightlife, Restaurants, Beer Bar, Wine Bars"
"52",6822,"Winking Lizard","Mentor","OH","44060",41.6816013,-81.296011,"1","American (Traditional), Restaurants, Sports Bars, Bars, Nightlife, Food, Beer, Wine & Spirits"
"53",50988,"Liquor De Xo","Las Vegas","NV","89102",36.13062,-115.1909491,"1","Food, Beer, Wine & Spirits"
"54",8180,"Stacey's Liquor Stop","Calgary","AB","T2H 2V2",50.9785551,-114.0700768,"1","Beer, Wine & Spirits, Food"
"55",93861,"Desert Rose Cigar Lounge and Club","Glendale","AZ","85301",33.536647,-112.1820031,"1","Lounges, Bars, Nightlife, Tobacco Shops, Sports Bars, Beer, Wine & Spirits, Shopping, Food"
"56",105638,"Tailgaters Sports Bar & Grill","Glendale","AZ","85308",33.6391591,-112.1901999,"1","Food, Nightlife, Bars, Sports Bars, Beer, Wine & Spirits, Restaurants"
"57",37812,"The Block","Calgary","AB","T2M 2Z8",51.0735029799,-114.0725108858,"0","Restaurants, Nightlife, Lounges, Breakfast & Brunch, Food, Bars, Gluten-Free, Beer, Wine & Spirits"
"58",191051,"Bières et Compagnie","Montréal","QC","H2J 2L1",45.5228389,-73.5807616,"0","Nightlife, Belgian, Beer, Wine & Spirits, Pubs, Brazilian, Food, Bars, Restaurants"
"59",140812,"Olde Wine Cellar Bistro & Bottle Shop","Olmsted Falls","OH","44138",41.376812,-81.901644,"1","Tapas/Small Plates, Bars, Wineries, Beer, Wine & Spirits, Food, Arts & Entertainment, Wine Bars, Restaurants, Wine Tasting Room, Nightlife, Modern European"
"60",71121,"Pitchforks & Corks","Tempe","AZ","85281",33.4234904,-111.935169,"1","Food, Bars, Restaurants, Sandwiches, Beer, Wine & Spirits, Nightlife, Wine Bars, Coffee & Tea, Cocktail Bars"
"61",99980,"Gaetano's Ristorante","Henderson","NV","89052",36.0028441,-115.1106772,"1","Restaurants, Italian, Beer, Wine & Spirits, Food"
"62",175247,"7th District Restaurant & Lounge","Charlotte","NC","28202",35.2260326,-80.8362003,"1","Tapas/Small Plates, Bars, American (New), Hookah Bars, Seafood, Nightlife, American (Traditional), Restaurants, Beer, Wine & Spirits, Lounges, Food"
"63",188362,"King Of The Hill Beer","Pittsburgh","PA","15213",40.4561442,-79.9641121,"1","Food, Beer, Wine & Spirits"
"64",153372,"Merchants Restaurant & Bar","Calgary","AB","T2T 1Z6",51.0243119441,-114.1106418636,"1","Food, Beer, Wine & Spirits"
"65",44446,"VOM FASS","Madison","WI","53705",43.0755448,-89.4429998,"1","Beer, Wine & Spirits, Food, Health Markets, Ethnic Food, Herbs & Spices, Specialty Food"
"66",34402,"Morgan's","Cross Plains","WI","53528",43.060952,-89.655208,"1","Beer Bar, Bars, Sports Bars, Nightlife"
"67",179645,"Grady's Fine Wine","Rocky River","OH","44116",41.4834645,-81.84535,"0","Delis, Beer, Wine & Spirits, Restaurants, Food"
"68",185769,"Lazy Dog Restaurant & Bar","Las Vegas","NV","89119",36.0701464765,-115.1738562678,"1","Comfort Food, American (New), Restaurants, Bars, Breakfast & Brunch, Wine Bars, Tapas/Small Plates, Burgers, Nightlife, Cocktail Bars, Beer, Wine & Spirits, Food, Beer Bar"
"69",40393,"Max & Lola Bodega","Charlotte","NC","28203",35.2188599,-80.8605894,"1","Beer Bar, Mexican, Food, Beer Gardens, Restaurants, Wine Bars, Bars, Beer, Wine & Spirits, Nightlife, Food Trucks"
"70",158463,"Trader Joe's","Charlotte","NC","28277",35.078704,-80.818063,"1","Specialty Food, Food, Shopping, Ethnic Food, Health Markets, Beer, Wine & Spirits, Grocery, Shopping Centers, Florists, Flowers & Gifts"
"71",161292,"Billy Jack's Shack","Charlotte","NC","28205",35.2473056,-80.8048381,"1","Bars, Nightlife, Beer Bar, Restaurants"
"72",34375,"Ryu Sushi & Teppanyaki","Gilbert","AZ","85295",33.3048739,-111.7561095,"1","Beer, Wine & Spirits, Food, Restaurants, Sushi Bars, Japanese"
"73",18512,"World Wines & Liquors","Mentor","OH","44060",41.6718812,-81.3263179,"1","Brewing Supplies, Propane, Grocery, Local Services, Food, Beer, Wine & Spirits, Shopping"
"74",20904,"Sin City Beer Festival","Las Vegas","NV","89109",36.0996345,-115.1713579,"1","Arts & Entertainment, Food, Beer, Wine & Spirits, Local Flavor, Festivals"
"75",159121,"Trader Joe's","Madison","WI","53711",43.0649866,-89.4175436,"1","Flowers & Gifts, Beer, Wine & Spirits, Shopping, Specialty Food, Florists, Grocery, Food"
"76",52823,"SAQ","Montréal","QC","H2V 2K7",45.5189105,-73.596066,"1","Beer, Wine & Spirits, Food"
"77",177530,"Lee's Discount Liquor","North Las Vegas","NV","89084",36.2842607,-115.179506,"1","Food, Beer, Wine & Spirits"
"78",167046,"Cost Plus World Market","Scottsdale","AZ","85254",33.6338098723,-111.9230288104,"1","Home & Garden, Specialty Food, Arts & Crafts, Chocolatiers & Shops, Flowers & Gifts, Beer, Wine & Spirits, Home Decor, Shopping, Cards & Stationery, Furniture Stores, Food, Event Planning & Services"
"79",183659,"Club 704","Charlotte","NC","28216",35.2650499785,-80.8803730085,"1","Beer, Wine & Spirits, Food, Nightlife, Dance Clubs"
"80",29212,"Duckworth's Kitchen & Taphouse","Charlotte","NC","28209",35.1708909,-80.8504498,"1","Bars, Sandwiches, Restaurants, Beer Bar, Nightlife, American (New), Beer, Wine & Spirits, Chicken Wings, Burgers, Sports Bars, Pizza, Food, American (Traditional), Cheesesteaks"
"81",4777,"MadisonTap","Madison","WI","53703",43.0814961,-89.3736962,"1","Restaurants, Gastropubs, Beer Bar, Beer Gardens, Nightlife, Bars, Food, Breweries, Pubs"
"82",191940,"Pistella Beer Distributors","Pittsburgh","PA","15206",40.463747,-79.9319642,"1","Food, Beer, Wine & Spirits"
"83",4702,"Muckish Irish Pub","Toronto","ON","M1L 4B2",43.7200413,-79.284063,"1","Irish Pub, Beer, Wine & Spirits, Pubs, Food, American (New), Bars, Irish, Nightlife, Restaurants, Canadian (New)"
"84",145490,"The Hogtown Vegan","Toronto","ON","M6H 1M3",43.6605669,-79.4325733,"1","Restaurants, Southern, Beer, Wine & Spirits, Food, Vegan"
"85",59621,"Central Grille","Phoenix","AZ","85020",33.5612361,-112.0737398,"0","Bars, Food, Restaurants, Beer, Wine & Spirits, Nightlife, Seafood, Steakhouses"
"86",17447,"Chops","Montréal","QC","H3X 1T7",45.483104,-73.6294507,"1","Restaurants, Asian Fusion, Beer, Wine & Spirits, Sushi Bars, Kosher, Food, Steakhouses"
"87",112963,"Khoury's Fine Wine & Spirits","Las Vegas","NV","89183",36.0092075661,-115.1181343195,"1","Bars, Wine Bars, Beer, Wine & Spirits, Beer Bar, Nightlife, Food"
"88",85634,"Co-op","Calgary","AB","T2C 5E1",50.9625725,-114.0093579,"1","Food, Beer, Wine & Spirits"
"89",171976,"Divine Cafe & Market at Optima","Scottsdale","AZ","85251",33.506771,-111.92834,"0","Beer, Wine & Spirits, Convenience Stores, American (New), Caterers, Event Planning & Services, Restaurants, Food"
"90",105477,"Pickle Bill's Lobster House","Grand River","OH","44045",41.7422812666,-81.2812566164,"1","Bars, American (Traditional), Nightlife, Food, Beer, Wine & Spirits, Dive Bars, Steakhouses, Restaurants, Seafood"
"91",133020,"City Wine and Spirits","Mesa","AZ","85209",33.3788165049,-111.6903259743,"0","Local Flavor, Beer, Wine & Spirits, Food"
"92",117397,"LCBO","Toronto","ON","M6G 1M4",43.6619825,-79.4251431,"1","Food, Shopping, Beer, Wine & Spirits"
"93",99040,"EZ Shop","Cleveland","OH","44102",41.4869059,-81.7672087,"1","Automotive, Food, Gas Stations, Beer, Wine & Spirits, Convenience Stores"
"94",16209,"Aprilé Bambina","Toronto","ON","M4M 1Z8",43.6692354,-79.33609,"0","Comfort Food, Food, Gluten-Free, Breakfast & Brunch, Canadian (New), Restaurants, Italian, Beer, Wine & Spirits, Pizza"
"95",132502,"Bottle Stop","Madison","WI","53704",43.1028425,-89.3462234,"1","Beer, Wine & Spirits, Food"
"96",116231,"Corks Beer & Wine Bars","Toronto","ON","M4G 3V1",43.7056909,-79.3616027,"1","Food, Beer, Wine & Spirits, Restaurants, Bars, Canadian (New), Nightlife"
"97",111680,"The Firehouse Bar & Grill","Mount Horeb","WI","53572",43.0078253,-89.7394444,"1","Restaurants, Food, Beer, Wine & Spirits"
"98",105349,"MadCap Brew","Kent","OH","44240",41.1386095742,-81.3727893357,"1","Nightlife, Beer Gardens, Breweries, Food"
"99",2491,"Gray's Tied House","Verona","WI","53593",42.9792519,-89.516184,"0","Breweries, Restaurants, Beer Bar, Food, Bars, Burgers, Nightlife, American (New)"
"100",30901,"The Wicket Bar","Toronto","ON","M6P 1A6",43.6554790884,-79.4565081126,"1","Beer, Wine & Spirits, Sports Bars, Gastropubs, Restaurants, Bars, Food, Nightlife, Pubs, Venues & Event Spaces, Event Planning & Services"
"101",130150,"Texas Roadhouse","Phoenix","AZ","85085",33.7149105285,-112.1160852606,"1","Restaurants, Beer, Wine & Spirits, Steakhouses, Food, Sandwiches"
"102",70826,"Fine Wine & Good Spirits","Pittsburgh","PA","15226",40.3941612,-80.021059,"1","Food, Beer, Wine & Spirits"
"103",67206,"Yadkin Valley WIne Bar","Charlotte","NC","28208",35.2205594,-80.9438737,"1","Beer, Wine & Spirits, Bars, Nightlife, Food, Wine Bars"
"104",88503,"Sai Sushi","Henderson","NV","89052",35.9800381,-115.0979894,"0","Bars, Wine Bars, Nightlife, Restaurants, Beer Bar, Sushi Bars, Japanese"
"105",90881,"Forbes Tavern","Pittsburgh","PA","15222",40.4398048471,-80.000440143,"1","Burgers, Nightlife, Beer Bar, American (Traditional), Bars, Restaurants"
"106",62167,"LCBO","Scarborough","ON","M1P 5B7",43.7740622,-79.27971,"1","Beer, Wine & Spirits, Food"
"107",34782,"Le Tequila Bar","Saint-Laurent","QC","H4L 3M5",45.5136807,-73.6824464,"0","Nightlife, Mexican, Restaurants, Beer, Wine & Spirits, Food, Bars, Pubs"
"108",180005,"Fat Tuesday","Las Vegas","NV","89109",36.109487,-115.170771,"1","Beer, Wine & Spirits, Food, Nightlife, Bars"
"109",156197,"The Rail - Strongsville","Strongsville","OH","44136",41.312453,-81.825812,"1","Beer Bar, Salad, Nightlife, Restaurants, American (New), Bars, Burgers"
"110",80997,"Mullen's Bar & Grill","Pittsburgh","PA","15212",40.4483953,-80.0041476,"1","Food, Beer, Wine & Spirits, Nightlife, Sports Bars, Bars"
"111",69318,"Back Room Burger","Las Vegas","NV","89103",36.114438045,-115.1929949325,"0","Beer, Wine & Spirits, American (Traditional), Food, Restaurants, Burgers"
"112",184863,"Lobby Bar","Henderson","NV","89052",36.020696,-115.0901928,"1","Nightlife, Beer Bar, Bars, Wine Bars, Cocktail Bars"
"113",79218,"Fanatic's Bar & Grill","Phoenix","AZ","85032",33.6275895,-112.0113666,"1","Beer, Wine & Spirits, Food"
"114",166001,"Lee's Discount Liquor","Las Vegas","NV","89139",36.0337807921,-115.2039751084,"1","Food, Beer, Wine & Spirits, Shopping, Discount Store"
"115",74492,"Wine & Design","Cleveland","OH","44113",41.4774176,-81.6820504,"1","Wine Tasting Room, Arts & Entertainment, Home Services, Beer, Wine & Spirits, Shopping, Interior Design, Home & Garden, Home Decor, Wineries, Food"
"116",34450,"Nextdoor Pub & Grill","Montréal","QC","H4A 1T5",45.4755505,-73.6077293,"1","Pubs, Canadian (New), Bars, Restaurants, Beer, Wine & Spirits, Food, Nightlife"
"117",43506,"The Beer Store Express","Toronto","ON","M5B",43.6564397,-79.3806859,"1","Beer, Wine & Spirits, Food"
"118",6938,"The Beer Store - Queen and Bathurst","Toronto","ON","M6J 1E3",43.6471293461,-79.4049575843,"1","Food, Beer, Wine & Spirits"
"119",146712,"Malani World Mercato","Phoenix","AZ","85032",33.6028938848,-111.9819590581,"1","Threading Services, Ethnic Grocery, Jewelry, Shopping, Fashion, Accessories, Food, Women's Clothing, Hair Removal, Beer, Wine & Spirits, Beauty & Spas"
"120",29486,"Flowers Craft Beer & Wine","Phoenix","AZ","85004",33.4585209,-112.0671432,"0","Delis, Restaurants, Food, Beer, Wine & Spirits"
"121",50934,"Wine & Spirits Store","Bethel Park","PA","15102",40.3470457237,-80.052791519,"1","Food, Beer, Wine & Spirits"
"122",57678,"The Junction","Amherst","OH","44001",41.3989262,-82.2460641,"1","Laundromat, Automotive, Local Services, Food, Laundry Services, Car Wash, Beer, Wine & Spirits"
"123",65379,"201 Central","Huntersville","NC","28078",35.3854581714,-80.7855183631,"0","Cafes, Restaurants, Grocery, Drugstores, Shopping, Specialty Food, Flowers & Gifts, Food, Beer, Wine & Spirits"
"124",38636,"Café Lézard","Montréal","QC","H1Y 1X9",45.5494678,-73.5740617,"1","Food, Beer, Wine & Spirits, Cafes, Restaurants"
"125",170165,"Mecklenburg County ABC Store","Charlotte","NC","28269",35.3337218,-80.790667,"1","Beer, Wine & Spirits, Food"
"126",12684,"Humble Pie","Phoenix","AZ","85034",33.4371656697,-112.0019148623,"1","Restaurants, Italian, Bars, Pizza, Beer, Wine & Spirits, Food, Nightlife"
"127",150516,"Mecklenburg County ABC Store","Charlotte","NC","28217",35.1481017,-80.8769096,"1","Beer, Wine & Spirits, Food"
"128",102621,"Martin's Deli","Rocky River","OH","44116",41.476153,-81.847554,"1","Beer, Wine & Spirits, Breakfast & Brunch, Delis, Caterers, Sandwiches, Nightlife, Food, Restaurants, Bars, Wine Bars, Event Planning & Services"
"129",62371,"Aj's Fine Foods","Mesa","AZ","85204",33.381975,-111.756933,"1","Food, Desserts, Shopping, Flowers & Gifts, Grocery, Beer, Wine & Spirits, Restaurants, Florists, Farmers Market"
"130",50228,"Sahara Liquor","Las Vegas","NV","89102",36.1438369751,-115.2038116455,"1","Shopping, Food, Tobacco Shops, Beer, Wine & Spirits"
"131",156634,"Fine & Fancy Flowers","Gastonia","NC","28052",35.2483461,-81.1902773,"1","Beer, Wine & Spirits, Floral Designers, Food, Event Planning & Services, Flowers & Gifts, Shopping, Florists, Gift Shops"
"132",40805,"Village Martini & Wine Bar","Chagrin Falls","OH","44022",41.425876,-81.3731625,"1","Bars, Beer, Wine & Spirits, Restaurants, Food, American (Traditional), Wine Bars, Nightlife"
"133",94247,"Barriques - Middleton","Middleton","WI","53562",43.0961472849,-89.5139048645,"1","Restaurants, Food, Coffee & Tea, Beer, Wine & Spirits"
"134",138709,"Salute Lounge","Las Vegas","NV","89136",36.122692,-115.170195,"1","Food, Bars, Beer, Wine & Spirits, Lounges, Nightlife"
"135",35760,"Zoë's Coffee House","Gastonia","NC","28052",35.2627555,-81.1835817,"0","Arts & Entertainment, Lounges, Coffee & Tea, Nightlife, Music Venues, Bars, Food, Beer, Wine & Spirits"
"136",188026,"Standard Tap Public House","Airdrie","AB","T4B 3K3",51.2889626757,-114.0148311036,"0","Restaurants, Gastropubs, Food, Beer, Wine & Spirits"
"137",157472,"Willow Park Wines & Spirits","Calgary","AB","T2E 4Y7",51.0458381,-114.1435007,"1","Food, Beer, Wine & Spirits"
"138",43870,"Giant Eagle","Twinsburg","OH","44087",41.309541,-81.442,"1","Grocery, Local Services, Food, Shopping, Beer, Wine & Spirits, Shopping Centers, Bakeries"
"139",30528,"St James's Gate Toronto","Toronto","ON","M9A 1C2",43.6439152,-79.5336798,"1","Irish, Restaurants, Pubs, Food, Beer, Wine & Spirits, Nightlife, Bars"
"140",118836,"Brown Derby","Mentor","OH","44060",41.71438,-81.298804,"0","Steakhouses, Restaurants, Food, Beer, Wine & Spirits, Barbeque"
"141",179936,"World Market","Akron","OH","44333",41.132145,-81.641834,"1","Home Decor, Food, Furniture Stores, Shopping, Grocery, Home & Garden, Beer, Wine & Spirits"
"142",93806,"Dépanneur Parisoir Spot Café","Saint-Laurent","QC","H4L",45.5095950555,-73.6749494076,"1","Food, Convenience Stores, Beer, Wine & Spirits, Coffee & Tea"
"143",96069,"Grotto Ristorante","Las Vegas","NV","89101",36.1703149,-115.1448997,"1","Italian, Restaurants, Bars, Nightlife, American (Traditional), Pizza, Beer, Wine & Spirits, Food"
"144",95424,"French Quarter","Charlotte","NC","28202",35.2260212,-80.8469951,"1","Cajun/Creole, Food, Beer, Wine & Spirits, American (Traditional), Restaurants, Comfort Food, French, American (New)"
"145",133321,"Aldi","Charlotte","NC","28212",35.2012568,-80.7345207,"1","Beer, Wine & Spirits, Food, Grocery"
"146",126822,"Harmony Bar & Grill","Madison","WI","53704",43.0930866,-89.3491752,"1","Music Venues, Nightlife, American (Traditional), Dive Bars, Beer, Wine & Spirits, Arts & Entertainment, Bars, Food, Restaurants"
"147",149383,"Dotty's","Las Vegas","NV","89103",36.1221094766,-115.2434549,"1","Nightlife, Pubs, Casinos, Arts & Entertainment, Food, Bars, Beer, Wine & Spirits"
"148",74849,"The Wine Room at Afton Village","Concord","NC","28027",35.4141736,-80.6701084,"1","Wine Bars, Sandwiches, Food, Nightlife, Beer, Wine & Spirits, American (Traditional), Bars, Restaurants"
"149",79670,"The Hop Shop","Charlotte","NC","28204",35.2203521462,-80.8169672638,"1","Wine Bars, Bars, Nightlife, Beer Bar"
"150",123081,"Taverne Gaspar","Montréal","QC","H2Y 1J1",45.506283,-73.552868,"1","Food, Gastropubs, Restaurants, Beer, Wine & Spirits"
"151",62904,"Total Wine & More","Las Vegas","NV","89149",36.266148,-115.258001,"1","Head Shops, Flowers & Gifts, Gift Shops, Beer, Wine & Spirits, Shopping, Tobacco Shops, Food"
"152",179013,"Wolf Creek Tavern","Norton","OH","44203",41.0503419692,-81.6376036513,"1","Seafood, Food, Restaurants, Breakfast & Brunch, Pubs, American (New), Bars, Beer, Wine & Spirits, Nightlife"
"153",35976,"Travelers Grille","North Olmsted","OH","44070",41.4273677,-81.8945852,"1","American (Traditional), Food, Restaurants, Beer, Wine & Spirits"
"154",25189,"Winking Lizard Tavern","Rocky River","OH","44116",41.4588528444,-81.8609438948,"0","Food, Italian, Restaurants, Beer, Wine & Spirits, Burgers, Bars, Local Flavor, Nightlife"
"155",104185,"Solo Liquor","Calgary","AB","T2Z 0V4",50.915801,-113.933727,"1","Beer, Wine & Spirits, Food"
"156",38217,"Posidon Greek Restaurant & Market","Mesa","AZ","85201",33.4149317,-111.8501092,"0","Beer, Wine & Spirits, Delis, Food, Greek, Restaurants"
"157",4858,"Richtree Market Restaurants","Thornhill","ON","L4J 4P8",43.807031,-79.451904,"0","Restaurants, American (Traditional), Grocery, Canadian (New), Health Markets, Food, Specialty Food, Beer, Wine & Spirits"
"158",7814,"The Beer Store - Dundas and Lakeview","Toronto","ON","M6J 1X4",43.6498046,-79.4225229,"1","Beer, Wine & Spirits, Food"
"159",50560,"Mahen's Liquor","Madison","WI","53704",43.1252826,-89.3096842,"1","Food, Beer, Wine & Spirits"
"160",192342,"Grayhawk Beer Co","Scottsdale","AZ","85255",33.6762908,-111.9231242,"0","Salad, Bars, Sports Bars, Beer Bar, Nightlife, Breakfast & Brunch, Food, Burgers, Desserts, Gastropubs, American (New), Restaurants"
"161",163053,"Big Slick Bar & Billiards","Mississauga","ON","L5N 1A2",43.5887465267,-79.7221180135,"1","Beer Gardens, Nightlife, Pool Halls, Sports Bars, Bars"
"162",50141,"Cornerstone Restaurant & Bar","Pittsburgh","PA","15215",40.489564,-79.903287,"1","Nightlife, Restaurants, Breakfast & Brunch, American (New), Beer, Wine & Spirits, American (Traditional), Food"
"163",15275,"Snacks","Las Vegas","NV","89109",36.1137695312,-115.1755599976,"0","Cafes, Sandwiches, Coffee & Tea, Food, Restaurants, Beer, Wine & Spirits"
"164",101636,"Fossil & Haggis Pub","Toronto","ON","M1E 4P7",43.790302,-79.1957593,"1","Beer, Wine & Spirits, Food"
"165",102209,"The Beer Store","East York","ON","M4C 4E6",43.6937312,-79.3167591,"1","Food, Beer, Wine & Spirits"
"166",102488,"Wine Rack - Queen and Broadview","Toronto","ON","M4M 1H1",43.6589108,-79.3489759,"1","Beer, Wine & Spirits, Food"
"167",98467,"Boxcar Social","Toronto","ON","M4M 2J3",43.65988331,-79.3469716297,"1","Food, Beer, Wine & Spirits, Coffee & Tea"
"168",38252,"Boardwalk Billy's Raw Bar-river & Ribs - Crown Point","Charlotte","NC","28270",35.138449,-80.736385,"1","Seafood, Sandwiches, Sports Bars, Barbeque, Bars, Nightlife, Restaurants, American (Traditional), Beer Bar, Cocktail Bars"
"169",76952,"HELM Microbrasserie","Montréal","QC","H2V 1T5",45.5240524,-73.6053731,"1","Food, Breweries, Beer, Wine & Spirits, Restaurants, Brasseries"
"170",90289,"3 Trade Food & Wine","Charlotte","NC","28202",35.228893,-80.845776,"0","Food, Beer, Wine & Spirits, Restaurants, American (New)"
"171",141043,"North Court Beverage, Inc.","Medina","OH","44256",41.1533965,-81.861381,"1","Beer, Wine & Spirits, Food"
"172",14639,"Barley's & Hop's Bottle Shop","Bethel Park","PA","15102",40.3340909,-80.0240714,"0","Food, Beer, Wine & Spirits"
"173",66162,"Les Intraitables","Montréal","QC","H2Y 1C2",45.5076918446,-73.5542883184,"1","Restaurants, Beer, Wine & Spirits, Breakfast & Brunch, Coffee & Tea, Cafes, Food, Coffee Roasteries"
"174",114016,"Goodfellers","Cleveland","OH","44115",41.497882,-81.6841309,"0","Restaurants, Nightlife, Sports Bars, Burgers, Food, Event Planning & Services, Beer, Wine & Spirits, Caterers, Bars, American (Traditional)"
"175",62575,"Birra","Montréal","QC","H2S 0B2",45.534351,-73.617157,"1","Bars, Nightlife, Breweries, Beer, Wine & Spirits, Pubs, Food, Brewpubs, Beer Bar"
"176",57689,"Los Girasoles Mexican","Stow","OH","44224",41.1823584797,-81.4827499087,"1","Bars, Food, Desserts, Beer Bar, Nightlife, Restaurants, Mexican"
"177",106754,"Q & Brew","Tempe","AZ","85282",33.3919532,-111.9407446,"1","Beer Bar, Bars, Pool Halls, Nightlife, Cocktail Bars"
"178",76283,"Moo & Brew Craft Beer and Burger Festival","Charlotte","NC","28206",35.2397553,-80.84702,"1","Arts & Entertainment, Festivals, Beer, Wine & Spirits, Food"
"179",143719,"The Beer Store","Toronto","ON","M4E",43.6808074,-79.2840376,"1","Food, Beer, Wine & Spirits"
"180",92483,"Bad Tom Smith Brewing","Cleveland","OH","44113",41.4860496,-81.7052058,"1","Bar Crawl, Food, Beer, Wine & Spirits, Breweries, Nightlife, Gastropubs, Bars, Restaurants, Beer Bar"
"181",84605,"The Whippoorwill Restaurant & Tavern","Toronto","ON","M6H 1N7",43.6583044,-79.4425187,"0","Canadian (New), Bars, Breakfast & Brunch, Beer, Wine & Spirits, Cocktail Bars, Food, Restaurants, Diners, Nightlife"
"182",149136,"Vic Pierce Liquor","Madison","WI","53704",43.1075722,-89.3630829,"1","Beer, Wine & Spirits, Food"
"183",25529,"King Henry's Arms","Richmond Hill","ON","L4C 1V4",43.8540988068,-79.4326051274,"1","Restaurants, Gastropubs, Beer, Wine & Spirits, Nightlife, British, Pubs, Bars, Food"
"184",123006,"Toronto Brewing","Toronto","ON","M3J 2P6",43.7560444,-79.4739679,"1","Food, Beer, Wine & Spirits, Shopping, Breweries, Hobby Shops"
"185",147677,"Rusty Gold Brewing","Canonsburg","PA","15317",40.2584977,-80.1876096,"1","Food, Nightlife, Bars, Beer Bar, Breweries"
"186",21625,"Jones Liquors","Las Vegas","NV","89118",36.0603257,-115.224439,"1","Food, Beer, Wine & Spirits, Convenience Stores"
"187",119875,"Bell Tower Liquors","Glendale","AZ","85308",33.6390409,-112.1960122,"1","Beer, Wine & Spirits, Food"
"188",162799,"Teaopia","North York","ON","M3C 3R6",43.7340865,-79.3455565,"0","Food, Coffee & Tea, Beer, Wine & Spirits"
"189",76777,"la Cappella","Pittsburgh","PA","15238",40.4881863769,-79.8854406388,"0","Fast Food, Restaurants, Food, Pizza, Beer, Wine & Spirits, Bars, Italian, Nightlife, American (Traditional)"
"190",128121,"Pittsburgh Food Truck Park","Millvale","PA","15209",40.4748033089,-79.9692904878,"1","Nightlife, Music Venues, Beer Gardens, Event Planning & Services, Venues & Event Spaces, Food Trucks, Arts & Entertainment, Food"
"191",28786,"Vortex Bottle Shop","Harrisburg","NC","28075",35.3216101,-80.6513386,"1","Nightlife, Restaurants, Bars, Beer Bar, Wine Bars"
"192",103022,"Bjs Cocktail Lounge Decatur","Las Vegas","NV","89139",36.0432366,-115.2086926,"1","Restaurants, Food, Lounges, Beer, Wine & Spirits, Bars, Cocktail Bars, Nightlife, American (New)"
"193",25005,"Oliver's Ale House","Mississauga","ON","L5T 1X5",43.6493753,-79.6615253,"1","Pubs, Seafood, Gastropubs, Bars, Burgers, Beer, Wine & Spirits, Chicken Wings, Steakhouses, Food, Nightlife, Restaurants"
"194",76629,"Mezze","Madison","WI","53703",43.0745706,-89.3940617,"0","American (New), Cocktail Bars, Restaurants, Beer, Wine & Spirits, Food, Mediterranean, Pizza, Bars, Tapas/Small Plates, Nightlife"
"195",33790,"Old Sugar Distillery","Madison","WI","53703",43.0822549,-89.3705511,"1","Distilleries, Bars, Nightlife, Beer, Wine & Spirits, Food"
"196",164246,"Barriques - Monroe St.","Madison","WI","53711",43.0649299,-89.4165809,"1","Restaurants, Beer, Wine & Spirits, Coffee & Tea, Food, Cafes, Sandwiches"
"197",140050,"Total Wine & More","Madison","WI","53719",43.0553568,-89.5055069,"1","Shopping, Tobacco Shops, Beer, Wine & Spirits, Food"
"198",75902,"Winestyles","Phoenix","AZ","85028",33.5834449,-111.9770187,"0","Beer, Wine & Spirits, Food"
"199",91144,"Cannery Wine And Spirits","Sun Prairie","WI","53590",43.1813777,-89.2317147,"1","Beer, Wine & Spirits, Food, Brewing Supplies, Shopping"
"200",171318,"Zen's Cafe","Surprise","AZ","85374",33.6501923,-112.3656273,"0","Sports Bars, Beer, Wine & Spirits, American (Traditional), Nightlife, Bars, Cafes, Restaurants, Food"
"201",74962,"Melt","Phoenix","AZ","85004",33.458466,-112.069568,"1","Food, Gelato, Coffee & Tea, Ice Cream & Frozen Yogurt, Beer, Wine & Spirits, Desserts"
"202",14135,"House of Liquor","Las Vegas","NV","89131",36.3081073,-115.2791214,"0","Mediterranean, Restaurants, Pizza, Vegan, Food, Delis, Beer, Wine & Spirits"
"203",137579,"Tilde","Toronto","ON","M4J 1L2",43.6790622976,-79.3438350409,"0","Mexican, Beer, Wine & Spirits, Restaurants, Comfort Food, Food, Nightlife, Bars"
"204",9439,"Wolfgang Puck Bar & Grill Las Vegas","Las Vegas","NV","89109",36.102543,-115.169884,"1","Sandwiches, Pizza, Salad, Food, Beer, Wine & Spirits, Nightlife, Bars, Restaurants, Hotels & Travel, American (New)"
"205",24597,"Corkbuzz Restaurant & Wine Bar","Charlotte","NC","28210",35.1459386949,-80.8304107446,"1","Restaurants, Beer, Wine & Spirits, American (New), Food, Bars, Tasting Classes, American (Traditional), Wine Bars, Breakfast & Brunch, Nightlife, Education, Wine Tasting Classes"
"206",107262,"EuroGyro","Kent","OH","44240",41.153443,-81.356145,"1","Food, Greek, Beer, Wine & Spirits, Pizza, Restaurants"
"207",111709,"Pierre et Pierre","Montréal","QC","H2J 2L4",45.5243634,-73.5831934,"0","Nightlife, Food, Bars, Beer, Wine & Spirits, Canadian (New), Restaurants, Modern European, Gastropubs"
"208",105496,"Conversation Peace Restaurant Bar & Grill","Concord","NC","28025",35.3879325,-80.5609358,"0","American (Traditional), Food, Restaurants, Sports Bars, Bars, Nightlife, Beer, Wine & Spirits"
"209",83646,"People's Republic","Las Vegas","NV","89109",36.1067305,-115.1719754,"0","Sports Bars, Restaurants, American (New), Nightlife, Food, Beer, Wine & Spirits, American (Traditional), Bars"
"210",391,"Secrets Bar & Grill","West Mifflin","PA","15122",40.3422182194,-79.8995646806,"1","Pubs, Nightlife, Restaurants, Bars, Dive Bars, American (Traditional), Food, Cheesesteaks, Beer, Wine & Spirits"
"211",93316,"Aj's Purveyor of Fine Foods","Chandler","AZ","85226",33.3181459,-111.9657564,"1","Florists, Food, Shopping, Beer, Wine & Spirits, Specialty Food, Flowers & Gifts, Grocery"
"212",6939,"Dandelion Market","Charlotte","NC","28202",35.2286689,-80.84241,"1","Nightlife, Bars, Tapas/Small Plates, Food, American (New), Beer, Wine & Spirits, Restaurants, Dance Clubs"
"213",182693,"Stay Tuned Distillery","Munhall","PA","15120",40.408036,-79.89543,"0","Wineries, Arts & Entertainment, Beer, Wine & Spirits, Food"
"214",28785,"Burger Joint","Henderson","NV","89052",35.995645,-115.0998826,"0","Food, Sandwiches, Restaurants, Beer, Wine & Spirits, American (New), Tapas Bars, Burgers, Fast Food"
"215",177228,"LCBO","Toronto","ON","M3K",43.7326263,-79.4548306,"1","Food, Beer, Wine & Spirits"
"216",175746,"Melt Bar and Grilled","Independence","OH","44131",41.3941325081,-81.6446144208,"1","Restaurants, Nightlife, Sandwiches, Pubs, Food, Comfort Food, American (Traditional), Beer, Wine & Spirits, Bars"
"217",139767,"Parry's Pizzeria & Bar","Charlotte","NC","28216",35.352549,-80.851181,"1","Restaurants, Nightlife, Cocktail Bars, American (Traditional), Sandwiches, Pizza, Beer Bar, Bars"
"218",36928,"LCBO","Mississauga","ON","L5B 4M3",43.5680428253,-79.6312727387,"1","Food, Beer, Wine & Spirits"
"219",90764,"The Roundhouse Craft Beer Festival","Toronto","ON","M5V 3M9",43.6411681,-79.3851861,"0","Beer, Wine & Spirits, Local Flavor, Festivals, Food, Arts & Entertainment"
"220",62297,"Corner Market","Phoenix","AZ","85016",33.490872,-112.0409535,"1","Beer, Wine & Spirits, Food, Grocery, Convenience Stores"
"221",18755,"Chili's","Calgary","AB","T2E 6W5",51.130466,-114.010191,"1","Mexican, American (Traditional), Nightlife, Tex-Mex, Food, Bars, Steakhouses, Beer, Wine & Spirits, Restaurants"
"222",104022,"Azarias","Toronto","ON","M8X 1C4",43.6469981,-79.5131954,"1","Restaurants, Gastropubs, Canadian (New), Food, Beer, Wine & Spirits"
"223",127954,"Spirits of Kensington","Calgary","AB","T2N 1Z4",51.0519142688,-114.0940865373,"1","Food, Beer, Wine & Spirits"
"224",96452,"Bacus Bros Hotdogs and Beer","Tempe","AZ","85281",33.4259647,-111.9402513,"0","Nightlife, Hot Dogs, Beer Bar, Restaurants, Gastropubs, American (Traditional), Bars"
"225",131834,"Wine Warehouse","Scottsdale","AZ","85255",33.6405519,-111.9245513,"0","Bars, Local Flavor, Food, Nightlife, Restaurants, Wine Bars, Beer, Wine & Spirits, Yelp Events"
"226",145892,"Divine Barrel Brewing","Charlotte","NC","28205",35.250379423,-80.7963643456,"1","Beer Bar, Breweries, Food, Bars, Nightlife"
"227",95944,"Sucker Punch Sally's Diner","Tempe","AZ","85281",33.4219963,-111.9398864,"0","American (Traditional), Beer, Wine & Spirits, Restaurants, Food"
"228",119541,"Mindful Brewing Company","Pittsburgh","PA","15234",40.3641474,-80.0226204,"1","Food, Breweries, Beer, Wine & Spirits"
"229",139731,"Mulligan's Sports Bar and Grill","West Mifflin","PA","15122",40.3607613,-79.9321502,"1","Restaurants, Sandwiches, American (New), Delis, Sports Bars, Bars, Beer, Wine & Spirits, Food, Nightlife, American (Traditional)"
"230",88844,"The Bounty Tavern","Las Vegas","NV","89139",35.9985376397,-115.2440875192,"1","Beer, Wine & Spirits, Bars, Food, Nightlife"
"231",58642,"The Beer Store","Toronto","ON","M4L 2L1",43.6633936,-79.3283852,"1","Food, Beer, Wine & Spirits"
"232",60287,"Pitcher's Pub","Madison","WI","53713",43.0367033,-89.3888932,"1","Nightlife, American (Traditional), Restaurants, Pubs, Food, Beer, Wine & Spirits, Bars"
"233",115525,"The Lounge","Las Vegas","NV","89109",36.1060128,-115.1667809,"1","Food, Nightlife, Beer, Wine & Spirits, Lounges, Bars"
"234",72602,"Fourquet Fourchette","Chambly","QC","J3L 1Y8",45.4477944,-73.2792462,"1","Restaurants, Beer, Wine & Spirits, Food, French"
"235",167925,"The Standard Kitchen & Cocktails","Scottsdale","AZ","85253",33.5781536125,-111.9275842352,"0","American (New), Food, Gluten-Free, Nightlife, Breakfast & Brunch, Restaurants, Beer, Wine & Spirits, Bars, Cocktail Bars, Juice Bars & Smoothies"
"236",95429,"Liquor Square","Chandler","AZ","85224",33.3517503,-111.8575245,"1","Beer, Wine & Spirits, Food"
"237",28838,"17th Liquor Boutique","Calgary","AB","T2S 0A9",51.0376143,-114.0727417,"1","Food, Beer, Wine & Spirits"
"238",3847,"Craig Distributing","Pittsburgh","PA","15213",40.4521067,-79.9524517,"1","Beer, Wine & Spirits, Food"
"239",19519,"Rock Creek Kitchen & Bar","Middleburg Heights","OH","44130",41.3521579,-81.7855489,"1","Burgers, Restaurants, Food, American (Traditional), American (New), Beer, Wine & Spirits"
"240",111861,"Bar Neon","Toronto","ON","M6H 1N3",43.6591711775,-79.4392633438,"1","Beer, Wine & Spirits, Restaurants, Food, Mediterranean, Nightlife, Bars, Tapas/Small Plates, Tapas Bars"
"241",90624,"Ale's University","Charlotte","NC","28262",35.3166471034,-80.7401313633,"0","Beer, Wine & Spirits, Sports Bars, Food, American (Traditional), Nightlife, Bars, Restaurants"
"242",127067,"The Malt House","Madison","WI","53704",43.1005032672,-89.3481780865,"1","Pubs, Arts & Entertainment, Beer, Wine & Spirits, Bars, American (Traditional), Food, Whiskey Bars, Nightlife, Restaurants, Music Venues"
"243",63437,"Fine Wine & Good Spirits - Premium Collection","Pittsburgh","PA","15206",40.4592833,-79.9263172,"1","Food, Beer, Wine & Spirits"
"244",143085,"SkyBar","Las Vegas","NV","89158",36.1062598537,-115.1739692688,"1","Food, Nightlife, Lounges, Beer, Wine & Spirits, Bars"
"245",77177,"Martini Bistro","Phoenix","AZ","85034",33.4372686,-112.0077881,"0","Nightlife, Food, Beer, Wine & Spirits, Restaurants, American (New), Bars"
"246",181138,"Bistas Deli & Market","Phoenix","AZ","85085",33.711456,-112.092945,"0","Polish, Restaurants, Delis, Food, Beer, Wine & Spirits"
"247",14091,"House of 1000 Beers","New Kensington","PA","15068",40.5560183,-79.7603284,"1","Nightlife, Food, Burgers, Restaurants, Pubs, Bars, Beer, Wine & Spirits"
"248",72531,"BQM King West","Toronto","ON","M5V 3H5",43.641859,-79.4112192,"0","Cocktail Bars, Sandwiches, Burgers, Food, Restaurants, Nightlife, Bars, Beer, Wine & Spirits"
"249",111761,"Hofbrauhaus Cleveland","Cleveland","OH","44114",41.5028607,-81.6811037,"1","Bars, Beer Gardens, Nightlife, German, Restaurants"
"250",12582,"Save-Mor Beer & Pop Warehouse","Pittsburgh","PA","15217",40.4169465,-79.9254633,"1","Breweries, Food, Hotels & Travel, Shaved Ice, Tours, Beer Tours, Beer, Wine & Spirits, Shopping, Tobacco Shops"
"251",149170,"Sportsman's Fine Wines & Spirits","Glendale","AZ","85308",33.6666984,-112.2018361,"0","Beer, Wine & Spirits, Food"
"252",74127,"Der Braumeister","Cleveland","OH","44111",41.4585238,-81.7801447,"1","Beer, Wine & Spirits, Food, Delis, Burgers, Event Planning & Services, American (Traditional), German, Restaurants, Breakfast & Brunch, Caterers"
"253",127697,"Dynomite Burgers & Sushi","Cleveland","OH","44106",41.5101249232,-81.6034102193,"0","Nightlife, Sushi Bars, Burgers, Restaurants, Bars, Food, Beer, Wine & Spirits"
"254",188793,"Rudy's Subs","Monroeville","PA","15146",40.4376316,-79.7758839,"1","Beer, Wine & Spirits, Pizza, Sandwiches, Restaurants, Food"
"255",116846,"Homesteads Grill and Taphouse","Denver","NC","28037",35.4632957,-80.9936798,"0","Sports Bars, Steakhouses, American (Traditional), Bars, Nightlife, Beer, Wine & Spirits, Restaurants, Caterers, Seafood, Event Planning & Services, American (New), Food"
"256",106993,"Lion's Pub","Cleveland","OH","44111",41.459233145,-81.7767655638,"0","Sports Bars, Beer, Wine & Spirits, Bars, Food Trucks, American (New), Food, Restaurants, Nightlife, Vegan"
"257",181566,"Hampton Beer Outlet","Allison Park","PA","15101",40.593131,-79.946634,"1","Food, Beer, Wine & Spirits"
"258",95905,"Dilworth Tasting Room","Charlotte","NC","28203",35.2087438,-80.8586005,"1","Food, Wine Tasting Room, Nightlife, Bars, Modern European, American (Traditional), Beer, Wine & Spirits, Arts & Entertainment, Tapas/Small Plates, Wine Bars, Wineries, Restaurants"
"259",154845,"Vince Neil's Tatuado EAT DRINK PARTY","Las Vegas","NV","89109",36.137112229,-115.1633105054,"1","Restaurants, Breakfast & Brunch, Bars, Food, Sports Bars, American (New), American (Traditional), Nightlife, Beer, Wine & Spirits"
"260",184926,"The Wine Spot","Cleveland Heights","OH","44118",41.4973699453,-81.5647292929,"1","Pubs, Event Planning & Services, Nightlife, Arts & Entertainment, Wedding Planning, Food, Venues & Event Spaces, Beer Bar, Bars, Wine Bars, Beer, Wine & Spirits"
"261",177788,"Jug 'n Barrel Wine Shop","Glendale","AZ","85308",33.6538701,-112.1862714,"0","Restaurants, Food, Beer, Wine & Spirits"
"262",1014,"il Capo Pizzeria","Scottsdale","AZ","85260",33.5841115,-111.9223001,"1","Restaurants, Food, Bars, Italian, Nightlife, Beer, Wine & Spirits, Pizza, Wine Bars"
"263",32131,"Vino Volo","Cleveland","OH","44135",41.4115034769,-81.8394195927,"1","Food, Beer, Wine & Spirits"
"264",98263,"THE ATRIUM PALAZZO","Las Vegas","NV","89109",36.1234747403,-115.168791265,"1","Beauty & Spas, Watches, Food, Shopping, Cosmetics & Beauty Supply, Beer, Wine & Spirits"
"265",34164,"Boucherie Champfleuri","Montréal","QC","H2J 1Z3",45.5319423,-73.5756839,"1","Food, Meat Shops, Specialty Food, Beer, Wine & Spirits, Butcher, Delicatessen"
"266",192012,"The Common Market","Charlotte","NC","28205",35.2189339,-80.8117172,"1","Delicatessen, Delis, Beer, Wine & Spirits, Food, Arts & Entertainment, Sandwiches, Music Venues, Restaurants, Nightlife"
"267",159278,"Ocean Hill Cigar","Henderson","NV","89074",36.0290152,-115.0625266,"0","Beer Bar, Vape Shops, Bars, Nightlife, Food, Local Flavor, Shopping, Tobacco Shops, Beer, Wine & Spirits"
"268",4939,"Bar Homestand","Toronto","ON","M6G 1M2",43.6626004,-79.4237255,"0","Bars, Sports Bars, Comfort Food, Beer Bar, Restaurants, Pubs, Nightlife"
"269",76380,"Old Pineville Premium Pub","Charlotte","NC","28217",35.1806194,-80.8799355,"1","Wine Bars, American (Traditional), Bars, Beer Gardens, Restaurants, Nightlife"
"270",40171,"Kirtland City Tavern","Kirtland","OH","44094",41.5990661,-81.3473109,"1","American (Traditional), Restaurants, Pizza, Pubs, Beer Bar, Nightlife, Bars"
"271",78497,"Moon Pop & Beer","Coraopolis","PA","15108",40.522106,-80.220614,"1","Food, Beer, Wine & Spirits"
"272",145259,"TailGaters Sports Grill & IL Primo Pizza & Wings","Litchfield Park","AZ","85340",33.508946,-112.342299,"1","Food, Chicken Wings, Restaurants, Pizza, Beer, Wine & Spirits"
"273",44676,"Beerhead Bar & Eatery","Cleveland","OH","44113",41.4995023017,-81.7053054663,"1","Nightlife, Sandwiches, Beer Bar, Restaurants, Beer, Wine & Spirits, Bars, Beer Gardens, American (Traditional), Food"
"274",141050,"SAQ Sélection","Montréal","QC","H2S 1T1",45.5367622,-73.6022056,"1","Food, Beer, Wine & Spirits"
"275",73028,"Maryland Deli & Liquor","Phoenix","AZ","85014",33.531177,-112.065327,"1","Food, Delis, Restaurants, Beer, Wine & Spirits, Convenience Stores, Grocery"
"276",23925,"La Pizzetta","Scottsdale","AZ","85255",33.6277476644,-111.8559048492,"0","Cooking Classes, Beer Bar, Restaurants, Food, Shopping, Bars, Italian, Specialty Schools, Wine Bars, Cooking Schools, Arts & Crafts, Coffee & Tea, Nightlife, Pizza, Education"
"277",21597,"Archeo","Toronto","ON","M5A 3C4",43.6506799169,-79.3595257288,"1","Bars, Beer Bar, Nightlife, Italian, Food, Restaurants, Desserts"
"278",81684,"Star Liquor","Madison","WI","53703",43.0832907,-89.3637955,"1","Beer, Wine & Spirits, Food"
"279",65164,"Osaka Sushi Japanese Restaurant","Toronto","ON","M6P 1A7",43.6557916,-79.4556178,"1","Japanese, Sushi Bars, Beer, Wine & Spirits, Food, Restaurants"
"280",133863,"Vintage Spirits & Grill","Madison","WI","53703",43.0729361,-89.3954456,"1","Nightlife, Bars, Breakfast & Brunch, Restaurants, American (New), Beer Bar"
"281",106290,"Royal Park Fine Wine","North Royalton","OH","44133",41.3152259,-81.7834231,"1","Beer, Wine & Spirits, Food"
"282",170931,"Fiiz Drinks","Mesa","AZ","85204",33.3938495941,-111.7901065734,"1","Beer, Wine & Spirits, Specialty Food, Food, Beverage Store"
"283",160258,"Hop Social Tavern","Chandler","AZ","85226",33.3055249793,-111.9009002815,"1","Beer Bar, Nightlife, American (Traditional), Desserts, Food, Restaurants, Bars"
"284",50469,"Oro Brewing Company","Mesa","AZ","85201",33.4153437797,-111.837140802,"1","Breweries, Nightlife, Food, Beer Bar, Bars"
"285",191702,"Alans Beer and Wine","Mesa","AZ","85204",33.4088228,-111.7705582,"1","Convenience Stores, Grocery, Beer, Wine & Spirits, Food"
"286",110350,"McFate's Tap + Barrel","Scottsdale","AZ","85260",33.5814933,-111.9235093,"1","American (New), Breweries, Pizza, Restaurants, Beer Bar, Food, Beer, Wine & Spirits, Bars, Nightlife"
"287",26796,"Wine and Spirits","Gibsonia","PA","15044",40.6377145,-79.9427574,"1","Food, Beer, Wine & Spirits"
"288",33107,"Trattoria Taverniti","Toronto","ON","M6G 1B2",43.655147,-79.413513,"1","Pizza, Food, Restaurants, Italian, Beer, Wine & Spirits"
"289",176553,"Litchfield Taproom","Litchfield Park","AZ","85340",33.4943994,-112.3589754,"0","Restaurants, Food, Nightlife, Pubs, Beer Bar, Breweries, Beer, Wine & Spirits, Bars, Local Flavor"
"290",97299,"LCBO","Toronto","ON","M4Y 1Y5",43.6644647,-79.3842314,"1","Beer, Wine & Spirits, Food"
"291",101626,"The Yorkshire Arms","Mississauga","ON","L5V 1N2",43.603097,-79.706694,"1","Nightlife, Bars, Food, British, Restaurants, Beer, Wine & Spirits"
"292",45692,"Wine Rack - King and Bathurst","Toronto","ON","M5V 1N3",43.6435892,-79.4049133,"1","Food, Beer, Wine & Spirits"
"293",81833,"Smokin' Q's BBQ and Beer House","Mayfield","OH","44143",41.543775,-81.43913,"1","Nightlife, Sandwiches, Beer Bar, Restaurants, Caterers, Bars, Event Planning & Services, Barbeque"
"294",70023,"Rock Bottom Restaurant & Brewery","Charlotte","NC","28202",35.229761,-80.8396916,"1","Beer, Wine & Spirits, Food, Nightlife, Pubs, American (Traditional), Sandwiches, Bars, Pizza, American (New), Restaurants"
"295",38643,"Rangoon News-Store","Las Vegas","NV","89109",36.09217,-115.175222,"1","Shopping, Beer, Wine & Spirits, Drugstores, Books, Mags, Music & Video, Newspapers & Magazines, Food, Grocery, Convenience Stores"
"296",53501,"Shoeless Joe's Sports Grill - Stockyards","Toronto","ON","M6N 0A3",43.672734,-79.4708416,"1","Bars, Burgers, Nightlife, Sports Bars, Wigs, Beer Bar, Chicken Wings, Restaurants, Shopping"
"297",131725,"Zeffirino","Las Vegas","NV","89109",36.122153,-115.169427,"0","Food, Bars, Restaurants, Beer Bar, Seafood, Beer, Wine & Spirits, Italian, Nightlife"
"298",48180,"Porter Brewery Tours","Pittsburgh","PA","15206",40.469062,-79.914904,"1","Hotels & Travel, Food, Food Tours, Breweries, Tours, Bus Tours, Beer Tours"
"299",192485,"Pour Beer Wine Food","Calgary","AB","T3P 0M9",51.1739614397,-114.108559303,"0","Nightlife, Gastropubs, Beer, Wine & Spirits, Restaurants, Food, Bars"
"300",172491,"Brews Brothers Six Pack Emporium","Castle Shannon","PA","15234",40.3693662,-80.0354764,"1","Food, Beer, Wine & Spirits"
"301",175975,"Total Wine & More","Henderson","NV","89014",36.0565644,-115.0482916,"1","Beer, Wine & Spirits, Tobacco Shops, Food, Grocery, Flowers & Gifts, Head Shops, Shopping"
"302",178749,"Liquor Depot Westhills","Calgary","AB","T3H 3C8",51.014203,-114.170425,"1","Shopping Centers, Beer, Wine & Spirits, Food, Shopping"
"303",175835,"Great Burger Kitchen","Toronto","ON","M5E 1M2",43.6478287,-79.3734002,"0","Fast Food, Restaurants, Food, Bars, Burgers, Poutineries, Beer, Wine & Spirits, Nightlife"
"304",22676,"Madisons NY Grill & Bar","Laval","QC","H7X",45.5270204,-73.7808191,"1","Beer, Wine & Spirits, Food, Beer Bar, Nightlife, Bars, Canadian (New), Restaurants"
"305",14628,"Burgatory","Murrysville","PA","15668",40.4278278251,-79.7010137947,"1","Restaurants, Juice Bars & Smoothies, Food, Cocktail Bars, Burgers, Bars, Beer Bar, American (New), Nightlife"
"306",154979,"Wren House Brewing","Phoenix","AZ","85008",33.471323,-112.029915,"1","Beer, Wine & Spirits, Breweries, Food"
"307",124685,"Benelux","Montréal","QC","H2X 1X7",45.509608,-73.571035,"1","Bars, Pubs, Nightlife, Food, Breweries, Beer Bar"
"308",12080,"Blackbird","Urbana","IL","61801",40.1124098765,-88.2078016079,"1","Nightlife, Bars, Beer Gardens"
"309",133790,"Boulders on Southern","Mesa","AZ","85210",33.3933856028,-111.8533442863,"1","American (New), American (Traditional), Food, Restaurants, Beer, Wine & Spirits, Pizza"
"310",61817,"Soda Centre & Home Brewer's Retail","Scarborough","ON","M1E 2M4",43.7589284,-79.1977161,"1","Home & Garden, Shopping, Beer, Wine & Spirits, Local Services, Food, Arts & Entertainment, Wineries, Kitchen & Bath"
"311",87954,"The Liquor Outlet","Las Vegas","NV","89123",36.0150168,-115.1712669,"1","Shopping, Discount Store, Beer, Wine & Spirits, Food"
"312",81415,"Chinook Liquor","Calgary","AB","T2G",51.0148528128,-114.0654840296,"1","Food, Beer, Wine & Spirits, Shopping, Nightlife"
"313",97410,"Seven Jars","Charlotte","NC","28216",35.2875602,-80.9063415,"1","Food, Brewing Supplies, Shopping, Wineries, Arts & Entertainment, Breweries, Beer, Wine & Spirits, Distilleries"
"314",20002,"D's Market","Scottsdale","AZ","85251",33.4904454,-111.9178287,"1","Beer, Wine & Spirits, Grocery, Food, Convenience Stores, Specialty Food, Candy Stores"
"315",16480,"The Monastery","Mesa","AZ","85215",33.452162,-111.727862,"1","American (Traditional), Food, Beer, Wine & Spirits, Nightlife, Restaurants, Bars, Breakfast & Brunch"
"316",37872,"Blood Brothers Brewing","Toronto","ON","M6K 2L4",43.66984,-79.4361799,"1","Breweries, Beer Bar, Nightlife, Bars, Food"
"317",42187,"U Bottle It","Henderson","NV","89052",36.0066076,-115.0848251,"1","Cooking Classes, Education, Specialty Schools, Arts & Crafts, Beer, Wine & Spirits, Food, Brewing Supplies, Shopping, Cooking Schools"
"318",69642,"Davidson Street Public House","Charlotte","NC","28205",35.2473196,-80.8048763,"0","Beer, Wine & Spirits, American (New), Food, Restaurants, Breweries, Tapas/Small Plates, Gastropubs"
"319",132039,"OTB Bicycle Café","Pittsburgh","PA","15203",40.4273678,-79.9690862,"1","Burgers, Dive Bars, Nightlife, American (New), Food, Bars, Restaurants, Beer, Wine & Spirits"
"320",180245,"Afton Pub & Pizza","Concord","NC","28027",35.4155381261,-80.6698011607,"1","Beer, Wine & Spirits, Pizza, Restaurants, Food"
"321",94272,"Flight","Las Vegas","NV","89119",36.0953785353,-115.1750607266,"1","Cocktail Bars, Beer Bar, Nightlife, Bars"
"322",47155,"Caliente Pizza & Drafthouse","Pittsburgh","PA","15224",40.4620358,-79.9501025,"1","Bars, Beer Bar, Chicken Wings, Restaurants, Salad, Sandwiches, Burgers, Food, Pizza, Nightlife"
"323",131464,"Degree 270","Scottsdale","AZ","85256",33.5385093,-111.8695928,"1","Lounges, Bars, Nightlife, Food, Beer, Wine & Spirits"
"324",178683,"Kensington Wine Market","Calgary","AB","T2N 3P8",51.0523470905,-114.0916057348,"1","Beer, Wine & Spirits, Food"
"325",44161,"LCBO","Scarborough","ON","M1T 3H1",43.7848615,-79.2896553,"1","Food, Beer, Wine & Spirits"
"326",74113,"Osteria De Medici","Calgary","AB","T2N 1V5",51.0528487,-114.0863089,"0","Wineries, Arts & Entertainment, Food, Italian, Beer, Wine & Spirits, Restaurants"
"327",187534,"Total Wine & More","Phoenix","AZ","85050",33.6764114,-111.9762914,"1","Flowers & Gifts, Beer, Wine & Spirits, Shopping, Head Shops, Food, Grocery, Tobacco Shops"
"328",114727,"The Crafty Jackalope","Bridgeville","PA","15017",40.3571482285,-80.1130717016,"1","Bars, Arts & Entertainment, Beer Gardens, Nightlife, American (Traditional), Music Venues, Restaurants"
"329",103946,"Barrelhouse 34","Champaign","IL","61820",40.1175214,-88.241992,"1","Bars, Beer Bar, Nightlife"
"330",102558,"The Street Eatery","Calgary","AB","T2P 0K4",51.0501231,-114.0807025,"1","Nightlife, Burgers, Comfort Food, Mexican, Food, Canadian (New), Vegan, Indian, Vietnamese, Korean, Sandwiches, Street Vendors, Cocktail Bars, Bars, Beer Bar, Restaurants, Barbeque, Thai"
"331",24534,"Collective Pour","Champaign","IL","61820",40.1192337,-88.2428097,"1","Bars, Nightlife, Beer Bar"
"332",191213,"Fantasy Candies","Lyndhurst","OH","44124",41.5195266,-81.4869064,"1","Specialty Food, Beer, Wine & Spirits, Candy Stores, Food"
"333",11406,"The Grille","Brunswick","OH","44212",41.2256428,-81.841467,"1","Bars, American (Traditional), Caterers, Event Planning & Services, Beer, Wine & Spirits, Nightlife, Sports Bars, Pizza, Cocktail Bars, Food, Mediterranean, Restaurants, Sandwiches"
"334",9320,"Smith's Food & Drug Centers","Las Vegas","NV","89106",36.1614319,-115.1743624,"1","Food, Beer, Wine & Spirits, Shopping, Grocery, Department Stores, Fashion"
"335",74743,"Fine Wine & Good Spirits","Pittsburgh","PA","15217",40.4361434,-79.9230544,"1","Beer, Wine & Spirits, Food"
"336",47138,"SAQ","Montréal","QC","H2Y 2W7",45.505168,-73.556717,"1","Beer, Wine & Spirits, Food"
"337",132154,"Arthur's At Belk","Charlotte","NC","28211",35.1510178774,-80.8314976079,"1","Burgers, Food, Beer, Wine & Spirits, Arts & Entertainment, Wineries, Sandwiches, Restaurants"
"338",56651,"Burgers 2 Beer","Lakewood","OH","44107",41.485043066,-81.7993392487,"0","Beer Bar, Bars, Salad, Chicken Wings, Comfort Food, Restaurants, Burgers, Nightlife"
"339",139955,"Super Liqour Mccarran Village","Las Vegas","NV","89169",36.102907,-115.155708,"1","Shopping, Tobacco Shops, Beer, Wine & Spirits, Vape Shops, Food"
"340",32879,"Bourbon Street Bar & BBQ","Chandler","AZ","85249",33.2359121,-111.789788,"0","Restaurants, Cajun/Creole, Barbeque, Beer, Wine & Spirits, Food, Bars, Nightlife"
"341",150635,"Jerome Bettis' Grille 36","Pittsburgh","PA","15212",40.4455502,-80.0113372,"1","Nightlife, Food, Beer, Wine & Spirits, Bars, Sports Bars, American (New), American (Traditional), Restaurants"
"342",4564,"Ground Control","Litchfield Park","AZ","85340",33.507094,-112.358767,"1","Food, Coffee & Tea, Gastropubs, Ice Cream & Frozen Yogurt, Beer, Wine & Spirits, Pizza, Restaurants"
"343",78483,"Lucky's Liquor","Phoenix","AZ","85006",33.473745,-112.048021,"1","Convenience Stores, Couriers & Delivery Services, Food, Grocery, Beer, Wine & Spirits, Local Services"
"344",152781,"Food And Things Liquor & Deli","Scottsdale","AZ","85251",33.509071,-111.899936,"1","Delis, Restaurants, Convenience Stores, Food, Beer, Wine & Spirits"
"345",179150,"High Park Curling & Tennis Club","Toronto","ON","M6R 2V4",43.6426985,-79.4539955,"1","Beer, Wine & Spirits, Skating Rinks, Food, Tennis, Sports Clubs, Active Life"
"346",78978,"Rt 19 Beer & Cigar","McMurray","PA","15317",40.2806542605,-80.1235922,"1","Bars, Nightlife, Brewing Supplies, Tobacco Shops, Food, Breweries, Beer, Wine & Spirits, Shopping"
"347",136327,"Beer, Lime and Sunshine","Pittsburgh","PA","15222",40.4398239,-80.0012038,"1","Beer, Wine & Spirits, Nightlife, Pubs, Bars, Food, Beer Bar"
"348",186853,"Bierock","Madison","WI","53704",43.128579,-89.36098,"1","American (Traditional), Sandwiches, Beer Bar, Comfort Food, Bars, Nightlife, Restaurants"
"349",164326,"Mecklenburg ABC Liquor Store","Charlotte","NC","28209",35.1733809,-80.8507093,"1","Beer, Wine & Spirits, Food"
"350",17723,"Public Works Coffee Bar","Henderson","NV","89015",36.0289833,-114.9795192,"1","Food, Bars, Beer Bar, Nightlife, Wine Bars, Coffee & Tea"
"351",189246,"Fionn MacCool's Irish Pub","Oakville","ON","L6H 6Z9",43.4872015711,-79.7173084578,"1","Food, British, Bars, Gastropubs, Pubs, Restaurants, Beer, Wine & Spirits, Nightlife"
"352",73111,"Red, Wine & Brew - Mentor","Mentor","OH","44060",41.6810591,-81.294979,"1","Beer, Wine & Spirits, Shopping, Wine Bars, Restaurants, Bars, Food, Tobacco Shops, American (New), Pubs, Nightlife, Breweries"
"353",143178,"Breeze Daiquiri Bar","Las Vegas","NV","89109",36.1175831,-115.1703446,"1","Nightlife, Beer Bar, Bars, Cocktail Bars"
"354",58520,"Pub 49","Harrisburg","NC","28075",35.3215758,-80.6522744,"1","Restaurants, Food, Beer, Wine & Spirits, Beer Bar, Chicken Wings, American (New), Dive Bars, Nightlife, Bars, Pizza, Burgers"
"355",40513,"Beers of the Burgh at PNC Park","Pittsburgh","PA","15212",40.4475394019,-80.007220681,"1","Food, Beer, Wine & Spirits"
"356",38455,"Redbeard's Sports Bar & Grill","Pittsburgh","PA","15211",40.4305423,-80.0072239,"1","Nightlife, Burgers, Bars, Restaurants, Sports Bars, Food, Beer, Wine & Spirits, American (New)"
"357",129335,"Time-Out Sports Bar & Grill","Las Vegas","NV","89107",36.1599831016,-115.2252589089,"1","Beer, Wine & Spirits, Food, Sports Bars, Restaurants, Bars, American (Traditional), Nightlife"
"358",145855,"Perfect Pear Bistro","Phoenix","AZ","85048",33.3050931742,-112.0566525463,"1","Comfort Food, Food, Bars, Sandwiches, Salad, Wine Bars, Vegetarian, Nightlife, American (New), Soup, Restaurants, Beer, Wine & Spirits, Italian"
"359",135186,"Fat Cats Gilbert","Gilbert","AZ","85234",33.3780196,-111.7413942,"1","Food, Mini Golf, Beer, Wine & Spirits, Active Life, Italian, American (Traditional), Cinema, Arcades, Bowling, Pizza, Restaurants, Arts & Entertainment"
"360",53397,"The Grape Wine & Spirits","Calgary","AB","T2N 3R7",51.0528552,-114.1085394,"1","Food, Beer, Wine & Spirits"
"361",3030,"Tal's Bakery & Deli","Parma","OH","44129",41.4063975,-81.7343615,"1","Caterers, Event Planning & Services, Delis, Beer, Wine & Spirits, Restaurants, Food"
"362",142438,"Total Wine & More","Goodyear","AZ","85395",33.461888,-112.3612773,"1","Beer, Wine & Spirits, Flowers & Gifts, Head Shops, Grocery, Food, Tobacco Shops, Shopping"
"363",72880,"Geraldine","Toronto","ON","M6R 1A6",43.6399626,-79.4403278,"0","Seafood, Restaurants, Cocktail Bars, Food, Bars, Nightlife, Beer, Wine & Spirits"
"364",35226,"Liquor Barn At 12Th Avenue","Calgary","AB","T2R 0J2",51.0417951728,-114.0806365411,"1","Beer, Wine & Spirits, Food"
"365",168398,"Sugar For My Honey","Toronto","ON","M8W 1N2",43.5955581,-79.5280602,"0","Coffee & Tea, Austrian, Nightlife, Modern European, Bars, Desserts, German, Breakfast & Brunch, Cafes, Restaurants, Beer, Wine & Spirits, Food"
"366",142755,"Public Social Lounge","Calgary","AB","T2T 0B8",51.0378221,-114.0892854,"0","Restaurants, Beer, Wine & Spirits, American (New), Lounges, Food, Canadian (New), Nightlife, Bars, Tapas/Small Plates"
"367",45802,"Bottles & Burgers By Double Helix","Las Vegas","NV","89145",36.1672912,-115.2869529,"0","Specialty Food, Restaurants, Beer, Wine & Spirits, Burgers, Food"
"368",184241,"Mecklenburg County ABC Store","Charlotte","NC","28227",35.1626960693,-80.7411136029,"1","Food, Beer, Wine & Spirits"
"369",133595,"Kaffe Live","Las Vegas","NV","89148",36.0952055,-115.2982296,"0","Beer, Wine & Spirits, Nightlife, Coffee & Tea, Cafes, Arts & Entertainment, Breakfast & Brunch, Food, Music Venues, American (New), Restaurants"
"370",44385,"Isabella's Kitchen","Scottsdale","AZ","85255",33.6759037,-111.8964923,"1","Bars, Nightlife, Beer, Wine & Spirits, Italian, Food, Restaurants"
"371",96494,"Les 3 Brasseurs","Laval","QC","H7T 3B3",45.5627846,-73.744605,"1","Nightlife, Breweries, Pubs, Food, Beer, Wine & Spirits, Bars"
"372",140588,"Peoria Pines Golf & Restaurant","Peoria","AZ","85345",33.5559505,-112.2887445,"1","Sporting Goods, Food, Bars, Beer, Wine & Spirits, Shopping, Nightlife, Venues & Event Spaces, American (Traditional), Golf, Sports Bars, Restaurants, Active Life, Event Planning & Services"
"373",114259,"Distill - A Local Bar","Las Vegas","NV","89141",36.0065454,-115.2064695,"1","Bars, Beer, Wine & Spirits, Nightlife, Food, Restaurants, American (New)"
"374",28600,"Thirsty Lion Gastropub & Grill","Scottsdale","AZ","85215",33.5033917707,-111.9270379984,"1","Nightlife, American (Traditional), Bars, Pubs, Beer, Wine & Spirits, Food, Diners, Gastropubs, Restaurants"
"375",83746,"The Whining Pig-Phoenix","Phoenix","AZ","85016",33.523744,-112.0467307,"1","Nightlife, Restaurants, Lounges, Dive Bars, Pubs, Wine Bars, Beer Bar, Bars, Sandwiches"
"376",125290,"Top of Binion's Steakhouse","Las Vegas","NV","89101",36.171235,-115.144061,"1","Steakhouses, Nightlife, Restaurants, Bars, Beer, Wine & Spirits, Wine Bars, Food, Seafood"
"377",50188,"LCBO","Toronto","ON","M2J 5A7",43.7779901,-79.3440914,"1","Food, Beer, Wine & Spirits"
"378",20540,"The Beach House Bar & Grill","Toronto","ON","M4L 1H7",43.669426,-79.302503,"1","Seafood, Restaurants, Breakfast & Brunch, Bars, Food, Nightlife, Beer, Wine & Spirits"
"379",31567,"Fine Wine & Good Spirits - Premium Collection","Sewickley","PA","15143",40.5397083737,-80.1795909635,"1","Food, Beer, Wine & Spirits"
"380",17539,"Coop's Bar & Grill","Peoria","AZ","85345",33.581162,-112.2414304,"1","Nightlife, Food, Restaurants, Beer, Wine & Spirits, American (Traditional), Bar Crawl, Dive Bars, Bars, Dance Clubs"
"381",22499,"The Charcoal Room","Las Vegas","NV","89102",36.1430055233,-115.174380141,"1","Seafood, Steakhouses, Beer, Wine & Spirits, Restaurants, Food"
"382",31576,"The Pizza Peel","Charlotte","NC","28211",35.1766688,-80.7978683,"1","Sandwiches, Tacos, Italian, Beer, Wine & Spirits, Mexican, Bars, Nightlife, Restaurants, Food, Pizza"
"383",30814,"The Blind Pig","Las Vegas","NV","89103",36.1073888656,-115.1815900952,"0","Beer, Wine & Spirits, Restaurants, Gastropubs, Sports Bars, American (Traditional), Cocktail Bars, Bars, Food, Lounges, Cafes, Nightlife, Breakfast & Brunch, Bakeries"
"384",185574,"Tony Frank's Tavern","Madison","WI","53711",43.0354313,-89.444136,"0","Bars, Nightlife, American (New), Restaurants, Pubs, Beer, Wine & Spirits, Food"
"385",174502,"Ski's Saloon","Sun Prairie","WI","53590",43.183498,-89.213809,"0","Pubs, Nightlife, Karaoke, Beer, Wine & Spirits, American (New), Food, Bars, Restaurants"
"386",95729,"Super Liquor","Las Vegas","NV","89169",36.1152177,-115.153111,"1","Beer, Wine & Spirits, Food"
"387",121546,"Road Dog Tours","Phoenix","AZ","85003",33.4566963,-112.0764198,"1","Wine Tours, Hotels & Travel, Beer, Wine & Spirits, Tours, Food, Breweries"
"388",67971,"Twisted Paddy","Mentor","OH","44060",41.6996005607,-81.3873566547,"0","Burgers, Food, Restaurants, Bars, Beer, Wine & Spirits, Nightlife, Pubs"
"389",125904,"Marché Bacchus","Las Vegas","NV","89128",36.2075389,-115.2681541,"1","Food, Nightlife, Wine Bars, Specialty Food, French, Beer, Wine & Spirits, Restaurants, Bars"
"390",169766,"Spirits of Cranston","Calgary","AB","T3M 1J7",50.8935215725,-113.9883225546,"1","Beer, Wine & Spirits, Food"
"391",5119,"Wedge & Bottle","Phoenix","AZ","85048",33.3044612,-111.9945753,"0","Delis, Cheese Shops, Restaurants, Food, Arts & Entertainment, Wineries, Specialty Food, Beer, Wine & Spirits"
"392",68222,"Shoeless Joe's","Toronto","ON","M5S 2T9",43.6654057,-79.4033777,"0","Chicken Wings, Restaurants, Bars, Shopping, Burgers, Lounges, Nightlife, Diners, Wigs, Food, Beer, Wine & Spirits, Sports Bars, American (Traditional)"
"393",154224,"Hooters","Phoenix","AZ","85021",33.580271,-112.119687,"1","Sports Bars, Food, Restaurants, Beer, Wine & Spirits, Nightlife, Chicken Wings, American (Traditional), Bars"
"394",99493,"Pounders Bar & Grill","Cleveland","OH","44130",41.3873549683,-81.763255549,"1","American (Traditional), Food, Sports Bars, Nightlife, Beer, Wine & Spirits, Chicken Wings, Bars, Restaurants"
"395",187840,"Vin Master","Charlotte","NC","28203",35.209251702,-80.8609794074,"1","Local Flavor, Nightlife, Shopping, Bars, Tasting Classes, Wine Bars, Food, Wine Tasting Classes, Beer, Wine & Spirits, Education"
"396",141829,"Nickleby's Roundbar","Willoughby","OH","44094",41.6415719,-81.4063641,"1","Beer, Wine & Spirits, American (Traditional), Dive Bars, Food, Restaurants, Nightlife, Bars"
"397",35645,"The Beaver Bar & Grill","Phoenix","AZ","85029",33.5935104,-112.0991314,"1","Food, American (Traditional), Restaurants, Beer, Wine & Spirits, Nightlife, Bars"
"398",116711,"The Butcher's Market","Charlotte","NC","28277",35.053494,-80.811756,"1","Grocery, Specialty Food, Meat Shops, Beer, Wine & Spirits, Food, Butcher"
"399",159772,"The House at Secret Garden","Phoenix","AZ","85042",33.377003,-112.027016,"0","American (New), Restaurants, Nightlife, Food, Bars, Beer, Wine & Spirits"
"400",95144,"Barmagic","Tempe","AZ","85283",33.3684114,-111.9343636,"1","Magicians, Bars, Bartenders, Beer, Wine & Spirits, Event Planning & Services, Food, Party & Event Planning, Nightlife, DJs"
"401",69729,"Om Asian Market and liquor store","Sun Prairie","WI","53590",43.1818076,-89.2284423,"1","Beer, Wine & Spirits, Food, Grocery"
"402",4158,"Crafthouse Stage & Grill","Pittsburgh","PA","15236",40.3497142533,-79.996658913,"1","Music Venues, Pubs, Restaurants, Beer Bar, American (Traditional), Bars, Nightlife, Arts & Entertainment"
"403",97059,"Black Canyon Brewing Supplies","Phoenix","AZ","85053",33.6409773,-112.1187776,"1","Brewing Supplies, Food, Beer, Wine & Spirits, Shopping"
"404",184387,"Wine Rack","Toronto","ON","M4Y 1B4",43.6622478,-79.383464,"1","Beer, Wine & Spirits, Food"
"405",32618,"Sauce Pizza and Wine","Phoenix","AZ","85012",33.5089351097,-112.0720015029,"1","Pizza, Beer, Wine & Spirits, Restaurants, Italian, Food"
"406",108621,"Gardens of Charleston","Lorain","OH","44052",41.4655052,-82.1753147,"1","Bed & Breakfast, Beer, Wine & Spirits, Venues & Event Spaces, Hotels & Travel, Event Planning & Services, Coffee & Tea, Bakeries, Food"
"407",182515,"The Suffolk Punch","Charlotte","NC","28211",35.152188,-80.83176,"1","Beer Bar, Wine Bars, Nightlife, Bars, Food, Coffee & Tea"
"408",155685,"Fine Wine & Good Spirits - Premium Collection","Monroeville","PA","15146",40.438601054,-79.7779156572,"1","Food, Beer, Wine & Spirits"
"409",162392,"Kitchen Bar","Scottsdale","AZ","85257",33.466931,-111.906094,"0","Food, Nightlife, Cocktail Bars, Bars, Beer, Wine & Spirits"
"410",47916,"Nino's Kitchen","Las Vegas","NV","89145",36.173013,-115.28606,"1","Sandwiches, American (New), Breakfast & Brunch, Restaurants, Food, Pizza, Beer, Wine & Spirits, Burgers"
"411",168367,"Grotto Cafe","Cave Creek","AZ","85331",33.8323562,-111.9408396,"1","Coffee & Tea, Restaurants, Cafes, Bagels, Food, Breakfast & Brunch, Beer, Wine & Spirits, American (New), Local Flavor"
"412",179128,"Arcadia Fine Wine","Scottsdale","AZ","85251",33.5052494,-111.9239881,"0","Venues & Event Spaces, Food, Beer, Wine & Spirits, Event Planning & Services"
"413",190833,"Crooked River BBQ + Beer","Mentor","OH","44060",41.6745459,-81.3131701,"0","Restaurants, Bars, Nightlife, Barbeque, Beer Bar"
"414",87105,"Vegas KTV & Fine Dining","Las Vegas","NV","89146",36.1273078,-115.2243612,"0","Nightlife, Food, Beer, Wine & Spirits, Karaoke"
"415",111134,"Down There Bar & Grill","Pittsburgh","PA","15236",40.3496432,-79.9957077,"1","Restaurants, Nightlife, American (Traditional), Bars, Beer Bar, Sports Bars"
"416",169236,"Sunny Jim's Tavern","Pittsburgh","PA","15202",40.5172794,-80.0938524,"1","Food, Beer, Wine & Spirits, American (Traditional), Restaurants, American (New), Nightlife, Mexican, Barbeque, Bars, Beer Bar"
"417",161358,"Milo's Cellar","Boulder City","NV","89005",35.9774210253,-114.8380921273,"1","Nightlife, Bars, Beer, Wine & Spirits, Food, American (New), Restaurants, Wine Bars"
"418",50310,"21 Restaurant & Lounge","Las Vegas","NV","89146",36.143541,-115.226308,"0","Food, Bars, Lounges, Karaoke, Asian Fusion, Local Flavor, Beer, Wine & Spirits, Korean, Nightlife, Restaurants"
"419",151179,"Costco Liquor","Calgary","AB","T2H 3A7",50.9889755886,-114.0466362194,"1","Food, Beer, Wine & Spirits"
"420",125530,"Piccadilly Beverage Shops","Champaign","IL","61820",40.1111456,-88.2441689,"0","Food, Beer, Wine & Spirits"
"421",17510,"Growlers To Go-Go","Madison","WI","53704",43.1029169,-89.3436432,"1","Beer, Wine & Spirits, Bars, Nightlife, Food"
"422",754,"Bottled & Tapped","Cornelius","NC","28031",35.4822328,-80.880552,"1","Beer, Wine & Spirits, Nightlife, Bars, Food"
"423",60402,"Skelly's Bar & Grill","Willoughby","OH","44094",41.6427125,-81.4108753,"0","Beer, Wine & Spirits, Food, Nightlife, Dive Bars, Bars"
"424",146283,"Tryst Cafe","Phoenix","AZ","85050",33.677854,-111.978579,"1","Gluten-Free, Restaurants, American (New), Coffee & Tea, Breakfast & Brunch, Health Markets, Specialty Food, Diners, Food, Cafes, Beer, Wine & Spirits"
"425",29881,"Sunrise Market","Phoenix","AZ","85013",33.5001235,-112.0820527,"1","Food, Beer, Wine & Spirits, Grocery"
"426",162989,"Bar at Times Square","Las Vegas","NV","89109",36.1023786,-115.1745465,"1","Food, Beer, Wine & Spirits, Nightlife, Sports Bars, Bars, Pubs"
"427",106410,"George Pappas Liberty Lanes","Gastonia","NC","28052",35.231622,-81.196889,"1","Bowling, Beer, Wine & Spirits, Arcades, Arts & Entertainment, Active Life, Food"
"428",93502,"Phoenix Wine","Scottsdale","AZ","85254",33.5837804,-111.9280058,"1","Beer, Wine & Spirits, Food"
"429",26966,"Thirsty Lion Gastropub & Grill","Gilbert","AZ","85297",33.3089841,-111.7425551,"1","Bars, Food, Beer, Wine & Spirits, Pubs, American (Traditional), Restaurants, Beer Bar, Nightlife, Gastropubs"
"430",111964,"Paddy's Pour House","Cornelius","NC","28031",35.488724,-80.87493,"0","Beer, Wine & Spirits, Food"
"431",123540,"Duckworth's Grill & Taphouse","Charlotte","NC","28202",35.22924,-80.83971,"1","Bars, Nightlife, American (Traditional), Sports Bars, Beer, Wine & Spirits, Food, Gastropubs, Chicken Wings, Cocktail Bars, Cheesesteaks, Restaurants"
"432",60990,"Pt's Gold","Las Vegas","NV","89178",36.0375815,-115.297761,"1","Nightlife, Breakfast & Brunch, Pubs, Sports Bars, Pizza, Beer Bar, Bars, Restaurants, American (Traditional)"
"433",17526,"Pita Bistro","Phoenix","AZ","85040",33.4045844,-111.9791782,"1","Bars, Nightlife, Food, Juice Bars & Smoothies, Salad, Beer, Wine & Spirits, Mediterranean, Wine Bars, Middle Eastern, Restaurants"
"434",182329,"Solo Liquor Store","Calgary","AB","T2T 3T9",51.031236,-114.0952339,"1","Beer, Wine & Spirits, Food"
"435",135739,"Downtown Liquor","Cleveland","OH","44178",41.5000733,-81.6987266,"1","Beer, Wine & Spirits, Food"
"436",157833,"Brix Wine","Carefree","AZ","85377",33.827361,-111.924222,"1","Beer, Wine & Spirits, Bars, Nightlife, Food, Wine Bars"
"437",104917,"Cold Beers & Cheeseburgers - Old Town","Scottsdale","AZ","85251",33.4975546,-111.9264977,"1","Food, Bars, Fast Food, Sports Bars, Restaurants, American (Traditional), Diners, Beer, Wine & Spirits, Nightlife, Burgers"
"438",107872,"583 Bistro","Bay Village","OH","44140",41.47915,-81.92073,"0","Food, Bars, Nightlife, Cocktail Bars, Sandwiches, Desserts, American (New), Soup, Beer, Wine & Spirits, Diners, Restaurants"
"439",177922,"Meatballz","Scottsdale","AZ","85260",33.5838048,-111.9234213,"1","Comfort Food, Restaurants, Bars, Pubs, American (New), Nightlife, Sports Bars, Beer Bar"
"440",112162,"CVS Pharmacy","Las Vegas","NV","89109",36.1134,-115.172,"1","Cosmetics & Beauty Supply, Health & Medical, Beauty & Spas, Pharmacy, Beer, Wine & Spirits, Drugstores, Food, Shopping"
"441",99668,"Pub Bishop & Bagg","Montréal","QC","H2T 2K8",45.5250592935,-73.5994327883,"1","Nightlife, Bars, Breakfast & Brunch, Beer, Wine & Spirits, Comfort Food, British, Food, Restaurants, Pubs, Cocktail Bars, American (Traditional)"
"442",53622,"Fuji Hibachi & Teriyaki Grill","Charlotte","NC","28202",35.22532,-80.842489,"1","Beer, Wine & Spirits, Japanese, Food, Bubble Tea, Restaurants"
"443",133405,"Stadt Cafe","Toronto","ON","M6P 1Z4",43.6653359,-79.4695715,"1","Restaurants, Food, International, Desserts, German, Tapas/Small Plates, Gluten-Free, Bars, Nightlife, Beer Bar, Breakfast & Brunch, Cafes"
"444",176680,"Double L","Pittsburgh","PA","15209",40.4794344,-79.9723269,"1","Beer Bar, Nightlife, Bars, Wine Bars"
"445",145922,"LCBO","Toronto","ON","M6C 1C6",43.6802425,-79.4339584,"1","Beer, Wine & Spirits, Shopping, Food"
"446",45072,"Talon Club","Las Vegas","NV","89109",36.1097544,-115.1738726,"1","Food, Lounges, Cocktail Bars, Beer, Wine & Spirits, Nightlife, Bars, Champagne Bars"
"447",78593,"Draught","Charlotte","NC","28202",35.2284474,-80.8547776,"1","Beer, Wine & Spirits, Sports Bars, Food, Nightlife, Breakfast & Brunch, Bars, Gastropubs, Restaurants, American (New)"
"448",29896,"Strongsville Deli Stop","Strongsville","OH","44149",41.2903472699,-81.8576607158,"1","Convenience Stores, Beer, Wine & Spirits, Restaurants, Food, Delis"
"449",2427,"Union Pig & Chicken","Pittsburgh","PA","15206",40.4629577488,-79.9240576056,"0","Food, Chicken Wings, Beer, Wine & Spirits, Bars, Barbeque, Restaurants, Nightlife, Local Flavor"
"450",183262,"Pop the Top Craft Beer Shop","Charlotte","NC","28203",35.2129204,-80.8595277,"1","Bars, Nightlife, Food, Beer, Wine & Spirits, Pubs, Beer Bar, Lounges"
"451",24901,"Genna's Lounge","Madison","WI","53703",43.0727149,-89.3844131,"1","Restaurants, Bars, Arts & Entertainment, Lounges, Nightlife, American (New), Wineries, Beer, Wine & Spirits, Food"
"452",47310,"Cheffini's Hot Dogs","Las Vegas","NV","89101",36.1677987235,-115.1382032304,"1","Hot Dogs, Beer, Wine & Spirits, Restaurants, Coffee & Tea, Food"
"453",162529,"Top's Liquor","Tempe","AZ","85281",33.4214529,-111.9448434,"1","Beer, Wine & Spirits, Food"
"454",55208,"Cost Plus World Market","Las Vegas","NV","89108",36.1997290689,-115.2435272733,"1","Kitchen & Bath, Furniture Stores, Home & Garden, Food, Home Decor, Specialty Food, Shopping, Beer, Wine & Spirits"
"455",146489,"LCBO","Pickering","ON","L1V 4H7",43.8455045674,-79.0726259043,"1","Food, Beer, Wine & Spirits, American (New), Restaurants"
"456",180175,"Fountain","Moreland Hills","OH","44022",41.4547126,-81.4437063,"0","Cafes, Tapas/Small Plates, Coffee & Tea, Breakfast & Brunch, Restaurants, Beer, Wine & Spirits, Food"
"457",76518,"The Speakeasy Alehouse","Concord","NC","28025",35.4105459,-80.581798,"0","Nightlife, Pubs, Beer, Wine & Spirits, American (New), Restaurants, Bars, Food"
"458",56191,"Local Craft Kitchen + Bar","Pittsburgh","PA","15231",40.495999873,-80.255279839,"1","Bars, Beer Bar, Restaurants, Nightlife"
"459",96183,"Gallucci's Italian Foods","Cleveland","OH","44103",41.503759,-81.644042,"1","Event Planning & Services, Ethnic Food, Caterers, Food, Grocery, Beer, Wine & Spirits, Specialty Food"
"460",189039,"The Peppermill Pub and Grill","Brecksville","OH","44141",41.323585,-81.6285287,"0","Pubs, Restaurants, American (Traditional), Beer, Wine & Spirits, Food, Nightlife, Bars"
"461",123634,"Brasserie Harricana","Montréal","QC","H2R 2W8",45.5337701,-73.6193709,"1","Breakfast & Brunch, Food, Comfort Food, Bars, Brasseries, Beer, Wine & Spirits, Restaurants, Pubs, Nightlife"
"462",53066,"Trapp Haus BBQ","Phoenix","AZ","85004",33.4585501,-112.0670434,"1","Food, Caterers, Bars, Nightlife, Restaurants, Barbeque, Event Planning & Services, Beer Bar, Food Trucks"
"463",25455,"Lucie's Lounge","Las Vegas","NV","89104",36.1581178988,-115.0897555348,"0","Bars, Food, Pizza, Lounges, Dive Bars, Restaurants, Beer, Wine & Spirits, Nightlife, Karaoke"
"464",73565,"Aldi","Matthews","NC","28105",35.1209365,-80.7289775,"1","Beer, Wine & Spirits, Food, Grocery"
"465",58426,"Pita Island","Mesa","AZ","85205",33.4346351975,-111.7196082921,"0","Greek, Pizza, Falafel, Restaurants, Breakfast & Brunch, Beer, Wine & Spirits, Mediterranean, Food"
"466",56236,"Desert Eagle Brewing Company","Mesa","AZ","85215",33.4629333492,-111.7195365205,"1","Food, Bars, Nightlife, Breweries, Restaurants, Beer, Wine & Spirits, Pubs, Barbeque, Burgers"
"467",27901,"DaiLo","Toronto","ON","M6G 1A5",43.655849,-79.4098724,"1","Chinese, Beer, Wine & Spirits, Restaurants, Asian Fusion, Food"
"468",58676,"Lilly Handmade Chocolates","Cleveland","OH","44109",41.4294953,-81.6967181,"1","Food, Chocolatiers & Shops, Beer, Wine & Spirits, Specialty Food"
"469",7748,"The Grover Pub","Toronto","ON","M4E 1R4",43.6792427,-79.297302,"1","Food, Bars, Pubs, Nightlife, Beer, Wine & Spirits, Restaurants, Salad, Comfort Food, Pizza"
"470",134176,"Shore Grill and Grotto","Mississauga","ON","L5G 1C9",43.5525183,-79.5843332,"1","Arts & Entertainment, American (New), Beer, Wine & Spirits, Jazz & Blues, Canadian (New), Restaurants, Food, Nightlife"
"471",111510,"Adega","Cleveland","OH","44115",41.49989,-81.685944,"1","Hotels, Event Planning & Services, Mediterranean, Nightlife, Bars, Hotels & Travel, Food, Lounges, Beer, Wine & Spirits, Greek, Breakfast & Brunch, Restaurants"
"472",131191,"The Lodge: A Sportsman's Grill","Charlotte","NC","28226",35.106407,-80.8077349,"1","Bars, Comfort Food, Nightlife, Food, Gluten-Free, Beer, Wine & Spirits, American (Traditional), Burgers, Sports Bars, Restaurants"
"473",181589,"Valley Ridge Liquor Store","Calgary","AB","T3B",51.0916611,-114.2480769,"1","Beer, Wine & Spirits, Food"
"474",64674,"Prairie Fire","Madison","WI","53715",43.0717653,-89.4081342,"1","Beer Bar, Nightlife, Bars, Coffee & Tea, Food, Wine Bars, Delis, Restaurants"
"475",92564,"Vine Expressions","Gilbert","AZ","85296",33.330835,-111.792282,"0","Nightlife, Beer, Wine & Spirits, Bars, Food, Wine Bars"
"476",60679,"Little City Grill","Kent","OH","44240",41.1598873,-81.359595,"1","Soup, Beer, Wine & Spirits, American (Traditional), Restaurants, Food"
"477",34902,"The Office Pub","Toronto","ON","M5V 2E2",43.6482362,-79.3901892,"1","Beer, Wine & Spirits, Restaurants, Food, Bars, Karaoke, Nightlife, Sports Bars, Gastropubs, Pubs, American (Traditional)"
"478",134598,"Beer Nutz Bottle Shop","Pittsburgh","PA","15238",40.48998,-79.873971,"0","Nightlife, Bars, American (Traditional), Restaurants, Food, Beer, Wine & Spirits"
"479",46798,"Dave's Liquor Store","Calgary","AB","T2M 0L5",51.0671513,-114.0977613,"1","Beer, Wine & Spirits, Food"
"480",29232,"Mellinger Beer Distributor","Pittsburgh","PA","15213",40.4368829,-79.954858,"1","Beer, Wine & Spirits, Food"
"481",185402,"Warren Village Beverage & Liquor","Cleveland","OH","44111",41.4630293,-81.8027941,"1","Food, Beer, Wine & Spirits"
"482",87168,"Damons Grill","Cleveland","OH","44130",41.3711281736,-81.8258910262,"0","Nightlife, Bars, Beer, Wine & Spirits, Food, Barbeque, Sports Bars, Restaurants, American (Traditional)"
"483",45838,"Church Street Espresso","Toronto","ON","M4Y 2E4",43.6682234,-79.3817049,"1","Desserts, Coffee & Tea, Food, Sandwiches, Beer, Wine & Spirits, Tapas/Small Plates, Ice Cream & Frozen Yogurt, Restaurants"
"484",191871,"Via Brasil Steakhouse on South Fort Apache and Charleston","Las Vegas","NV","89117",36.1568983622,-115.2919117492,"1","Diners, Desserts, Steakhouses, Food, Restaurants, Seafood, Buffets, Beer, Wine & Spirits, Brazilian, Portuguese"
"485",98292,"Taquitos and Beer","Phoenix","AZ","85043",33.4235807,-112.2257752,"0","Mexican, Food, Bars, Beer, Wine & Spirits, Restaurants, Nightlife"
"486",149928,"Draw 10 Bar & Grill","Phoenix","AZ","85034",33.4461356,-111.9638818,"0","Nightlife, Restaurants, Burgers, American (Traditional), Food, Beer, Wine & Spirits, Bakeries, Bars, Sports Bars"
"487",4572,"Chez Bouffe","Montréal","QC","H1V 1Y1",45.550872,-73.533842,"1","Canadian (New), Beer, Wine & Spirits, Food, French, Buffets, Restaurants"
"488",150600,"High & Rye","Phoenix","AZ","85054",33.6765403,-111.9663621,"1","Restaurants, Food, Comfort Food, Nightlife, Beer, Wine & Spirits, Bars, Southern"
"489",132574,"Born And Raised","Henderson","NV","89052",36.0064518043,-115.1115691521,"1","Chicken Wings, Bars, American (Traditional), American (New), Lounges, Beer, Wine & Spirits, Restaurants, Sports Bars, Food, Nightlife"
"490",171194,"West Liberty Beer","Pittsburgh","PA","15226",40.4109929629,-80.0125730908,"1","Food, Beer, Wine & Spirits"
"491",30810,"McNeilly Six Pack & Beer shop","Pittsburgh","PA","15226",40.3829977,-80.015417,"1","Beer, Wine & Spirits, Food"
"492",13005,"Sweet Tooth Tea House","Toronto","ON","M6N 1H8",43.674768,-79.4584266,"0","Restaurants, Food, Beer, Wine & Spirits, Portuguese, Coffee & Tea"
"493",68380,"Delicious by Aldu Dominican Cuisine","Gilbert","AZ","85296",33.3346675,-111.7844293,"1","Burgers, Beer, Wine & Spirits, Sandwiches, Latin American, Nightlife, Salad, Breakfast & Brunch, Dominican, Soup, Restaurants, Caribbean, Food, Bars"
"494",145989,"World Market","North Olmsted","OH","44070",41.4164564,-81.91296,"1","Beer, Wine & Spirits, Home & Garden, Home Decor, Food, Shopping, Furniture Stores"
"495",121765,"Mymy Chicken","Toronto","ON","M2N",43.7642799,-79.4109193,"1","Bars, Korean, Nightlife, Beer Bar, Restaurants, Chicken Wings"
"496",182849,"Saq","Montréal","QC","H4A 1E2",45.4755563,-73.6231284,"1","Beer, Wine & Spirits, Food"
"497",131378,"The Breakwall Food & Spirits","Avon Lake","OH","44012",41.507771,-81.987822,"1","Restaurants, Lounges, Food, Sports Bars, Nightlife, Beer, Wine & Spirits, Bars"
"498",36042,"La Catrina","Brampton","ON","L6Y 1L9",43.685232,-79.760379,"0","Latin American, Mexican, Beer, Wine & Spirits, Restaurants, Food"
"499",26289,"Craft City","Charlotte","NC","28204",35.2168687,-80.8385574,"1","Nightlife, Cocktail Bars, Bars, Latin American, Beer Bar, Social Clubs, Arts & Entertainment, Restaurants, Sports Bars"
"500",48498,"Charlotte Brewery Tours","Charlotte","NC","",35.2270869,-80.8431267,"1","Food, Beer Tours, Beer, Wine & Spirits, Tours, Hotels & Travel"
"501",162103,"Liquor Depot At Brentwood","Calgary","AB","T2L 1K8",51.0861476908,-114.1273586277,"1","Food, Beer, Wine & Spirits"
"502",177804,"Compare Foods Supermarket","Charlotte","NC","28217",35.1355399,-80.8782672,"1","Restaurants, Specialty Food, Sandwiches, Delis, Beer, Wine & Spirits, Food, Health Markets, Grocery"
"503",165921,"The Wine Reserve of Bainbridge","Chagrin Falls","OH","44023",41.4125336,-81.3370837,"1","Beer, Wine & Spirits, Food"
"504",53282,"Macchiatos Coffee & Wine Bar","DeForest","WI","53532",43.2416769,-89.3437155,"0","Food, Coffee & Tea, Cafes, Bars, Wine Bars, Restaurants, Nightlife, Beer, Wine & Spirits, Tapas/Small Plates"
"505",189233,"Bellevue Beer","Pittsburgh","PA","15202",40.4909046,-80.0609334,"1","Food, Beer, Wine & Spirits"
"506",184371,"Highland Corner Grill","Madison","WI","53726",43.0723117,-89.4278898,"1","Restaurants, Beer, Wine & Spirits, American (Traditional), Burgers, Food, Pizza, American (New)"
"507",110578,"Capri Market & Deli","Phoenix","AZ","85018",33.5118513842,-111.9949980453,"1","Restaurants, Beer, Wine & Spirits, Sandwiches, Grocery, Meat Shops, Delis, Convenience Stores, Food, Specialty Food"
"508",13097,"Abe's of Scottsdale Deli Restaurant","Scottsdale","AZ","85253",33.577653,-111.927532,"0","Delis, Sports Bars, Bars, Restaurants, Nightlife, Beer, Wine & Spirits, Food"
"509",62828,"Warehouse Beverage","Cleveland","OH","44121",41.520053,-81.522828,"1","Beer, Wine & Spirits, Food"
"510",156047,"Aldi","Charlotte","NC","28217",35.1643817,-80.8786819,"1","Food, Beer, Wine & Spirits, Grocery"
"511",122692,"LCBO","Toronto","ON","M5V 1K1",43.64529,-79.394643,"1","Beer, Wine & Spirits, Food"
"512",21120,"Sambino's Pizza","Elyria","OH","44035",41.3747225,-82.0874093,"1","Restaurants, Beer, Wine & Spirits, Caterers, Event Planning & Services, Desserts, Food Delivery Services, Pizza, Salad, Chicken Wings, Food"
"513",168589,"Matty G's Steakburgers","Mesa","AZ","85203",33.4375232,-111.7886214,"1","Burgers, Food, Beer, Wine & Spirits, Restaurants, American (Traditional)"
"514",187862,"Sun Devil Liquors","Mesa","AZ","85201",33.42028,-111.8396342,"1","Nightlife, Bars, Food, Beer, Wine & Spirits, Wine Bars"
"515",186466,"Lee's Discount Liquor","Las Vegas","NV","89147",36.1144728691,-115.2951361858,"1","Beer, Wine & Spirits, Food"
"516",137861,"Symposium Cafe Restaurant & Lounge","North York","ON","M2N 5P8",43.7712472,-79.4131377,"1","American (Traditional), Breakfast & Brunch, Food, Nightlife, Cafes, Lounges, Bars, Desserts, Coffee & Tea, Beer, Wine & Spirits, Restaurants"
"517",14712,"Dubina Brewing","Glendale","AZ","85308",33.6395301819,-112.2023696899,"1","Brewpubs, Czech, Breweries, Beer Bar, Food, Nightlife, Restaurants, Pubs, Bars"
"518",112052,"CraftHaus Brewery","Henderson","NV","89011",36.0547206,-115.0162932,"1","Lounges, Gastropubs, Food, Beer Bar, Beer, Wine & Spirits, Breweries, Pubs, Bars, Nightlife, Restaurants"
"519",100782,"Lot St.","Toronto","ON","M6J 1E6",43.6469673,-79.4050707,"0","Tapas Bars, Gastropubs, Food, Beer, Wine & Spirits, Tapas/Small Plates, Canadian (New), Restaurants"
"520",124641,"LCBO","Aurora","ON","L4G 0H5",44.0132010522,-79.4165456911,"1","Beer, Wine & Spirits, Food"
"521",98805,"Ohya Sushi, Korean Grill & Bar","Phoenix","AZ","85054",33.656952686,-111.9323154032,"1","Restaurants, Nightlife, Bars, Sushi Bars, Beer Bar, Korean, Japanese"
"522",170304,"Corkscrew Saloon","Medina","OH","44256",41.1395078,-81.8789928,"1","Beer, Wine & Spirits, Steakhouses, Sandwiches, Gluten-Free, Seafood, Food, Restaurants"
"523",58890,"Sage Bar","Chandler","AZ","85226",33.3048103,-111.9270642,"0","Lounges, Beer, Wine & Spirits, Vietnamese, Bars, Food, American (New), Restaurants, Sports Bars, Nightlife"
"524",165153,"Alambika","Montréal","QC","H2V 1L4",45.5304888,-73.6093814,"1","Home & Garden, Cocktail Bars, Beer, Wine & Spirits, Wine Tasting Classes, Kitchen & Bath, Bars, Food, Nightlife, Shopping, Education, Tasting Classes"
"525",167542,"Colonial Wine and Beverage","Chesterland","OH","44026",41.5212188,-81.3429286,"1","Beer, Wine & Spirits, Food"
"526",119235,"Cafe de Cebu","Las Vegas","NV","89146",36.1278425,-115.225183,"0","Beer, Wine & Spirits, Food, Nightlife, Karaoke, Hawaiian, Restaurants, Seafood, Filipino"
"527",28837,"Champagne Life Gift Baskets","Henderson","NV","89052",36.0661737,-115.1722393,"1","Nightlife, Shopping, Gift Shops, Flowers & Gifts, Local Services, Bars, Food, Champagne Bars, Beer, Wine & Spirits, Event Planning & Services"
"528",11119,"Sérénité Restaurant","Medina","OH","44256",41.1389406,-81.8723983,"1","Brasseries, Seafood, Restaurants, Bars, Nightlife, Cocktail Bars, Steakhouses, Beer, Wine & Spirits, Wine Bars, Food, French"
"529",44726,"Tilted Kilt Pub & Eatery","Madison","WI","53774",43.059441,-89.501962,"0","Salad, Nightlife, Fast Food, Pubs, Food, Beer, Wine & Spirits, Bars, American (New), Restaurants"
"530",64524,"McGrogans Tap Room","Canonsburg","WA","15317",40.2593846092,-80.1855987037,"1","Nightlife, Restaurants, Food, Bars, Pizza, Beer, Wine & Spirits"
"531",41661,"Grapeables Fine Wines","Fountain Hills","AZ","85268",33.6013951,-111.7154171,"1","Beer, Wine & Spirits, Bars, Lounges, Food, Nightlife, Wine Bars"
"532",22257,"Tip Top Daily Market","Charlotte","NC","28205",35.2369496,-80.8007276,"1","Vinyl Records, Books, Mags, Music & Video, Specialty Food, Food, Shopping, Beer, Wine & Spirits"
"533",40417,"Day & Night Cafe Lounge","Toronto","ON","M6K 3S2",43.6392577896,-79.4144363787,"0","Beer, Wine & Spirits, Food, Restaurants, Cafes"
"534",182404,"Beer Express","Pittsburgh","PA","15205",40.4408909,-80.0929639,"1","Beer, Wine & Spirits, Food"
"535",105523,"Liquor Land","Las Vegas","NV","89103",36.0989366,-115.2260378,"1","Food, Beer, Wine & Spirits"
"536",69393,"Lot 17","Pittsburgh","PA","15224",40.4625722,-79.9501679,"1","Restaurants, Nightlife, American (Traditional), Sandwiches, Bars, Tapas/Small Plates, Beer Bar"
"537",185641,"Highfield Liquor Store","Calgary","AB","T2G 5M2",51.0108467,-114.0361238,"1","Food, Beer, Wine & Spirits"
"538",45283,"Roppongi Sushi & Bar","Huntersville","NC","28078",35.4092601518,-80.8601726798,"0","Japanese, Beer, Wine & Spirits, Food, Restaurants, Bars, Nightlife, Sushi Bars"
"539",34703,"Shoeless Joe's Sports Grill - Meadowvale","Mississauga","ON","L5N 2R5",43.58242,-79.7603668,"1","Restaurants, Sports Bars, Bars, Nightlife, Chicken Wings, Wigs, Beer Bar, Shopping, Burgers"
"540",26815,"Putter's Pub and Event Center","Medina","OH","44256",41.1352644106,-81.6929146337,"1","Pubs, Beer, Wine & Spirits, Bars, Food, Golf, Restaurants, Active Life, Nightlife, Venues & Event Spaces, Event Planning & Services, American (Traditional)"
"541",95501,"Cut Throat Barbershoppe","Scottsdale","AZ","85251",33.4997268839,-111.9238852052,"1","Beauty & Spas, Barbers, Nightlife, Men's Hair Salons, Bars, Hair Salons, Beer Bar"
"542",140767,"Highside","Phoenix","AZ","85020",33.5731009,-112.0649397,"1","Arts & Entertainment, Lounges, Event Planning & Services, Wine Bars, Nightlife, Beer Bar, Venues & Event Spaces, Music Venues, Bars, Cocktail Bars"
"543",85969,"The Whining Pig Desert Ridge","Phoenix","AZ","85054",33.6742826,-111.97447,"1","Beer Bar, Wine Bars, Bars, Pubs, Nightlife"
"544",20625,"ABC Stores","Las Vegas","NV","89109",36.127502,-115.172768,"1","Cosmetics & Beauty Supply, Souvenir Shops, Food, Jewelry, Shopping, Beauty & Spas, Fashion, Department Stores, Convenience Stores, Beer, Wine & Spirits"
"545",74910,"Shoeless Joe's Sports Grill - Aurora","Aurora","ON","L4G 3W3",44.0090294,-79.4722342,"1","Pizza, Bars, Nightlife, Sports Bars, Beer Bar, Wigs, Burgers, Shopping, Restaurants, Chicken Wings, Canadian (New)"
"546",31902,"The Winery At Wilcox","Pittsburgh","PA","15205",40.4385746392,-80.1464086398,"1","Nightlife, Arts & Entertainment, Wineries, Beer, Wine & Spirits, Food, Wine Bars, Bars"
"547",104768,"Salud Beer Shop","Charlotte","NC","28205",35.2477994,-80.8040482,"1","Food, Beer Bar, Pizza, Restaurants, Beer, Wine & Spirits, Wine Bars, Bars, Nightlife"
"548",855,"FlipSide","Chagrin Falls","OH","44022",41.4308030774,-81.3910149708,"1","Burgers, Beer Bar, Cocktail Bars, Nightlife, Juice Bars & Smoothies, Bars, Food, Restaurants, American (New), Sandwiches"
"549",63104,"Lafitte's","Phoenix","AZ","85023",33.6242346,-112.1141805,"0","Beer, Wine & Spirits, Food, Restaurants, Cajun/Creole"
"550",180068,"SAQ","Verdun","QC","H4G 1V9",45.4616464,-73.5673964,"1","Food, Beer, Wine & Spirits"
"551",176015,"Out and About","Henderson","NV","89011",36.1036262,-114.939821,"0","Couriers & Delivery Services, Food Delivery Services, Tours, Hotels & Travel, Beer, Wine & Spirits, Local Services, Food, Public Transportation, Bus Tours, Event Planning & Services, Transportation, Walking Tours, Party & Event Planning, Limos"
"552",39718,"Valley Cheese & Wine","Henderson","NV","89012",36.0173877,-115.0557219,"1","Food, Beer, Wine & Spirits, Specialty Food, Cheese Shops"
"553",29103,"Arcadia Premium","Phoenix","AZ","85018",33.4803234,-111.9603069,"1","Cheese Shops, Food, Beer, Wine & Spirits, Specialty Food"
"554",85389,"The Brass Tap","Rock Hill","SC","29730",34.982919,-80.972714,"1","Bars, Food, Beer Bar, Beer, Wine & Spirits, Nightlife, American (Traditional), Restaurants"
"555",59236,"Basie's","Madison","WI","53719",43.0551586,-89.4961026,"0","American (New), Nightlife, Bars, Beer, Wine & Spirits, Restaurants, Food"
"556",3090,"Whole Foods Market","Upper Saint Clair","PA","15241",40.346352,-80.058038,"1","Health Markets, Bars, Organic Stores, Beer, Wine & Spirits, Food, Nightlife, Bakeries, Specialty Food, Restaurants, Grocery, Cafes, Pubs"
"557",187888,"DaiKo Indian Kitchen & Nepali Street Food","Toronto","ON","M6R 1A6",43.6399626,-79.4403278,"1","Indian, Restaurants, Beer, Wine & Spirits, Arts & Entertainment, Plumbing, Canadian (New), Asian Fusion, Himalayan/Nepalese, Bars, Home Services, Jazz & Blues, Comfort Food, Dive Bars, Food, Nightlife"
"558",35474,"LCBO Markham","Markham","ON","L3R 5M6",43.8565,-79.323008,"1","Food, Beer, Wine & Spirits"
"559",126665,"Salt & Lime Modern Mexican Grill","Scottsdale","AZ","85260",33.581606,-111.878578,"1","Food, Restaurants, Salad, Mexican, Beer, Wine & Spirits"
"560",41763,"Licali's Market & Spirits","Monona","WI","53716",43.0490027,-89.3255861,"1","Beer, Wine & Spirits, Food"
"561",31990,"Vine Tavern & Eatery","Tempe","AZ","85284",33.348714,-111.9266829,"1","Restaurants, Bars, Food, Beer, Wine & Spirits, Nightlife, American (Traditional), Irish, Gastropubs"
"562",48164,"South Point Gift Shop And Liquor Store","Las Vegas","NV","89123",36.0114211,-115.1752012,"1","Beer, Wine & Spirits, Convenience Stores, Food"
"563",13066,"Blue Ox Central","Las Vegas","NV","89119",36.0800571269,-115.1182481446,"1","Beer, Wine & Spirits, Bars, Nightlife, Sports Bars, Food, American (New), Restaurants, Breakfast & Brunch"
"564",3169,"Ako Drive In Liquors","Glendale","AZ","85301",33.5387213112,-112.187839684,"1","Food, Beer, Wine & Spirits"
"565",186832,"The Wine Room","Avon","OH","44011",41.4683699,-82.0155941,"1","Food, Nightlife, Wine Bars, Beer, Wine & Spirits, Bars"
"566",67482,"LCBO","Toronto","ON","M9N 3W1",43.7126123247,-79.5310483162,"1","Beer, Wine & Spirits, Personal Shopping, Food, Shopping"
"567",168427,"Cork & Bottle","Phoenix","AZ","85008",33.4653592,-111.992794,"1","Food, Beer, Wine & Spirits"
"568",147127,"Applebee's Grill + Bar","Phoenix","AZ","85053",33.6407934,-112.1178845,"0","Restaurants, Sports Bars, Chicken Wings, Burgers, Bars, American (Traditional), Steakhouses, Beer, Wine & Spirits, Nightlife, Food"
"569",98578,"Lake Wilcox Brewing","Vaughan","ON","L4K 0H4",43.8201223,-79.5381049,"1","Hotels & Travel, Event Planning & Services, Venues & Event Spaces, Food, Beer Tours, Tours, Breweries"
"570",162495,"Black Chicken Wine Cellar","Matthews","NC","28105",35.1167363,-80.7192328,"1","Beer, Wine & Spirits, Food, Bars, Local Flavor, Arts & Entertainment, Nightlife, Wine Bars, Wineries"
"571",149996,"LCBO - St. Lawrence Market","Toronto","ON","M5E 1B8",43.6488004157,-79.3723368645,"1","Food, Beer, Wine & Spirits"
"572",36346,"Jerry's Liquors","Tempe","AZ","85281",33.4153707423,-111.9259787478,"1","Food, Beer, Wine & Spirits"
"573",127355,"St Louis Bar & Grill","Vaughan","ON","L4H 0S1",43.785639,-79.6252078,"1","Burgers, Poutineries, American (Traditional), Bars, Beer Bar, Sports Bars, Restaurants, Chicken Wings, Nightlife"
"574",111597,"VBGB Beer Hall and Garden","Charlotte","NC","28206",35.240667,-80.845087,"1","Pets, American (New), Beer, Wine & Spirits, German, Food, Beer Gardens, Bars, Nightlife, Pretzels, Arts & Entertainment, Music Venues, Restaurants"
"575",92775,"Oil and Vine - Food and Drink for the Heart","Las Vegas","NV","89183",36.0092182,-115.1183926,"1","Shopping, Food, Specialty Food, Gift Shops, Beauty & Spas, Flowers & Gifts, Herbs & Spices, Beer, Wine & Spirits, Skin Care"
"576",159901,"Copper Kettle Brewing Company","Pittsburgh","PA","15207",40.4262158,-79.9404903,"1","Breweries, Beer, Wine & Spirits, Food"
"577",3978,"Hermano's Liquor & Market","Phoenix","AZ","85007",33.458287,-112.0902764,"1","Beer, Wine & Spirits, Food, Convenience Stores"
"578",82390,"Wine Kitz North","Calgary","AB","T3A 2L9",51.0935266,-114.1540066,"1","Kitchen & Bath, Shopping, Beer, Wine & Spirits, Home & Garden, Food, Brewing Supplies, Hobby Shops"
"579",58638,"Parched Eagle Taproom","Madison","WI","53703",43.0897613942,-89.3631134843,"1","Pubs, Nightlife, Beer Bar, Bars"
"580",86260,"Liquor Library LV","Las Vegas","NV","89119",36.0848971,-115.1486363,"1","Shopping, Beer, Wine & Spirits, Food"
"581",99932,"16th Street Sports Bar & Grill","Phoenix","AZ","85016",33.5318417,-112.0479816,"0","Nightlife, Sports Bars, American (Traditional), Bars, Food, Beer, Wine & Spirits, Burgers, Restaurants"
"582",87391,"LCBO","Toronto","ON","M4W 3G7",43.670856433,-79.3852734562,"1","Beer, Wine & Spirits, Shopping, Food"
"583",145518,"Oasis","Cleveland","OH","44115",41.4882232612,-81.6661321454,"1","American (Traditional), Beer, Wine & Spirits, Sports Bars, Food, Nightlife, Bars, Restaurants"
"584",152144,"Fitzgerald's","Charlotte","NC","28202",35.2268736,-80.8407635,"1","Irish, Irish Pub, Beer, Wine & Spirits, Sports Bars, Food, Bars, Nightlife, Pubs, Restaurants"
"585",19880,"T's Liquor & Convenient Mart","Tempe","AZ","85281",33.4212313,-111.9171766,"1","Food, Beer, Wine & Spirits"
"586",59823,"Noda Company Store","Charlotte","NC","28205",35.2470061423,-80.8045076865,"1","Arts & Entertainment, Art Galleries, Shopping, Wine Bars, Nightlife, Bars, Beer Bar"
"587",54839,"Back Burner Bar & Grill","Coraopolis","PA","15108",40.5193303,-80.1666945,"1","Restaurants, Beer Bar, Nightlife, Bars, American (Traditional)"
"588",48922,"Cafe Heidelberg German Market & Restaurant","Las Vegas","NV","89104",36.1440191,-115.1458817,"0","German, Restaurants, Beer, Wine & Spirits, Food, Delis"
"589",157666,"Chuchote Thai Bistro & Desserts","Las Vegas","NV","89102",36.1440225,-115.195896,"1","Thai, Beer, Wine & Spirits, Food, Desserts, Restaurants, Comfort Food"
"590",48193,"Burger Betty's","Phoenix","AZ","85014",33.511332,-112.06434,"0","American (Traditional), Beer, Wine & Spirits, Nightlife, Breakfast & Brunch, Gay Bars, Burgers, Bars, Restaurants, Food"
"591",163499,"Mr Brews Taphouse","Madison","WI","53718",43.1380457692,-89.2894092848,"1","Nightlife, Bars, Burgers, Beer Bar, Restaurants"
"592",140229,"Girves Brown Derby","Cleveland","OH","44130",41.373934,-81.830332,"1","Beer, Wine & Spirits, Food, Seafood, Steakhouses, Restaurants"
"593",127069,"Slyman's Tavern","Beachwood","OH","44122",41.4516566,-81.4887716,"1","Beer Bar, Breakfast & Brunch, Bars, Restaurants, Nightlife, American (Traditional)"
"594",127902,"Joker's","Las Vegas","NV","89107",36.1887803,-115.2066548,"1","Nightlife, Restaurants, Beer, Wine & Spirits, Sports Bars, Bars, Food"
"595",185799,"AMC Dine-in Theatres Esplanade 14","Phoenix","AZ","85016",33.508571,-112.027642,"1","Arts & Entertainment, Cinema, Beer, Wine & Spirits, American (Traditional), Food, Restaurants"
