"","business_id","name","city","state","postal_code","latitude","longitude","is_open","categories"
"1",24340,"Marathon Diner","Pittsburgh","PA","15231",40.4961769456,-80.2460112364,"1","Sandwiches, Salad, Restaurants, Burgers, Comfort Food"
"2",159174,"Paramount Fine Foods","Toronto","ON","M6K 3K4",43.6384423,-79.4172366,"1","Middle Eastern, Restaurants, Salad, Breakfast & Brunch"
"3",59949,"Pita Pit","Las Vegas","NV","89183",36.012764,-115.136056,"0","Middle Eastern, Restaurants, Vegetarian, Juice Bars & Smoothies, Ethnic Food, Salad, Food, Sandwiches, Specialty Food"
"4",62046,"Davidson Pizza Company","Davidson","NC","28036",35.5008943,-80.8540364,"1","Chicken Wings, Pizza, Salad, Restaurants"
"5",99615,"Piazza Manna","North York","ON","M2M 4G3",43.7801785,-79.416408,"1","Sandwiches, Restaurants, Pizza, Salad"
"6",72460,"Woody's Barbq","Calgary","AB","T2A 6L8",51.0601777,-113.9810304,"0","Sandwiches, Restaurants, Barbeque, Salad"
"7",15650,"Hello Bistro","Pittsburgh","PA","15237",40.5701342672,-80.0214552865,"1","Burgers, Restaurants, Cafes, Salad, Sandwiches"
"8",132930,"Panera Bread","Chandler","AZ","85248",33.2481682645,-111.8397652668,"0","Food, Sandwiches, Restaurants, Soup, Bakeries, Salad"
"9",88804,"Circles Grill and Market","Charlotte","NC","28277",35.0393909574,-80.7950710445,"0","Burgers, Italian, Beauty & Spas, Wine Bars, Barbers, Peruvian, American (Traditional), Bars, Gastropubs, Diners, Salad, Specialty Food, Restaurants, American (New), Nightlife, Cafes, Food"
"10",116415,"Panera Bread","Richmond Hill","ON","L4C 5G2",43.8568578495,-79.4344568253,"1","Salad, Bagels, Breakfast & Brunch, Sandwiches, Food, Bakeries, Soup, Restaurants"
"11",140838,"Levetto","Toronto","ON","M6H 1A5",43.6536812,-79.4265904,"1","Salad, Italian, Restaurants, Pizza"
"12",153713,"Even Stevens Sandwiches","Gilbert","AZ","85234",33.3568181,-111.7897728,"0","Gluten-Free, Breakfast & Brunch, Sandwiches, Restaurants, Salad"
"13",161487,"800 Degrees","Las Vegas","NV","89109",36.1423694,-115.156034,"1","Pizza, Salad, Restaurants, Italian"
"14",108050,"Farmer Boy Restaurant","Amherst","OH","44001",41.3622256,-82.2208599,"1","Salad, Restaurants, Burgers, Breakfast & Brunch"
"15",80030,"Earl of Sandwich","Tempe","AZ","85281",33.4251725238,-111.9397368282,"0","Salad, Wraps, Event Planning & Services, Soup, Caterers, Sandwiches, Food, Restaurants"
"16",170505,"Lomi Poki","Scottsdale","AZ","85260",33.6268709,-111.8931338,"1","Food, Hawaiian, Salad, Restaurants, Seafood, Sushi Bars, Asian Fusion, Poke"
"17",171664,"McAlister's Deli","Champaign","IL","61820",40.14166846,-88.2503601437,"1","Salad, Delis, Restaurants, Sandwiches, Food"
"18",153036,"Tempe City Tacos","Tempe","AZ","85282",33.3915708,-111.9383874,"1","Breakfast & Brunch, Specialty Food, Food, Tacos, Salad, Restaurants, Event Planning & Services, Caterers, Mexican"
"19",104700,"NYPD Pizza","Glendale","AZ","85308",33.6531023,-112.2357715,"0","Salad, Chicken Wings, Restaurants, Italian, Pizza"
"20",18677,"Chris' Deli","Charlotte","NC","28205",35.2020194,-80.781657,"1","Delis, Sandwiches, Restaurants, Salad"
"21",89018,"Panera Bread","North Ridgeville","OH","44039",41.385899,-81.9751,"1","Sandwiches, Bagels, Soup, Breakfast & Brunch, Salad, Restaurants, Bakeries, Food"
"22",46289,"Crux Comptoir","Brossard","QC","J4Y 0L1",45.44659,-73.437164,"1","Juice Bars & Smoothies, Restaurants, Organic Stores, Vegetarian, Salad, Food, Coffee & Tea"
"23",87633,"Honey Baked Ham Company","Willoughby","OH","44094",41.626608,-81.437889,"1","Delis, Sandwiches, Food, Cafes, Restaurants, Specialty Food, Salad, Meat Shops"
"24",50641,"Sammy's Grille","Cleveland","OH","44103",41.5005090569,-81.6888530137,"0","Diners, American (Traditional), Salad, Breakfast & Brunch, Burgers, Restaurants"
"25",125214,"PDQ","North Las Vegas","NV","89032",36.2389331706,-115.1899415263,"1","Sandwiches, Fast Food, Salad, Restaurants, Chicken Shop"
"26",84784,"Capriotti's Sandwich Shop","Las Vegas","NV","89129",36.2213965,-115.3298839,"1","Food, Sandwiches, Restaurants, Salad"
"27",26464,"Wahoo's Fish Tacos","Henderson","NV","89012",36.0141148895,-114.9929875647,"1","Salad, Restaurants, Gluten-Free, Seafood, American (New), Mexican"
"28",106832,"Romeo's Pizza","North Olmsted","OH","44070",41.4071441722,-81.9420079177,"1","Restaurants, Sandwiches, Pizza, Salad"
"29",48654,"Rubio's Coastal Grill","Chandler","AZ","85249",33.2781035,-111.7913336,"1","Caterers, Event Planning & Services, Mexican, Seafood, Restaurants, Fast Food, Salad"
"30",81918,"Panera Bread","Tempe","AZ","85281",33.432945436,-111.9055820909,"1","Soup, Sandwiches, Restaurants, Salad"
"31",97168,"Bob Evans","Stow","OH","44224",41.1644441723,-81.476444006,"1","Food, Breakfast & Brunch, Hotels & Travel, Desserts, Bed & Breakfast, Salad, American (Traditional), Comfort Food, Restaurants"
"32",155666,"King & I","Las Vegas","NV","89119",36.1001658,-115.1389824,"1","Thai, Salad, Soup, Restaurants"
"33",138686,"Fresh Healthy Cafe","Pittsburgh","PA","15205",40.4538803347,-80.1582515985,"1","Food, Restaurants, Cafes, Juice Bars & Smoothies, Salad"
"34",148378,"Bareburger","Toronto","ON","M5G",43.6556244,-79.3841428,"0","Vegetarian, Burgers, Salad, Breakfast & Brunch, Restaurants, American (Traditional)"
"35",115909,"The Green Regime","Las Vegas","NV","89119",36.0838414902,-115.1197339967,"1","Restaurants, Food Stands, Sandwiches, Salad, Food, Juice Bars & Smoothies"
"36",61637,"Perfect Pear Bistro","Tempe","AZ","85284",33.3216322198,-111.9625568958,"1","Wine Bars, American (New), Nightlife, Salad, Gluten-Free, Bars, Sandwiches, Restaurants"
"37",182261,"Texas Roadhouse","Tempe","AZ","85284",33.3383358638,-111.9703973585,"1","American (New), Barbeque, Restaurants, Sandwiches, American (Traditional), Salad, Steakhouses"
"38",18060,"Panera Bread","Murrysville","PA","15668",40.421806,-79.661538,"1","Restaurants, Breakfast & Brunch, Sandwiches, Bagels, Food, Salad, Soup"
"39",139494,"Panera Bread","Allison Park","PA","15101",40.602218,-79.945617,"1","Bagels, Soup, Salad, Restaurants, Food, Sandwiches, Breakfast & Brunch"
"40",130781,"Glass Nickel Pizza","Sun Prairie","WI","53590",43.1831104,-89.2138433,"1","Chicken Wings, Food, Event Planning & Services, Pizza, Sandwiches, Italian, Caterers, Salad, Restaurants, Food Delivery Services"
"41",83814,"DiMaggio's","Davidson","NC","27262",35.4423171024,-80.76308319,"1","Pizza, Salad, Italian, Restaurants"
"42",13597,"Bob Evans","Pittsburgh","PA","15237",40.5417427189,-80.0121000409,"1","Hotels & Travel, American (Traditional), Bed & Breakfast, Restaurants, Breakfast & Brunch, Salad, Comfort Food, American (New)"
"43",90950,"Yolis Café","Chandler","AZ","85225",33.299873,-111.842586,"0","Salad, American (New), Burgers, Restaurants, American (Traditional), Breakfast & Brunch"
"44",99336,"Cafe 56","Cleveland","OH","44124",41.5214960134,-81.4373204383,"1","Salad, Sandwiches, Soup, Restaurants"
"45",131254,"Salsarita's Fresh Mexican Grill","Concord","NC","28027",35.3713178,-80.7183571,"1","Restaurants, Salad, Tex-Mex, Fast Food, Mexican"
"46",153176,"B Spot","Westlake","OH","44145",41.4603545053,-81.9525702814,"1","Salad, Burgers, Desserts, Bars, Food, Whiskey Bars, Nightlife, Restaurants, Beer Bar, Wine Bars"
"47",103179,"Port of Subs","North Las Vegas","NV","89031",36.261004,-115.135427,"0","Restaurants, Sandwiches, Salad, Food, Desserts, Wraps"
"48",87567,"Athens Pizzeria","Cleveland","OH","44102",41.4640005,-81.7450118,"1","Chicken Wings, Salad, Pizza, Restaurants"
"49",42986,"Marco's Pizza","Mint Hill","NC","28227",35.1704967136,-80.6608630869,"1","Pizza, Salad, Restaurants, Desserts, Food"
"50",122207,"That Guy's Pizza","Fountain Hills","AZ","85268",33.5739018113,-111.7141366797,"1","Pizza, Vegetarian, Italian, Salad, Restaurants"
"51",191671,"McAlister's Deli","Charlotte","NC","28278",35.1613607169,-80.9716010056,"1","Salad, Sandwiches, Delis, Restaurants"
"52",129570,"Capriotti's Sandwich Shop","Las Vegas","NV","89110",36.168028,-115.062472,"1","Sandwiches, Restaurants, Salad, Burgers"
"53",1797,"Flock","Toronto","ON","M5S 1G4",43.662574,-79.403622,"1","Restaurants, Food, Canadian (New), Salad"
"54",22467,"Original ChopShop","Phoenix","AZ","85018",33.5028289,-112.0127286,"1","Restaurants, Salad, Juice Bars & Smoothies, Food, American (New), Breakfast & Brunch"
"55",36478,"Penn Station East Coast Subs","Brooklyn","OH","44144",41.4244578,-81.7354314,"1","Restaurants, Sandwiches, Cheesesteaks, Salad"
"56",115697,"Fired Pie","Scottsdale","AZ","85258",33.5737714,-111.9054939,"1","Food Delivery Services, Pizza, Salad, Food, Restaurants, Desserts"
"57",116038,"Pork on a Fork","Phoenix","AZ","85016",33.5074647365,-112.0407363257,"1","Restaurants, Salad, Barbeque, Caterers, Sandwiches, Event Planning & Services"
"58",132439,"Moe's Original Bar B Que","Matthews","NC","28105",35.117562,-80.720445,"1","Restaurants, Caterers, Sandwiches, Barbeque, Salad, Nightlife, Event Planning & Services, Bars"
"59",112893,"Rawlicious","Toronto","ON","M5S 0B7",43.6646402,-79.41087,"0","Food, Vegan, Juice Bars & Smoothies, Salad, Gluten-Free, Vegetarian, Desserts, Restaurants"
"60",53436,"The Cheesecake Factory","Lyndhurst","OH","44124",41.5023004738,-81.5021447077,"1","Food, Restaurants, Salad, Desserts, Seafood, American (Traditional), American (New)"
"61",133639,"Krazy Roll","Toronto","ON","M8V 0B7",43.6257169,-79.4771852,"1","Restaurants, Japanese, Salad, Sushi Bars"
"62",138441,"Zaxby's Chicken Fingers & Buffalo Wings","Huntersville","NC","28078",35.4401376443,-80.8659737486,"1","Fast Food, Salad, Chicken Wings, Restaurants"
"63",67367,"Johnny Rocket's","Mooresville","NC","28117",35.5287031695,-80.8650822804,"0","Cheesesteaks, Diners, Salad, Burgers, Restaurants, Fast Food"
"64",32703,"Mizu Japanese Sushi Restaurant","Parma","OH","44130",41.417854,-81.756176,"1","Restaurants, Sushi Bars, Japanese, Salad"
"65",96535,"Bon Appétit Chéri","Laval","QC","H7V 3Z3",45.5491665,-73.7444668,"1","Salad, Restaurants, Steakhouses, Burgers, Breakfast & Brunch"
"66",23314,"Olive Garden Italian Restaurant","Las Vegas","NV","89119",36.1140471648,-115.132257289,"1","Wine Bars, Italian, Salad, Nightlife, Bars, Restaurants"
"67",50997,"El Chorro","Paradise Valley","AZ","85253",33.532125,-111.96086,"1","Salad, Venues & Event Spaces, Food, Event Planning & Services, American (Traditional), Burgers, Desserts, Bars, American (New), Nightlife, Restaurants, Diners, Breakfast & Brunch"
"68",43001,"Don Michael's","Las Vegas","NV","89130",36.2472804,-115.2089199,"1","Specialty Food, Nightlife, Pasta Shops, Wine Bars, Restaurants, Salad, Bars, Italian, Food"
"69",21904,"Mr Sub","Scarborough","ON","M1X 1E6",43.8223937,-79.2472657,"1","Salad, Soup, Restaurants, Sandwiches"
"70",99196,"Koek Koek","Toronto","ON","M4N 2H8",43.7168348169,-79.400094375,"0","Sandwiches, Salad, Restaurants, Cafes"
"71",93421,"Sammy's Woodfired Pizza and Grill","Las Vegas","NV","89146",36.144469052,-115.2366719569,"1","Restaurants, Salad, Pizza, Gluten-Free"
"72",54512,"La Prep","Toronto","ON","M5K 1A1",43.6478979,-79.3820355,"1","Salad, Sandwiches, Breakfast & Brunch, Restaurants"
"73",101188,"Park 51 Cafe","Charlotte","NC","28210",35.090561,-80.867977,"1","Sandwiches, Restaurants, Salad, American (Traditional)"
"74",150560,"Vocelli Pizza","Pittsburgh","PA","15213",40.4539049,-79.9488432,"1","Desserts, Food, Pizza, Restaurants, Salad"
"75",68683,"Cozzeria Pizzeria","Elyria","OH","44035",41.374399931,-82.0860510574,"1","Pizza, Sandwiches, Restaurants, Italian, Salad"
"76",179757,"Pulp Juice And Smoothie Bar","Independence","OH","44131",41.396018,-81.64178,"1","Food, Salad, Restaurants, Wraps, Juice Bars & Smoothies"
"77",92994,"Rubio's","Phoenix","AZ","85042",33.3793267053,-112.0308799454,"1","Caterers, Salad, Event Planning & Services, Restaurants, Seafood, Mexican"
"78",129315,"Mr Submarine","Phoenix","AZ","85016",33.4876081937,-112.0301229134,"1","Salad, Restaurants, Sandwiches"
"79",159983,"Hoffstot's Cafe Monaco","Oakmont","PA","15139",40.5186528,-79.8433871,"1","Bars, Wine Bars, Nightlife, Italian, Restaurants, Seafood, Salad"
"80",125888,"Jimmy John's","Phoenix","AZ","85003",33.4482076863,-112.0747093518,"1","Food, Sandwiches, Food Delivery Services, Restaurants, Fast Food, Salad, Delis"
"81",184023,"Slices","Phoenix","AZ","85050",33.6757978731,-111.9710667059,"1","Desserts, Pizza, American (New), Restaurants, Food, Salad"
"82",157279,"Potbelly Sandwich Shop","Madison","WI","53719",43.058245,-89.504807,"1","Juice Bars & Smoothies, Food, Salad, Soup, Delis, Fast Food, Restaurants, Sandwiches"
"83",33200,"The Farm Kitchen","Phoenix","AZ","85042",33.390829,-112.0129594,"1","Sandwiches, Soup, Restaurants, Breakfast & Brunch, Salad"
"84",28932,"California Pizza Kitchen at Biltmore","Phoenix","AZ","85016",33.510599,-112.029753,"1","American (Traditional), Salad, Restaurants, Pizza, American (New)"
"85",54226,"PIZZAFIRE","Strongsville","OH","44136",41.3054447999,-81.83473,"0","Salad, Pizza, Restaurants, Gluten-Free"
"86",96506,"Farmer Boys","Las Vegas","NV","89119",36.081352,-115.1192262,"1","Sandwiches, Restaurants, Mexican, American (Traditional), Burgers, Salad, Breakfast & Brunch, Diners"
"87",16294,"The Zenith","Pittsburgh","PA","15203",40.426803,-79.968973,"1","Antiques, Coffee & Tea, Restaurants, Salad, Food, Breakfast & Brunch, Vegetarian, Vegan, Shopping"
"88",114955,"Sweet Tomatoes","Phoenix","AZ","85012",33.5096666571,-112.0717401263,"0","Buffets, Salad, Soup, Vegetarian, Restaurants"
"89",104585,"Freshii","Toronto","ON","M5P 2W4",43.6889719726,-79.4128546492,"1","Fast Food, Salad, Restaurants, Gluten-Free, Sandwiches"
"90",120890,"Athen's Gyros & Pasta","Phoenix","AZ","85021",33.55312,-112.1091777,"0","Salad, Restaurants, Mediterranean, Greek, Fast Food"
"91",149058,"Chez Léo","Montréal","QC","H2T 2K1",45.5258484,-73.6031747,"0","Poutineries, Local Flavor, Salad, Burgers, Restaurants"
"92",144715,"B.GOOD","Charlotte","NC","28202",35.2252005,-80.8473796,"1","Salad, Restaurants, Food, American (Traditional), Juice Bars & Smoothies"
"93",125045,"Reyna","Toronto","ON","M5H 3K6",43.6503522,-79.3837951,"1","Salad, Shopping, Public Markets, Mediterranean, Tapas/Small Plates, Spanish, Food, Restaurants, Nightlife, Cocktail Bars, Bars"
"94",42633,"Crooked River Bbq + Beer","Lyndhurst","OH","44124",41.5194257856,-81.4956962317,"0","Barbeque, Salad, American (Traditional), Restaurants"
"95",164348,"Cleveland Deli and Beverage","Cleveland","OH","44135",41.433372,-81.8008714,"1","Salad, Delis, Restaurants, Sandwiches, Diners, Food, Convenience Stores"
"96",121922,"Salad and Go","Tolleson","AZ","85353",33.4205758,-112.2707451,"1","Juice Bars & Smoothies, Food, Restaurants, Salad, Vegetarian"
"97",156197,"The Rail - Strongsville","Strongsville","OH","44136",41.312453,-81.825812,"1","Beer Bar, Salad, Nightlife, Restaurants, American (New), Bars, Burgers"
"98",163154,"Vocelli Pizza","Pittsburgh","PA","15216",40.3920559,-80.0382876,"1","Restaurants, Pizza, Chicken Wings, Salad"
"99",79125,"Dunn's Famous Decarie","Montréal","QC","H4P 2G8",45.494719,-73.651871,"1","Delis, Restaurants, Salad, Sandwiches"
"100",66421,"Cajun Yard Dog","Fort Mill","SC","29708",35.059358238,-80.9911468998,"1","Restaurants, Cajun/Creole, Salad, Seafood"
"101",139269,"Panera Bread","Highland Heights","OH","44143",41.539594,-81.451432,"1","Bagels, Restaurants, Sandwiches, Soup, Breakfast & Brunch, Salad, Bakeries, Food"
"102",44923,"Bahn Thai","Charlotte","NC","28277",35.0708159675,-80.8440170065,"1","Salad, Thai, Sushi Bars, Restaurants"
"103",154424,"Sunset Grill","Brampton","ON","L6Y 2E1",43.6849368338,-79.7608025565,"1","Canadian (New), Salad, Restaurants, Diners, Breakfast & Brunch, Burgers"
"104",53000,"Olive Garden Italian Restaurant","Tarentum","PA","15084",40.5700889,-79.7985959,"1","Salad, Restaurants, Nightlife, Wine Bars, Italian, Bars"
"105",65997,"Rubio's Coastal Grill","Las Vegas","NV","89143",36.299397,-115.281123,"1","Seafood, Mexican, Restaurants, Salad"
"106",154836,"Life Cafe","Las Vegas","NV","89135",36.1581511387,-115.3277724847,"1","Restaurants, Salad, Cafes, Sandwiches"
"107",105721,"Pizza By The Slice","North York","ON","M3B 1Y2",43.7542187,-79.3514066,"1","Chicken Wings, Restaurants, Pizza, Salad"
"108",70998,"Lakeside Coffee","Rouses Point","NY","12979",44.9931808,-73.3641541,"1","Coffee & Tea, Sandwiches, Salad, Food, Restaurants"
"109",64124,"Bojangles' Famous Chicken 'n Biscuits","Charlotte","NC","28212",35.1772696,-80.7508267,"1","Sandwiches, Salad, Fast Food, Restaurants, Food"
"110",181141,"Subway","Las Vegas","NV","89178",36.0198631,-115.2704078,"1","Restaurants, Fast Food, Sandwiches, Salad"
"111",190145,"Sweet Tomatoes Field Kitchen","Peoria","AZ","85382",33.637715,-112.2223053,"0","Vegetarian, Soup, Restaurants, Buffets, Salad"
"112",69787,"California Pizza Kitchen at Legacy Village","Lyndhurst","OH","44124",41.503361,-81.501605,"1","American (New), Food, American (Traditional), Salad, Pizza, Restaurants, Pasta Shops, Specialty Food"
"113",31523,"Freshii","Vaughan","ON","L4K 5Y5",43.827835,-79.5393532,"1","Juice Bars & Smoothies, Food, Restaurants, Salad, Sandwiches"
"114",136260,"My Pie Pizza","Tempe","AZ","85281",33.4226738,-111.9347073,"1","Salad, Italian, Pizza, Restaurants"
"115",110159,"Red's Catering","Twinsburg","OH","44087",41.2847462774,-81.4410142888,"1","Soup, Event Planning & Services, Buffets, Sandwiches, Caterers, Restaurants, Breakfast & Brunch, Salad"
"116",95249,"Bowl Tique Avenue","Las Vegas","NV","89147",36.1154018,-115.2806748,"0","Korean, Restaurants, Noodles, Salad, Asian Fusion"
"117",65428,"La Prep","Toronto","ON","M4W 3G7",43.6710659,-79.3857432,"1","Salad, Food, Breakfast & Brunch, Cafes, Restaurants, Sandwiches"
"118",52473,"Captain Tony's Pizza & Pasta","Cleveland","OH","44114",41.5031539,-81.6889746,"1","Home Services, Pizza, Health & Medical, Massage Therapy, Nightlife, Chicken Wings, Salad, Restaurants"
"119",145354,"Subway","Pittsburgh","PA","15219",40.438858555,-79.9895100816,"1","Fast Food, Salad, Restaurants, Sandwiches, Delis"
"120",190256,"Sunset Grill","Calgary","AB","T3R 0S4",51.170429,-114.143686,"1","Canadian (New), Restaurants, Diners, Breakfast & Brunch, Burgers, Sandwiches, Salad"
"121",104182,"Diva","Vaughan","ON","L4K 4K7",43.8075903,-79.5340868,"1","Sandwiches, Salad, Burgers, Restaurants, Breakfast & Brunch"
"122",41162,"Fired Pie","Tempe","AZ","85281",33.4221752,-111.9454023,"1","Salad, Pizza, Restaurants"
"123",27548,"Sorella's Pizza","Strongsville","OH","44136",41.3070331,-81.8334473,"0","Pizza, Chicken Wings, Restaurants, Salad"
"124",112140,"Orca  The Sandwich Shoppe","Toronto","ON","M6N 3S3",43.685922,-79.4869324,"1","Soup, Sandwiches, Salad, Restaurants"
"125",159423,"Inchin's Bamboo Garden","Charlotte","NC","28262",35.3164051,-80.7400202,"1","Noodles, Soup, Asian Fusion, Restaurants, Chinese, Salad, Pan Asian"
"126",61161,"Annie's Gourmet Italian","Henderson","NV","89012",36.0241573,-115.0629783,"0","Venues & Event Spaces, Bars, Restaurants, Salad, Couriers & Delivery Services, Local Services, Nightlife, Caterers, Italian, Event Planning & Services, Sports Bars"
"127",43242,"Panera Bread","Chandler","AZ","85248",33.248227,-111.839767,"1","Sandwiches, Soup, Restaurants, Salad, Cafes"
"128",106791,"Ladles","Fort Mill","SC","29715",35.0571301,-80.9344997,"1","Sandwiches, Soup, Restaurants, Salad"
"129",126428,"King David Pizza","Thornhill","ON","L4J",43.8107738622,-79.4536817031,"0","Middle Eastern, Mediterranean, Pizza, Sandwiches, Salad, Restaurants"
"130",164438,"1455 American Grill","Gilbert","AZ","85233",33.349441,-111.8212717,"0","Nightlife, American (New), Salad, American (Traditional), Bars, Restaurants, Burgers"
"131",70753,"Panera Bread","Las Vegas","NV","89118",36.0573979,-115.2422172,"1","Restaurants, Salad, Sandwiches, Soup"
"132",30366,"Salsarita's Fresh Mexican Grill","Charlotte","NC","28277",35.0339582,-80.8047412,"1","Event Planning & Services, Tex-Mex, Restaurants, Salad, Caterers, Mexican"
"133",171325,"Chick-fil-A","Charlotte","NC","28202",35.2338693149,-80.8497967378,"1","Restaurants, Salad, Burgers, Wraps, Event Planning & Services, Caterers, Fast Food"
"134",83023,"Carl's Jr","Las Vegas","NV","89103",36.100397,-115.2073399,"0","Burgers, Fast Food, Salad, Restaurants"
"135",150025,"Olive Garden Italian Restaurant","Pineville","NC","28134",35.086418,-80.8773419,"1","Bars, Italian, Wine Bars, Restaurants, Salad, Nightlife"
"136",125920,"Azzip Pizza","Champaign","IL","61820",40.1099251,-88.2314617,"0","Salad, Restaurants, Italian, Pizza"
"137",176105,"Wildflower","Glendale","AZ","85308",33.6427575,-112.2209374,"1","Sandwiches, Breakfast & Brunch, American (New), Food, Restaurants, Event Planning & Services, Caterers, Salad, Bakeries"
"138",108194,"Bar Vinedo","Queen Creek","AZ","85142",33.2852033191,-111.6845115989,"1","American (Traditional), Cocktail Bars, Restaurants, Music Venues, American (New), Salad, Nightlife, Sandwiches, Arts & Entertainment, Bars"
"139",148291,"Subway","Tempe","AZ","85284",33.3509714,-111.9610056,"1","Fast Food, Salad, Sandwiches, Restaurants"
"140",8884,"MOOYAH Burgers Fries & Shakes","Rocky River","OH","44116",41.4648632,-81.8418473,"0","Food, Salad, Ice Cream & Frozen Yogurt, American (Traditional), Restaurants, Fast Food, Hot Dogs, Burgers"
"141",157789,"Toast Cafe","Surprise","AZ","85374",33.6418104569,-112.367303744,"0","Sandwiches, Restaurants, Salad, Burgers, American (Traditional), Breakfast & Brunch"
"142",134210,"Birona Hummus Bar","Montréal","QC","H2T 1S5",45.5253466,-73.5974198,"1","Restaurants, Mediterranean, Salad, Sandwiches, Moroccan"
"143",130147,"McDonald's","Charlotte","NC","28273",35.1631138,-80.9700542,"1","Salad, Restaurants, Burgers, Desserts, Fast Food, Coffee & Tea, Food"
"144",185798,"Pulp Juice And Smoothie Bar","Parma","OH","44129",41.3837071931,-81.7393084927,"1","Restaurants, Food, Wraps, Salad, Juice Bars & Smoothies"
"145",180440,"Chia Vera Health Bar","Las Vegas","NV","89146",36.1587068,-115.2367353,"0","Salad, Specialty Food, Restaurants, Food, Burgers, Health Markets"
"146",170229,"Muscle Maker Grill","Peoria","AZ","85381",33.610526,-112.2394728,"1","Gluten-Free, Restaurants, Salad, Sandwiches"
"147",79683,"Bouffe Dave Plant Food","Montréal","QC","H2L 1Z9",45.5191325,-73.5574797,"1","Specialty Food, Coffee & Tea, Restaurants, Bakeries, Food, Sandwiches, Breakfast & Brunch, Salad"
"148",185293,"Giovannis Pizzeria","Strongsville","OH","44133",41.2774946,-81.7857953,"1","Pizza, Sandwiches, Restaurants, Salad"
"149",20532,"Augies Pizza & Ribs","North Royalton","OH","44133",41.31329,-81.72497,"1","Caterers, Food, Pizza, Specialty Food, Pasta Shops, Restaurants, Salad, Event Planning & Services"
"150",98234,"Glass Nickel Pizza","Madison","WI","53705",43.0754635216,-89.4666998853,"1","Pizza, Food Delivery Services, Food, Event Planning & Services, Restaurants, Italian, Sandwiches, Caterers, Vegetarian, Salad, Chicken Wings"
"151",64927,"Thai Express","Henderson","NV","89014",36.0630678461,-115.0452768803,"0","Restaurants, Salad, Asian Fusion, Thai, Vegetarian"
"152",18267,"Salad And Go","Surprise","AZ","85374",33.6401701984,-112.3593816134,"1","Salad, Restaurants, Wraps, Juice Bars & Smoothies, Food"
"153",192342,"Grayhawk Beer Co","Scottsdale","AZ","85255",33.6762908,-111.9231242,"0","Salad, Bars, Sports Bars, Beer Bar, Nightlife, Breakfast & Brunch, Food, Burgers, Desserts, Gastropubs, American (New), Restaurants"
"154",150857,"Brick-Side Eatery","Pittsburgh","PA","15213",40.4405525045,-79.9613586813,"1","Pizza, Vegan, Restaurants, Salad"
"155",58650,"Jason's Deli","Henderson","NV","89014",36.0559042,-115.0412703,"1","Sandwiches, Restaurants, Delis, Salad, Caterers, Event Planning & Services"
"156",17769,"Garden Grill","Cleveland","OH","44135",41.4337349653,-81.8230739236,"0","Barbeque, Food, Restaurants, Salad, Desserts"
"157",185360,"Café Zupas","Las Vegas","NV","89118",36.0603197442,-115.2416230813,"1","Salad, Restaurants, Soup, Sandwiches, American (New)"
"158",127547,"First Watch","Phoenix","AZ","85012",33.4836445818,-112.0749640732,"1","American (New), Breakfast & Brunch, Salad, Food, Juice Bars & Smoothies, Restaurants, Cafes"
"159",96140,"Rock'N'oodles","Las Vegas","NV","89104",36.1584369,-115.1512011,"0","American (New), Restaurants, Italian, Food, Salad, Local Flavor, Noodles"
"160",117901,"Panini Bread & Grill","Glendale","AZ","85308",33.6405425475,-112.1349456693,"1","Salad, Delis, Breakfast & Brunch, Breweries, Caterers, American (Traditional), Event Planning & Services, Food, Sandwiches, Restaurants"
"161",60436,"Blaze Fast-Fire'd Pizza","Las Vegas","NV","89117",36.145956,-115.312655,"1","Salad, Fast Food, Restaurants, Pizza"
"162",157259,"Ferraro 502","Toronto","ON","M5N 1A5",43.7037926,-79.4132906,"1","Pizza, Italian, Restaurants, Salad"
"163",190253,"Swiss Chalet Rotisserie & Grill","Uxbridge","ON","L9P 1N7",44.0883611051,-79.1342054259,"1","Chicken Wings, Salad, Sandwiches, Restaurants, Comfort Food, American (Traditional)"
"164",151993,"Chopped Leaf","Calgary","AB","T3H 4C7",51.0665181,-114.2094358,"1","Salad, Restaurants, Sandwiches, Fast Food"
"165",77260,"Joey's Seafood Restaurants","Calgary","AB","T2J 0P5",50.969920563,-114.0700002528,"1","Restaurants, Fish & Chips, Seafood, Salad"
"166",140240,"South 21 Matthews","Matthews","NC","28105",35.1153113,-80.6951474,"1","Salad, Restaurants, Sandwiches, Burgers"
"167",31721,"Olive Garden Italian Restaurant","Mesa","AZ","85206",33.393459,-111.6972339,"1","Restaurants, Salad, Wine Bars, Italian, Bars, Nightlife"
"168",35728,"Olive Garden Italian Restaurant","Elyria","OH","44035",41.3975072,-82.1065361,"1","Salad, Restaurants, Wine Bars, Nightlife, Bars, Italian"
"169",171746,"Bob Evans","Medina","OH","44256",41.163999,-81.862803,"1","Restaurants, Salad, American (Traditional), Hotels & Travel, Breakfast & Brunch, Bed & Breakfast, Comfort Food"
"170",1349,"Mikes","Saint-Jean-sur-Richelieu","QC","J3B 2M1",45.306197,-73.266892,"1","Breakfast & Brunch, Pizza, Salad, Noodles, Restaurants, Poutineries"
"171",60719,"Twisted Meltz","Kent","OH","44240",41.1535258,-81.3568781,"1","Sandwiches, Burgers, Food, Soup, Ice Cream & Frozen Yogurt, Restaurants, American (Traditional), Salad"
"172",131316,"EastSide Local","Charlotte","NC","28205",35.214056,-80.782638,"1","Salad, Restaurants, Juice Bars & Smoothies, Food, Coffee & Tea"
"173",134909,"Ô Claf","Montréal","QC","H3G 1W9",45.500084,-73.577303,"1","Sandwiches, Specialty Food, Soup, Salad, Delis, Restaurants, Food"
"174",41228,"PIZZAFIRE","Kent","OH","44240",41.151996,-81.356751,"1","Salad, Pizza, Fruits & Veggies, Restaurants, Food, Specialty Food"
"175",111862,"PastaTivo","Beachwood","OH","44122",41.498488,-81.4941423,"1","Pasta Shops, Desserts, Italian, Specialty Food, Vegan, Restaurants, Caterers, Event Planning & Services, Food, Food Trucks, Salad, Gluten-Free"
"176",160381,"Marco's Pizza","Gastonia","NC","28054",35.22574,-81.133624,"1","Pizza, Italian, Food Delivery Services, Food, Salad, Restaurants"
"177",43256,"Forefathers Cheesesteaks","Scottsdale","AZ","85258",33.5528324,-111.8813119,"1","Restaurants, Salad, American (Traditional), Sandwiches, Cheesesteaks, American (New)"
"178",74024,"Pie Express","Pittsburgh","PA","15213",40.4416351719,-79.9572138885,"1","Pizza, Salad, Restaurants"
"179",153141,"Marco's Pizza","Glendale","AZ","85308",33.6393909,-112.1738684,"0","Pizza, Desserts, Restaurants, Food, Food Delivery Services, Salad"
"180",22746,"Al-Omda Lounge","Mississauga","ON","L5L 5M5",43.5179744387,-79.6921346884,"1","Middle Eastern, Cafes, Nightlife, Restaurants, Hookah Bars, Bars, Egyptian, Salad, Juice Bars & Smoothies, Food"
"181",173401,"Pizzeria Antica","Champaign","IL","61820",40.1168569,-88.2430189,"1","Restaurants, Salad, Pizza, Italian"
"182",44539,"Pita Bistro","Phoenix","AZ","85012",33.4846287,-112.0764485,"1","Salad, Restaurants, Middle Eastern, Juice Bars & Smoothies, Food, Gluten-Free, Mediterranean"
"183",116739,"Pazzo","Pittsburgh","PA","15241",40.3526179,-80.0510699,"0","Italian, Salad, Restaurants, Gluten-Free"
"184",130937,"Luna Restaurant and Lounge","Charlotte","NC","28206",35.2536124,-80.805372,"0","Caribbean, Dominican, Restaurants, Salad, Latin American"
"185",69267,"Nikki's Akropolis Pizza","Henderson","NV","89014",36.0643468121,-115.0595177338,"0","Pizza, Restaurants, Greek, Salad, Italian, Sandwiches"
"186",171197,"Bell' Italia Pizzeria","Phoenix","AZ","85048",33.30394,-111.9782764923,"1","Pizza, Salad, Italian, Restaurants"
"187",9439,"Wolfgang Puck Bar & Grill Las Vegas","Las Vegas","NV","89109",36.102543,-115.169884,"1","Sandwiches, Pizza, Salad, Food, Beer, Wine & Spirits, Nightlife, Bars, Restaurants, Hotels & Travel, American (New)"
"188",140591,"Papa Murphy's","Las Vegas","NV","89131",36.3013607105,-115.2821881441,"1","Pizza, Restaurants, Gluten-Free, Salad"
"189",150740,"The Cheesecake Factory","Toronto","ON","M6A 2T9",43.7246843,-79.4541729,"1","Restaurants, Desserts, Salad, Food, Pizza, Burgers, American (Traditional)"
"190",19015,"Sbarro's Italian Eatery","Henderson","NV","89014",36.067111,-115.042849,"1","Italian, Restaurants, Salad, Pizza"
"191",111571,"Panago Pizza","North York","ON","M2M 3X4",43.7955379,-79.419435,"1","Pizza, Salad, Restaurants, Chicken Wings"
"192",84247,"Pony Express Cafe","Scottsdale","AZ","85262",33.7413162,-111.8441435,"1","American (New), Wraps, Sandwiches, Restaurants, Breakfast & Brunch, Cafes, Salad, Food, Coffee & Tea"
"193",161807,"Sapori Italian Grille","Avon Lake","OH","44012",41.5038762,-82.0521027,"1","American (Traditional), Italian, Restaurants, Pizza, Salad"
"194",189175,"Philly Steak & Gyro","Glendale","AZ","85303",33.5388332953,-112.2049490836,"1","Salad, Restaurants, Cheesesteaks, Burgers, Greek"
"195",159737,"Souvlaki Hut","Toronto","ON","M6S 1M8",43.6517188,-79.4745649,"1","Food, Restaurants, Salad, Greek, Sandwiches, Soup"
"196",47648,"In The Mood Cafe","Matthews","NC","28104",35.068873494,-80.7007759792,"0","Food, Salad, Restaurants, Ice Cream & Frozen Yogurt, Coffee & Tea, Sandwiches"
"197",35367,"Albo Pizza","Las Vegas","NV","89104",36.1526625,-115.1518372,"1","Restaurants, Pizza, Food, Pasta Shops, Salad, American (Traditional), Specialty Food, Italian"
"198",124476,"Cafe Sky Eatery","Mooresville","NC","28117",35.527673,-80.868254,"0","Pizza, Restaurants, Cafes, Salad, Sandwiches"
"199",167520,"Nevada Chicken Cafe","Las Vegas","NV","89146",36.1437858,-115.2266305,"1","Cafes, Sandwiches, Delis, Wraps, Restaurants, American (Traditional), Barbeque, Chicken Shop, Food, American (New), Salad"
"200",170245,"Jet's Pizza","Middleburg Heights","OH","44130",41.3601101,-81.8155819,"1","Salad, Sandwiches, Restaurants, Pizza"
"201",33674,"Anton & James","Montréal","QC","H3A 1P7",45.4994103181,-73.5740598801,"1","Restaurants, Food, Pizza, Salad, Sandwiches, Bakeries"
"202",31901,"Panera Bread","Phoenix","AZ","85016",33.5102572705,-112.028929691,"0","Salad, Soup, Sandwiches, Restaurants"
"203",124961,"Cheba Hut Toasted Subs","Mesa","AZ","85202",33.3938544,-111.868177,"1","American (Traditional), Fast Food, Restaurants, Sandwiches, Salad"
"204",83908,"Yoshinoya","Las Vegas","NV","89119",36.10259,-115.136559,"0","Desserts, Restaurants, Fast Food, Salad, Japanese, Food"
"205",48376,"Redendo's Pizza & Pasta","Fountain Hills","AZ","85268",33.5739313,-111.7140561,"0","Salad, Local Flavor, Restaurants, Pizza, Italian"
"206",97677,"Panera Bread","Pittsburgh","PA","15237",40.5702463735,-80.021790831,"1","Salad, Sandwiches, Soup, Restaurants"
"207",155457,"Joey's Seafood Restaurants","Calgary","AB","T1Y 6M6",51.0807293,-113.9830857,"1","Fish & Chips, Salad, Restaurants, Seafood"
"208",115735,"Panera Bread","Strongsville","OH","44136",41.3141693629,-81.83472,"1","Breakfast & Brunch, Bagels, Soup, Sandwiches, Salad, Food, Restaurants"
"209",152888,"Rosati's Pizza","Las Vegas","NV","89117",36.128386,-115.3144557,"1","Food, Italian, Salad, Restaurants, Pizza"
"210",32869,"Wildflower","Scottsdale","AZ","85260",33.6277358352,-111.8916024636,"1","Restaurants, Bakeries, Salad, Food, Specialty Food, Sandwiches, Pasta Shops"
"211",159209,"Panera Bread","Tempe","AZ","85284",33.334007,-111.967197,"1","Sandwiches, Restaurants, Salad, Soup"
"212",131306,"Liv Salades","Westmount","QC","H3Z 2A4",45.4866648,-73.587885,"1","Salad, Desserts, Restaurants, Cafes, Food"
"213",134499,"Papa Murphy's","Henderson","NV","89052",36.003993,-115.0834834,"1","Salad, Pizza, Gluten-Free, Restaurants"
"214",45721,"Green Café","Montréal","QC","H3Z 1P2",45.4875938,-73.5862168,"1","Sandwiches, Cafes, Salad, Vegan, Breakfast & Brunch, Restaurants"
"215",49734,"Nora","Cleveland","OH","44106",41.5041563,-81.6002941,"1","Salad, Food, Desserts, Restaurants, Italian"
"216",31066,"Bob Evans","Huntersville","NC","28078",35.4422202579,-80.8735585213,"1","Comfort Food, Breakfast & Brunch, American (Traditional), Salad, Restaurants, Bed & Breakfast, Hotels & Travel"
"217",177759,"Freshii","Scarborough","ON","M1S 3P6",43.7837428,-79.2531863,"1","Juice Bars & Smoothies, Salad, Food, Poke, Restaurants"
"218",5068,"Mario's Pizza","Pittsburgh","PA","15220",40.4175651,-80.0455025,"1","Pizza, Chicken Wings, Italian, Restaurants, Salad"
"219",136379,"Olive Garden Italian Restaurant","Peoria","AZ","85382",33.6377418163,-112.2279345478,"1","Restaurants, Italian, Salad, Wine Bars, Bars, Nightlife"
"220",129891,"Joe's Farm Grill","Gilbert","AZ","85296",33.321866,-111.726244,"1","Pizza, Italian, Restaurants, Salad, Local Flavor, American (Traditional)"
"221",137766,"Canarys Family Restaurant","Cleveland","OH","44135",41.4338885,-81.7994308,"1","American (New), Diners, Salad, Restaurants"
"222",149708,"Olive Garden Italian Restaurant","Las Vegas","NV","89110",36.1605513,-115.0617047,"1","Restaurants, Salad, Bars, Nightlife, Italian, Wine Bars"
"223",62254,"Buna's Kitchen","Toronto","ON","M5V 3P1",43.6481726,-79.3947836,"1","Sandwiches, Salad, Restaurants, Specialty Food, Cafes, Food, Modern European"
"224",56592,"The Works","Toronto","ON","M6S 1N6",43.6506932037,-79.4774514288,"1","Burgers, Poutineries, Salad, Restaurants"
"225",89113,"Sittoo's Pita & Salad","North Olmsted","OH","44070",41.4253082,-81.8979079,"1","Sandwiches, Restaurants, Mediterranean, Vegetarian, Salad, Lebanese, Middle Eastern"
"226",155353,"Hurricane Grill & Wings","Surprise","AZ","85378",33.6399115,-112.3040376,"1","American (New), Burgers, Chicken Wings, Sports Bars, Nightlife, Salad, American (Traditional), Bars, Restaurants"
"227",87697,"Citrus Restaurant and Lounge","Toronto","ON","M5B 2C1",43.656453,-79.3737463,"1","American (New), Breakfast & Brunch, Salad, Bars, Restaurants, Nightlife"
"228",86742,"Shorty's Sandwich Shop","Phoenix","AZ","85040",33.4066905,-112.0001763,"1","Breakfast & Brunch, Restaurants, Salad, Food, Sandwiches, Event Planning & Services, Soup, Grocery, Delis, Caterers"
"229",153986,"The Whole Plate","Toronto","ON","M6R 2K6",43.641556,-79.44705,"1","Salad, Restaurants, Sandwiches, Food, Juice Bars & Smoothies, Canadian (New)"
"230",35071,"Romaine Empire","Las Vegas","NV","89109",36.1161559,-115.1750576,"0","Sandwiches, Food Court, Restaurants, Salad, Seafood"
"231",32523,"Georgio's Oven Fresh Pizza","North Olmsted","OH","44070",41.4367452,-81.8770177,"1","Restaurants, Chicken Wings, Salad, Pizza"
"232",65575,"Fired Pie","Phoenix","AZ","85042",33.379335,-112.03257,"1","Gluten-Free, Pizza, Salad, Restaurants"
"233",135678,"Cafe Zupas","Glendale","AZ","85308",33.6399609671,-112.2198586911,"0","Sandwiches, American (Traditional), Salad, Restaurants, Soup"
"234",177304,"Rockaberry","Dollard-Des-Ormeaux","QC","H9B 1Z8",45.484633,-73.796026,"1","Salad, Diners, Desserts, Sandwiches, Cafes, Bagels, Restaurants, Food"
"235",60629,"Brubaker's Pub","Akron","OH","44310",41.1156675,-81.4714126,"1","Salad, Pubs, Sandwiches, Restaurants, Bars, Nightlife, Irish Pub"
"236",158093,"CoreLife Eatery","Mentor","OH","44060",41.660992,-81.361786,"1","American (New), Restaurants, Salad, Gluten-Free"
"237",69838,"Blimpie","PHOENIX","AZ","85053",33.6102682,-112.1507068,"1","Sandwiches, Restaurants, Salad"
"238",5781,"Sourdough Escape","Henderson","NV","89074",36.0180739949,-115.1012240723,"0","Salad, Restaurants, Food, Sandwiches"
"239",19925,"Laitue & Go","Montréal","QC","H3C",45.4931751533,-73.5572198799,"0","Canadian (New), Restaurants, Salad"
"240",172455,"Panera Bread","Charlotte","NC","28210",35.151154,-80.841072,"1","Restaurants, Bagels, Breakfast & Brunch, Bakeries, Soup, Salad, Sandwiches, Food"
"241",3032,"Bella Monte Pizza","Pittsburgh","PA","15220",40.441704,-80.033422,"1","Restaurants, Salad, Pizza, American (Traditional)"
"242",147238,"Italian Oven","Monroeville","PA","15146",40.4386978,-79.7677808,"0","Salad, Restaurants, Pizza, Italian"
"243",43874,"La Grande Orange Pizzeria","Phoenix","AZ","85018",33.5020532515,-111.9957802209,"1","Food, Restaurants, Salad, Italian, Pizza, Sandwiches, Burgers"
"244",41004,"Sushi J","Scottsdale","AZ","85251",33.4991916,-111.9178159,"1","Sushi Bars, Japanese, Restaurants, Salad"
"245",87474,"Blaze Fast Fire'd Pizza","Phoenix","AZ","85022",33.641031,-112.059802,"1","Restaurants, Salad, Fast Food, Pizza"
"246",120093,"Cantine Chez Roger","Farnham","QC","J2N 1M2",45.2825025,-72.970485,"1","Burgers, French, Salad, Restaurants"
"247",53949,"Sugar River Pizza","Belleville","WI","53508",42.8753193,-89.5329802,"0","Italian, Salad, Restaurants, Pizza"
"248",68877,"Rubio's","Phoenix","AZ","85050",33.67574,-111.971457,"1","Mexican, Restaurants, Salad, Fast Food, Caterers, Event Planning & Services, Seafood"
"249",81443,"Citizen Public House","Scottsdale","AZ","85251",33.49821,-111.927963,"1","Cocktail Bars, Bars, Nightlife, American (New), Local Flavor, Gastropubs, Salad, Restaurants"
"250",25078,"Zoup!","Richmond Hill","ON","L4B 0E2",43.8615176,-79.3894713,"0","Soup, Restaurants, Sandwiches, Salad"
"251",176651,"iQ Food","Toronto","ON","M5J 2Z2",43.6431619,-79.3823245,"1","Gluten-Free, Canadian (New), Restaurants, Food, Salad, Health Markets, Coffee & Tea, Juice Bars & Smoothies, Vegetarian, Specialty Food"
"252",138300,"Don Patron Mexican Grill","Hudson","OH","44236",41.2239221,-81.4394588,"1","Restaurants, Seafood, Mexican, Salad"
"253",46666,"Rubio's","Mesa","AZ","85201",33.43389,-111.867799,"1","Fast Food, Salad, Seafood, Mexican, Restaurants, Event Planning & Services, Caterers"
"254",130856,"Fired Pie","Avondale","AZ","85392",33.461044093,-112.3401841336,"1","Restaurants, Salad, Pizza"
"255",135640,"Zada Jane's Corner Cafe","Charlotte","NC","28205",35.2205186,-80.8118406,"1","Sandwiches, Breakfast & Brunch, American (New), Restaurants, Salad"
"256",168205,"Tutti Frutti Déjeuners","Greenfield Park","QC","J4V 2H7",45.4917254,-73.4767636,"0","Salad, Restaurants, Breakfast & Brunch, Creperies"
"257",130994,"Taza - A Lebanese Grill","Woodmere","OH","44122",41.463026,-81.477387,"1","Food, Mediterranean, Desserts, Salad, Lebanese, Middle Eastern, Vegetarian, Restaurants"
"258",119283,"Firehouse Subs","Phoenix","AZ","85054",33.675598,-111.9634741,"1","Sandwiches, Salad, Delis, Restaurants, Fast Food"
"259",70847,"Brock Sandwich","Toronto","ON","M6H 1N5",43.6589060729,-79.4405779422,"1","Fast Food, Sandwiches, Restaurants, Soup, Salad"
"260",115502,"Rubio's","Las Vegas","NV","89117",36.1449033,-115.2989917,"1","Fast Food, Caterers, Salad, Seafood, Restaurants, Mexican, Event Planning & Services"
"261",161171,"Pizza Pie Cafe","Gilbert","AZ","85296",33.348178101,-111.7574131929,"0","Pizza, Buffets, Restaurants, Gluten-Free, Salad, American (Traditional)"
"262",57763,"Panago Pizza","Oakville","ON","L6J 7Z5",43.4572229244,-79.6790648097,"1","Restaurants, Chicken Wings, Pizza, Salad, Food"
"263",6904,"Showmars","Gastonia","NC","28056",35.2574089938,-81.1116733029,"1","Sandwiches, Salad, Restaurants, Greek"
"264",115617,"Freshbox Grayhawk","Scottsdale","AZ","85255",33.6763979403,-111.9231349463,"0","Food, Restaurants, Fruits & Veggies, Juice Bars & Smoothies, Salad, Vegetarian, Specialty Food, Sandwiches, Wraps"
"265",19632,"Nostos","Montréal","QC","H4N 1L8",45.534296,-73.66139,"1","Salad, Bars, Wine Bars, Nightlife, Greek, Restaurants"
"266",101213,"Polish Deli","Las Vegas","NV","89146",36.1599343,-115.222216,"1","Salad, Sandwiches, Delis, Restaurants"
"267",160706,"Pulp Juice And Smoothie Bar","Mentor","OH","44060",41.6777865,-81.3091082,"1","Salad, Juice Bars & Smoothies, Wraps, Restaurants, Food"
"268",72658,"Philly Steak Express","Las Vegas","NV","89148",36.0946251,-115.297747,"1","Burgers, Mediterranean, Salad, American (New), Restaurants"
"269",96874,"Panago Pizza","Calgary","AB","T3G 4J8",51.1268682733,-114.2001147158,"1","Restaurants, Pizza, Salad, Chicken Wings"
"270",157713,"Ariel's Grill Point","Phoenix","AZ","85022",33.6395601368,-112.04735443,"0","Restaurants, Russian, Mediterranean, Salad, Soup, Steakhouses, Kosher"
"271",141155,"Souper Market","Cleveland","OH","44111",41.4504923693,-81.8152962638,"1","Salad, Restaurants, Vegetarian, Soup"
"272",29156,"Potbelly Sandwich Shop","Charlotte","NC","28202",35.225247,-80.84618,"1","Fast Food, Salad, Soup, Sandwiches, Restaurants, Delis"
"273",177466,"Pasteizza","Montreal-Ouest","QC","H4X 1Y8",45.4530189886,-73.6453847589,"1","Salad, Pizza, Restaurants"
"274",153827,"Nature's Kitchen","Coraopolis","PA","15108",40.495885,-80.256182,"1","Pizza, Sandwiches, Salad, Restaurants"
"275",97385,"Zaxby's Chicken Fingers & Buffalo Wings","Indian Land","SC","29707",34.935061582,-80.8365317215,"1","Restaurants, Fast Food, Salad, Chicken Wings"
"276",184616,"Laziza","Kent","OH","44240",41.1528954306,-81.3567400351,"1","Salad, Restaurants, Mediterranean, Middle Eastern, Sandwiches, Seafood"
"277",46636,"Smoothie Run - Laveen","Laveen","AZ","85339",33.3909421,-112.1675484,"1","Salad, Food, Food Trucks, Sandwiches, Juice Bars & Smoothies, Internet Cafes, Restaurants"
"278",101847,"Dagwoods Sandwichs et Salades","Montréal","QC","H3Z 1X5",45.4895058,-73.5852657,"1","Restaurants, Salad, Caterers, Sandwiches, Soup, Event Planning & Services"
"279",57025,"Social Resto Lounge","Whitby","ON","L1N 4K2",43.8779937,-78.9413965,"0","Barbeque, Salad, Nightlife, Steakhouses, Tapas Bars, Bars, Restaurants"
"280",100042,"Souk Tabule","Toronto","ON","M5A 1H7",43.653625746,-79.354342011,"1","Salad, Soup, Restaurants, Middle Eastern"
"281",71051,"Zaxby's Chicken Fingers & Buffalo Wings","Harrisburg","NC","28075",35.3230118,-80.6450522,"1","Fast Food, Restaurants, Chicken Wings, Salad"
"282",14378,"Novecento Pizzeria","Las Vegas","NV","89149",36.264773,-115.257968,"1","Restaurants, Specialty Food, Food, Italian, Pizza, Salad"
"283",108058,"Salad Creations Madison","Madison","WI","53717",43.0732387,-89.5267317,"0","Sandwiches, Vegetarian, Salad, Restaurants, Fast Food, Food"
"284",173333,"Even Stevens Sandwiches","Scottsdale","AZ","85251",33.4977607727,-111.9254760742,"0","Salad, Vegan, Breakfast & Brunch, Sandwiches, Restaurants, Vegetarian"
"285",92623,"Panera Bread","Charlotte","NC","28277",35.053051,-80.850809,"1","Bakeries, Salad, Breakfast & Brunch, Food, Bagels, Restaurants, Soup, Sandwiches"
"286",20791,"Sandwich da Marco","Montréal","QC","H1P 3C6",45.6001371,-73.5945922,"1","Salad, Sandwiches, Desserts, Restaurants, Food"
"287",60258,"NY Slicers Deli","Phoenix","AZ","85009",33.4572549,-112.1510793,"1","Sandwiches, Event Planning & Services, Salad, Delis, Caterers, Food, Restaurants"
"288",73580,"Blimpie","Gilbert","AZ","85233",33.3510132913,-111.8078096956,"0","Restaurants, Sandwiches, Salad"
"289",56114,"The Rockhouse","Las Vegas","NV","89109",36.122736,-115.170273,"1","Dive Bars, Nightlife, Hot Dogs, Mexican, Restaurants, Bars, Sports Bars, Tacos, Burgers, Salad"
"290",42319,"Panera Bread","Pittsburgh","PA","15213",40.436272,-79.958116,"1","Breakfast & Brunch, Salad, Sandwiches, Food, Soup, Bagels, Restaurants"
"291",20337,"G & G Noodle Bar","Pittsburgh","PA","15222",40.442035,-80.002556,"0","Food, Chinese, Restaurants, Asian Fusion, Dim Sum, Noodles, Bars, Sandwiches, Salad, Nightlife"
"292",53372,"MAD Greens - Tempe","Tempe","AZ","85281",33.433481,-111.901629,"1","Juice Bars & Smoothies, Food, Salad, Restaurants, Vegetarian, Wraps, Live/Raw Food, Sandwiches"
"293",187400,"Villa Toscano","Solon","OH","44139",41.3919538,-81.46453,"0","Nightlife, Pizza, Restaurants, Bars, Italian, Salad"
"294",94629,"The Mayobird","Charlotte","NC","28203",35.199882772,-80.8412359308,"1","American (New), Salad, Chicken Wings, Sandwiches, Restaurants, Soup, Food, Food Trucks"
"295",186239,"Pizza A Metro","Phoenix","AZ","85015",33.4810028,-112.1101705,"1","Italian, Pizza, Salad, Restaurants"
"296",130681,"Mandy's","Dollard-des-Ormeaux","QC","H9B 2R8",45.4853334335,-73.8014298532,"1","Salad, Restaurants"
"297",160362,"Panera Bread","Parma","OH","44129",41.384195,-81.741537,"1","Sandwiches, Salad, Soup, Restaurants"
"298",21999,"Mr Tokyo Japanese Restaurant","Charlotte","NC","28226",35.0884323424,-80.8599348945,"1","Food, Salad, Japanese, Restaurants, Sushi Bars, Desserts"
"299",12933,"Badamo's Pizza","Pittsburgh","PA","15212",40.4558035304,-80.00658983,"1","Pizza, Sandwiches, Restaurants, Salad"
"300",47155,"Caliente Pizza & Drafthouse","Pittsburgh","PA","15224",40.4620358,-79.9501025,"1","Bars, Beer Bar, Chicken Wings, Restaurants, Salad, Sandwiches, Burgers, Food, Pizza, Nightlife"
"301",45565,"Mojo Bowl","Chandler","AZ","",33.3061605,-111.8412502,"0","Restaurants, Food, Food Trucks, Specialty Food, Fruits & Veggies, Street Vendors, Salad, Juice Bars & Smoothies"
"302",168358,"Patron Mexican Grill","Pittsburgh","PA","15238",40.5123635794,-79.8798751831,"1","Mexican, Soup, Restaurants, Salad"
"303",176287,"Wolfey's Bistro & Pub","Elyria","OH","44035",41.3628817,-82.0763684,"1","Salad, American (New), Pubs, Bars, Nightlife, Restaurants"
"304",23661,"Panera Bread","Madison","WI","53717",43.0731892532,-89.5248886945,"1","Salad, Bagels, Soup, Breakfast & Brunch, Food, Restaurants, Sandwiches"
"305",168906,"Panera Bread","Las Vegas","NV","89169",36.1149599775,-115.155506283,"1","Sandwiches, Salad, Restaurants, Soup"
"306",52588,"Bob Evans","Lakewood","OH","44107",41.4852862738,-81.7911056802,"0","Breakfast & Brunch, Fast Food, Bed & Breakfast, Hotels & Travel, Food, Salad, American (Traditional), Restaurants, Comfort Food, Cambodian"
"307",13507,"Slice Factory","Champaign","IL","61820",40.1101761,-88.2293832,"0","Salad, Chicken Wings, Sandwiches, Burgers, Pizza, Restaurants"
"308",56566,"Zaxby's Chicken Fingers & Buffalo Wings","Charlotte","NC","28270",35.1407266,-80.7327663,"1","American (Traditional), Restaurants, Chicken Wings, Sandwiches, Salad, Fast Food"
"309",181165,"Siamese Bistro","Las Vegas","NV","89139",36.0450190157,-115.244142913,"0","Restaurants, Vegetarian, Thai, Chinese, Salad"
"310",22932,"Athenian Grill","Indian Trail","NC","28079",35.068953,-80.678809,"1","Specialty Food, American (Traditional), Mediterranean, Food, Greek, Sandwiches, Ethnic Food, Barbeque, Salad, Restaurants"
"311",100131,"Giordanos - Arrowhead","Peoria","AZ","85382",33.6352947,-112.2345363,"1","Pizza, Italian, Restaurants, Salad"
"312",20256,"Panera Bread","Westlake","OH","44145",41.468284,-81.909276,"1","Breakfast & Brunch, Restaurants, Salad, Soup, Sandwiches, Bakeries, Bagels, Food"
"313",56651,"Burgers 2 Beer","Lakewood","OH","44107",41.485043066,-81.7993392487,"0","Beer Bar, Bars, Salad, Chicken Wings, Comfort Food, Restaurants, Burgers, Nightlife"
"314",17170,"The Goodwich Downtown","Las Vegas","NV","89101",36.1599382942,-115.1474527177,"1","Breakfast & Brunch, Desserts, Sandwiches, Salad, Food, Street Vendors, Restaurants"
"315",68270,"Bad Daddy's Burger Bar","Charlotte","NC","28203",35.1989724,-80.8408711,"1","Nightlife, Burgers, Food, Ice Cream & Frozen Yogurt, Bars, Fast Food, Restaurants, American (Traditional), Salad"
"316",148897,"Soupçon Cochon","Montréal","QC","H2T 1A5",45.5252807861,-73.5974929109,"0","Salad, Sandwiches, Soup, Restaurants"
"317",42573,"MAD Greens - Hilton Village","Scottsdale","AZ","85250",33.5260219,-111.9245688,"1","Food, Sandwiches, Salad, Restaurants, Vegetarian, Juice Bars & Smoothies, Wraps"
"318",108052,"iQ Food","Toronto","ON","M5X 2A2",43.6483962,-79.3823242,"1","Salad, Health Markets, Gluten-Free, Fast Food, Juice Bars & Smoothies, Coffee & Tea, Restaurants, Specialty Food, Food"
"319",74855,"Umami","Chagrin Falls","OH","44022",41.430982,-81.391463,"1","Nightlife, Bars, Cocktail Bars, Salad, Asian Fusion, Seafood, Restaurants"
"320",94016,"Metro Garden","Henderson","NV","89014",36.0671229,-115.0428251,"0","Food Court, Salad, Restaurants"
"321",42130,"Terra Restaurant","Thornhill","ON","L3T 2C6",43.8277098,-79.4263009,"1","Arts & Entertainment, Nightlife, Salad, Canadian (New), Restaurants, Soup, Seafood, American (New), Jazz & Blues"
"322",184017,"The Dapper Doughnut","Las Vegas","NV","89109",36.10248,-115.17149,"1","Coffee & Tea, Food, Desserts, Salad, Donuts, Restaurants, Chicken Wings"
"323",106750,"Manuel's Mexican Restaurant & Cantina - Glendale","Glendale","AZ","85302",33.5821731,-112.1807053,"1","Restaurants, Mexican, Salad, Soup"
"324",134068,"Panera Bread","Charlotte","NC","28208",35.1829212854,-80.9157988331,"1","Restaurants, Salad, Sandwiches, Food, Breakfast & Brunch, Bakeries, Soup"
"325",26520,"Olive Garden Italian Restaurant","Monroe","NC","28110",35.0224380483,-80.5796484548,"1","Salad, Italian, Wine Bars, Restaurants, Nightlife, Bars"
"326",169811,"Papa Murphy's","Las Vegas","NV","89113",36.0572545,-115.2784568,"1","Salad, Restaurants, Pizza, Gluten-Free"
"327",138203,"Chopt Creative Salad Co.","Charlotte","NC","28277",35.0980668,-80.7802264,"1","Sandwiches, Restaurants, Do-It-Yourself Food, Salad, Food, Vegetarian"
"328",47366,"Panera Bread","Mentor","OH","44060",41.6540041778,-81.3784173131,"1","Sandwiches, Soup, Bagels, Breakfast & Brunch, Salad, Food, Restaurants"
"329",34984,"Bob Evans","Akron","OH","44333",41.1350880914,-81.6459730268,"1","Bed & Breakfast, American (Traditional), Salad, Restaurants, Comfort Food, Hotels & Travel, Breakfast & Brunch"
"330",187654,"Pei Wei","Chandler","AZ","85226",33.317803,-111.967167,"1","Restaurants, Asian Fusion, Chinese, Sushi Bars, Japanese, Fast Food, Salad, Gluten-Free"
"331",2329,"Bob Evans","Brunswick","OH","44212",41.2377666,-81.8005487323,"1","Bed & Breakfast, Breakfast & Brunch, Comfort Food, Salad, Hotels & Travel, Restaurants, American (Traditional)"
"332",3965,"The Roastery Coffee","Toronto","ON","M6K 3H5",43.6375183012,-79.4228782898,"0","Salad, Breakfast & Brunch, Coffee & Tea, Coffee Roasteries, Restaurants, Food"
"333",135144,"Sir Pizza","Wexford","PA","15090",40.61543,-80.091361,"1","Salad, Sandwiches, Pizza, Restaurants"
"334",144690,"GreenMix","Phoenix","AZ","85042",33.3792825249,-112.0328928026,"1","Restaurants, Vegetarian, Sandwiches, American (New), Salad"
"335",80165,"Village Juicery","Toronto","ON","M4P 2E7",43.7103811,-79.39851,"1","Food, Salad, Live/Raw Food, Restaurants, Juice Bars & Smoothies"
"336",8939,"Which Wich","Solon","OH","44139",41.3937329387,-81.4450567961,"0","Caterers, Restaurants, Salad, Event Planning & Services, Sandwiches"
"337",145855,"Perfect Pear Bistro","Phoenix","AZ","85048",33.3050931742,-112.0566525463,"1","Comfort Food, Food, Bars, Sandwiches, Salad, Wine Bars, Vegetarian, Nightlife, American (New), Soup, Restaurants, Beer, Wine & Spirits, Italian"
"338",172318,"California Pizza Kitchen at Summerlin","Las Vegas","NV","89135",36.151547,-115.331923,"1","American (Traditional), Nightlife, Salad, Cocktail Bars, Pizza, American (New), Restaurants, Bars"
"339",66590,"Potbelly Sandwich Shop","Toronto","ON","M5S 2V6",43.6688572,-79.3949978,"1","Soup, Sandwiches, Restaurants, Salad, Ice Cream & Frozen Yogurt, Food"
"340",178197,"Familia's Deli and Fresh Market","Newbury","OH","44065",41.4705919,-81.1966335,"0","Bakeries, Specialty Food, Italian, Salad, Food, Restaurants"
"341",60554,"Panera Bread","Phoenix","AZ","85032",33.6003666,-111.9852719,"1","Salad, Soup, Restaurants, Sandwiches"
"342",150016,"Panera Bread","Pittsburgh","PA","15236",40.3593333319,-80.0017954577,"1","Soup, Salad, Sandwiches, Restaurants"
"343",120735,"Brubaker's Pub","Stow","OH","44224",41.1800721,-81.4809642,"1","Salad, Bars, Pubs, Irish Pub, Nightlife, Restaurants, Sandwiches"
"344",142086,"Tommy's Pizza & Chicken","Strongsville","OH","44136",41.2897381,-81.8359542,"1","Seafood, Salad, Sandwiches, Restaurants, Chicken Wings, Pizza"
"345",187341,"Freshii","Toronto","ON","M5A 1L1",43.6512261293,-79.3645856157,"1","Food, Juice Bars & Smoothies, Salad, Restaurants, Fast Food, Soup"
"346",152912,"Wheat Pizza By Jay","Calgary","AB","T2M 1J2",51.070523,-114.1111611,"1","Salad, Restaurants, Italian, Pizza"
"347",125060,"Duncan St Sandwich Shop","Millvale","PA","15209",40.485159,-79.97322,"1","Restaurants, Sandwiches, Salad, American (New)"
"348",32694,"Mr Thai Bistro","Gilbert","AZ","85233",33.333774032,-111.8059325172,"1","Salad, Thai, Food, Desserts, Restaurants"
"349",163126,"Naked BBQ","Scottsdale","AZ","85258",33.579389,-111.88718,"1","Restaurants, Barbeque, Sandwiches, Salad"
"350",132273,"Westside Deli","Las Vegas","NV","89109",36.1376416,-115.1653861,"1","Salad, Sandwiches, Breakfast & Brunch, Restaurants"
"351",160049,"Mcalister's Deli","Charlotte","NC","28280",35.2261580284,-80.8435039451,"1","Restaurants, American (Traditional), Sandwiches, Food, Salad, Delis"
"352",28882,"Fresh To Order","Pineville","NC","28134",35.0821368263,-80.8772790805,"0","Restaurants, American (New), Salad, Sandwiches"
"353",47532,"Cafe Rio","Gilbert","AZ","85233",33.377308,-111.789086,"1","Restaurants, Mexican, Food, Desserts, Salad"
"354",63932,"Billy's - A Cappelli Martini Bar","Mentor","OH","44060",41.6587098309,-81.3794667274,"1","Salad, Nightlife, Restaurants, Bars, Burgers"
"355",132556,"Café By Kwin","Toronto","ON","M3J 3E5",43.7514057,-79.4641481,"0","Coffee & Tea, Food, Restaurants, Delis, Cafes, Salad"
"356",104237,"Fresh Planet","Avon","OH","44011",41.4586282,-82.0183716,"1","Restaurants, Pizza, Salad, Food, Juice Bars & Smoothies, Coffee & Tea"
"357",120109,"Zoup!","Willoughby","OH","44094",41.6271011,-81.4299227,"0","Soup, Sandwiches, Restaurants, Salad"
"358",61823,"Chefs Fitness Kitchen","Las Vegas","NV","89118",36.0820518,-115.2432648,"0","Salad, Specialty Food, Food, Restaurants, Sandwiches, Juice Bars & Smoothies"
"359",58782,"Sticky Fingers Ribhouse","Concord","NC","28027",35.369963,-80.7173096,"1","Sandwiches, Barbeque, Burgers, Salad, American (Traditional), Event Planning & Services, Restaurants, Caterers"
"360",125853,"Tokyo Joe's","Avondale","AZ","85392",33.4642303,-112.2809207,"1","Food, Poke, Japanese, Salad, Asian Fusion, Restaurants, Sushi Bars"
"361",88666,"Noodles & Company","Madison","WI","53704",43.1254079487,-89.3096987728,"1","Comfort Food, Italian, Asian Fusion, Restaurants, Noodles, Fast Food, Salad, Thai, Food"
"362",82374,"Salad and Go","Gilbert","AZ","85295",33.3067485692,-111.7207381502,"1","Salad, Breakfast & Brunch, Restaurants, Vegetarian, Fast Food"
"363",121687,"Applebee's Grill + Bar","Wadsworth","OH","44281",41.050746,-81.729462,"1","Salad, Sports Bars, Restaurants, Steakhouses, Nightlife, Bars, American (Traditional), Burgers"
"364",149873,"Olive Garden Italian Restaurant","Las Vegas","NV","89108",36.218748,-115.2444449,"1","Salad, Bars, Restaurants, Wine Bars, Italian, Nightlife"
"365",88309,"Zoup!","Avon","OH","44011",41.4590595,-82.0176979,"1","Restaurants, Sandwiches, Soup, Salad"
"366",191419,"Tropical Smoothie Cafe","Henderson","NV","89044",35.9431327,-115.1159788,"1","Salad, Restaurants, Sandwiches, Juice Bars & Smoothies, Food"
"367",86896,"Filiberto's","Scottsdale","AZ","85251",33.4800695,-111.9276922,"0","Restaurants, Breakfast & Brunch, Mexican, Salad"
"368",3063,"Yulcité","Montréal","QC","H1W 1A4",45.545507,-73.560213,"1","Sandwiches, Restaurants, Cafes, Coffee & Tea, Food, Salad"
"369",139759,"Kaleidoscope Juice","Scottsdale","AZ","85251",33.493756,-111.927603,"1","Juice Bars & Smoothies, Coffee & Tea, Health Markets, Food, Salad, Restaurants, Organic Stores, Specialty Food"
"370",48533,"Capriotti's Sandwich Shop","Phoenix","AZ","85016",33.5246905423,-112.0472096053,"1","Sandwiches, Salad, Food, Cheesesteaks, Restaurants"
"371",66935,"Local Eats","Gilbert","AZ","85298",33.2351233,-111.7225823,"1","Salad, Restaurants, Fast Food, Sandwiches, Pizza"
"372",99713,"Crunch Bistro","Charlotte","NC","28211",35.1523851,-80.8321252,"0","Restaurants, Vegetarian, Sandwiches, American (New), Food, Salad"
"373",99830,"Panera Bread","Champaign","IL","61821",40.097838,-88.275366,"1","Bagels, Sandwiches, Salad, Breakfast & Brunch, Bakeries, Soup, Restaurants, Food"
"374",84398,"Jason's Deli","Pineville","NC","28134",35.0883307956,-80.8788888757,"1","Restaurants, Salad, Sandwiches, Event Planning & Services, Delis, Caterers"
"375",90406,"ProteinHouse","Las Vegas","NV","89123",36.0161317,-115.1195258,"1","Restaurants, Specialty Food, Health Markets, Food, Salad, American (New), Burgers, American (Traditional), Juice Bars & Smoothies"
"376",173879,"Carmine's Italian Restaurant - Las Vegas","Las Vegas","NV","89109",36.1193209467,-115.1752004472,"1","Caterers, Venues & Event Spaces, Event Planning & Services, Food, Salad, Restaurants, Seafood, Italian, Desserts"
"377",92467,"Dairy Queen","Chandler","AZ","85225",33.3191231,-111.8419541,"0","Burgers, Sandwiches, Restaurants, Salad"
"378",155132,"Three Brothers Restaurant","Etobicoke","ON","M8Y 1K8",43.6270685,-79.4985962,"1","Soup, Restaurants, Barbeque, Canadian (New), Salad, Mediterranean, Nightlife, Modern European, Bars"
"379",129215,"Rhythm and Wine","Scottsdale","AZ","85255",33.6967974,-111.9160587,"1","Salad, Bars, American (New), Nightlife, Restaurants"
"380",7209,"The Kitchen By Wolfgang Puck","Calgary","AB","T2E 3B9",51.1300685421,-114.0031341423,"1","Nightlife, Bars, Wine Bars, Salad, Sports Bars, Breakfast & Brunch, Restaurants, Pizza"
"381",163650,"GreenMix","Phoenix","AZ","85048",33.3037326,-111.9987787,"0","Salad, Restaurants, Sandwiches, Asian Fusion, American (Traditional), Food"
"382",105673,"Pizza Parma","Pittsburgh","PA","15206",40.458398,-79.924797,"1","Chicken Wings, Pizza, Restaurants, Salad"
"383",99032,"Capriotti's Sandwich Shop","Las Vegas","NV","89117",36.1445189,-115.2757054,"1","Restaurants, Vegetarian, Salad, Sandwiches"
"384",184415,"RedWood Cafe","Pittsburgh","PA","15228",40.38023,-80.04489,"0","Sandwiches, Salad, Restaurants, Cafes, American (Traditional), American (New)"
"385",182982,"Panago Pizza","Etobicoke","ON","M8V 0E3",43.621964,-79.4819714,"1","Pizza, Restaurants, Chicken Wings, Salad"
"386",18772,"Oliva","Toronto","ON","M2N 5M3",43.758441714,-79.4097858667,"1","Cafes, Restaurants, Breakfast & Brunch, Salad, Sandwiches"
"387",174410,"Franktuary","Pittsburgh","PA","15222",40.4410869,-80.0033104,"0","Restaurants, Vegetarian, Poutineries, Salad, Hot Dogs"
"388",162051,"Bae Bae's Kitchen","Pittsburgh","PA","15222",40.4435133921,-79.9961381391,"1","Asian Fusion, Korean, Restaurants, Salad, Pan Asian, Vegan, Cafes, Vegetarian"
"389",123456,"Filiberto's Mexican Food","Peoria","AZ","85345",33.6115633,-112.2380524,"1","Mexican, Restaurants, Salad, Breakfast & Brunch"
"390",29203,"Helbachs Coffee House","Madison","WI","53719",43.059632,-89.5135344,"1","Breakfast & Brunch, Food, Sandwiches, Restaurants, Salad, Coffee & Tea, Cafes, Juice Bars & Smoothies"
"391",169655,"The Habit Burger Grill","Gilbert","AZ","85295",33.297363,-111.747581,"1","Restaurants, Burgers, Sandwiches, Salad"
"392",110260,"Panera Bread","Scottsdale","AZ","85253",33.5648452339,-111.9255567892,"1","Restaurants, Soup, Salad, Sandwiches"
"393",91033,"McAlister's Deli","Charlotte","NC","28262",35.3404692,-80.7652824,"1","Salad, Sandwiches, Delis, Restaurants, American (Traditional)"
"394",71350,"Panera Bread","Peoria","AZ","85382",33.6377710596,-112.222918421,"1","Sandwiches, Soup, Cafes, Bakeries, Salad, Food, Restaurants"
"395",96813,"Flower Child","Las Vegas","NV","89145",36.1606177,-115.2923743,"1","Vegetarian, Salad, American (New), Restaurants"
"396",38054,"Cherubs Cafe","Belmont","NC","28012",35.2431432,-81.0380722,"1","Cafes, Restaurants, Salad, Sandwiches"
"397",122281,"Mexicasa Restaurant and Grill","Harrisburg","NC","28075",35.320986,-80.6518988,"1","Salad, Restaurants, Mexican, Desserts, Food"
"398",160422,"Even Stevens Sandwiches","Phoenix","AZ","85018",33.495285,-111.995708,"0","Breakfast & Brunch, Restaurants, Salad, Sandwiches"
"399",84267,"Olive Garden Italian Restaurant","Monroeville","PA","15146",40.4340368,-79.7869004,"1","Bars, Restaurants, Wine Bars, Italian, Salad, Nightlife"
"400",86877,"Jimmy John's","Las Vegas","NV","89103",36.1151285024,-115.2015052937,"1","Restaurants, Fast Food, Delis, Salad, Sandwiches, French"
"401",16493,"Rustico Express","Laval","QC","H7L 3N5",45.5921332918,-73.7379011848,"1","Restaurants, Salad, Pizza, Sandwiches"
"402",17526,"Pita Bistro","Phoenix","AZ","85040",33.4045844,-111.9791782,"1","Bars, Nightlife, Food, Juice Bars & Smoothies, Salad, Beer, Wine & Spirits, Mediterranean, Wine Bars, Middle Eastern, Restaurants"
"403",20521,"Trish Juice","Mississauga","ON","L5S 1V3",43.6937715,-79.6555611,"1","Juice Bars & Smoothies, Restaurants, Food, Salad, Coffee & Tea, Cafes, Bubble Tea"
"404",102597,"B Spot","Strongsville","OH","44136",41.314329,-81.828073,"1","Restaurants, American (New), Salad, Burgers"
"405",142650,"Sinful Subs","Las Vegas","NV","89148",36.095079394,-115.2981827135,"1","Restaurants, Sandwiches, Salad"
"406",31179,"Panera Bread","Pittsburgh","PA","15232",40.456066,-79.937436,"1","Soup, Food, Sandwiches, Breakfast & Brunch, Salad, Bagels, Restaurants"
"407",15673,"Tropical Smoothie Cafe","Chandler","AZ","85248",33.2466399642,-111.8666845188,"1","Caterers, Thai, Sandwiches, Breakfast & Brunch, Salad, Food, Juice Bars & Smoothies, Restaurants, Event Planning & Services"
"408",88022,"Kale & Clover","Scottsdale","AZ","85255",33.6720474085,-111.9050600585,"1","Restaurants, American (New), Sandwiches, Salad"
"409",59141,"Pizzario Phoenix","Phoenix","AZ","85034",33.4229091,-112.0349956,"1","Pasta Shops, Chicken Wings, Restaurants, Pizza, Caterers, American (New), Burgers, Event Planning & Services, Desserts, Food Delivery Services, Food, Sandwiches, Italian, Specialty Food, Breakfast & Brunch, Salad"
"410",179163,"McAlister's Deli","Cleveland","OH","44135",41.4074950114,-81.8412238064,"0","Restaurants, Sandwiches, Salad, Delis"
"411",120038,"Liberty Shawarma","Toronto","ON","M4M 1H2",43.65917,-79.349169,"1","Salad, Restaurants, Sandwiches, Fast Food"
"412",38891,"Penn Station East Coast Subs","Cleveland","OH","44130",41.390989,-81.760691,"1","Cheesesteaks, Salad, Sandwiches, Restaurants"
"413",156129,"Nama Sushi","Toronto","ON","M6C 1B5",43.6813834,-79.42814,"1","Salad, Soup, Sushi Bars, Restaurants"
"414",160498,"The Best Ever Subs and More","Phoenix","AZ","85050",33.676354,-111.9736513,"0","Food, Sandwiches, Salad, Pizza, Restaurants"
"415",93182,"Blaze Fast-Fire'd Pizza","Calgary","AB","T1Y 7L8",51.0766831854,-113.9862189762,"1","Restaurants, Salad, Gluten-Free, Pizza, Fast Food"
"416",22845,"Bistro Merlot","Pierrefonds","QC","H9K 1M7",45.4520651,-73.887346,"0","Salad, Restaurants, Asian Fusion, Caterers, Pizza, Event Planning & Services, Vietnamese"
"417",172587,"Fleming's Prime Steakhouse & Wine Bar - Charlotte","Charlotte","NC","28202",35.2254656104,-80.8430188493,"1","Wine Bars, Nightlife, Steakhouses, Restaurants, Bars, Seafood, Salad"
"418",168104,"Planta","Toronto","ON","M5R 3P5",43.6702150962,-79.3894335574,"1","Salad, Restaurants, Bars, Vegan, Nightlife, Tapas/Small Plates, Pizza, Vegetarian, Cocktail Bars"
"419",43152,"Gianni's Pizza - Hankey Farms/Oakdale","Oakdale","PA","15071",40.4401689,-80.2104237,"1","Fast Food, Pizza, Food Delivery Services, Sandwiches, Food, Restaurants, Salad, Chicken Wings"
"420",183461,"Sammiches Bistro","Phoenix","AZ","85023",33.626378,-112.1002165,"0","Specialty Food, Food Delivery Services, Restaurants, Cafes, Food, Salad, Burgers, Sandwiches"
"421",45760,"Showmars Emerywood","Charlotte","NC","28210",35.1569996,-80.8754182,"1","Burgers, Salad, Restaurants, American (New), Sandwiches"
"422",133930,"Potbelly Sandwich Shop","Phoenix","AZ","85004",33.447811,-112.072741,"1","Delis, Fast Food, Soup, Sandwiches, Restaurants, Salad"
"423",123649,"Panera Bread","Solon","OH","44139",41.392065,-81.442852,"1","Sandwiches, Food, Bagels, Salad, Breakfast & Brunch, Soup, Bakeries, Restaurants, Cafes"
"424",81770,"Vermont Sandwich Co","Scottsdale","AZ","85260",33.6396513,-111.8913939,"0","Sandwiches, Vegetarian, Restaurants, Breakfast & Brunch, Food, Soup, Salad, Bagels"
"425",141810,"Frijoles & Frescas","Las Vegas","NV","89104",36.1566045,-115.0621835,"1","Restaurants, Salad, Caterers, Event Planning & Services, Seafood, Mexican, Tacos"
"426",73276,"Green Corner Restaurant","Mesa","AZ","85210",33.3944462,-111.8541105,"1","Restaurants, Greek, Mediterranean, Halal, Arabian, Salad, Sandwiches"
"427",59479,"Le Déjeuner Cosmopolitain","Montréal","QC","H1S 2P3",45.5752884,-73.5925686,"1","Salad, Restaurants, Sandwiches, Creperies, Breakfast & Brunch"
"428",38504,"Olive Garden Italian Restaurant","Scottsdale","AZ","85254",33.598052694,-111.9764364986,"1","Italian, Salad, Nightlife, Restaurants, Bars, Wine Bars"
"429",48976,"Chicken Salad Chick of Charlotte - Pineville Matthews","Charlotte","NC","28226",35.086498,-80.8482169,"1","Chicken Wings, Cafes, Sandwiches, Chicken Shop, Salad, Delis, Food, Specialty Food, Southern, Restaurants, American (Traditional)"
"430",7084,"Le Particulier","Montréal","QC","H3A 1L8",45.5049436,-73.5710917,"1","Sandwiches, Salad, Restaurants, Breakfast & Brunch"
"431",110003,"Boccone Trattoria Veloce","Mississauga","ON","L5P 1B2",43.6795643012,-79.616850814,"1","Italian, Pizza, Salad, Restaurants"
"432",99459,"The Pizza Company","Munhall","PA","15120",40.3857336,-79.9033037,"1","Salad, Pizza, Restaurants"
"433",7748,"The Grover Pub","Toronto","ON","M4E 1R4",43.6792427,-79.297302,"1","Food, Bars, Pubs, Nightlife, Beer, Wine & Spirits, Restaurants, Salad, Comfort Food, Pizza"
"434",179039,"Naf Naf Grill","Independence","OH","44131",41.3943470747,-81.643169474,"1","Restaurants, Mediterranean, Salad, Falafel, Middle Eastern"
"435",121532,"The Chopped Leaf","Calgary","AB","",50.9810085587,-114.0398606086,"1","Soup, Salad, Fast Food, Restaurants"
"436",135958,"Milano's Pizza","Allison Park","PA","15101",40.553858,-79.957986,"1","Restaurants, Salad, Chicken Wings, Pizza"
"437",128364,"Culture's Restaurant","Etobicoke","ON","M9C 1B8",43.6116933,-79.557183,"1","Sandwiches, Restaurants, Salad"
"438",176694,"Café Zupas","Phoenix","AZ","85016",33.508736,-112.041489,"1","Restaurants, American (New), Salad, Soup, Sandwiches"
"439",15064,"Bob Evans","Amherst","OH","44001",41.4154886725,-82.2095829248,"1","Bed & Breakfast, Comfort Food, Salad, Breakfast & Brunch, American (Traditional), Hotels & Travel, Restaurants"
"440",78307,"Anntony's Caribbean Cafe","Charlotte","NC","28269",35.3354357,-80.7962394,"1","Restaurants, Chicken Wings, Barbeque, Caribbean, Seafood, Salad"
"441",142520,"Sushi Cruise","Las Vegas","NV","89121",36.0992819148,-115.1142206111,"1","Salad, Restaurants, Japanese, Sushi Bars"
"442",28567,"AJ Bambino Pizzeria","Coraopolis","PA","15108",40.5130958557,-80.2158889771,"1","Salad, Pizza, Italian, Food, Restaurants"
"443",46443,"Souvlaki Hut","Toronto","ON","M9B 1B1",43.636386,-79.540239,"1","Salad, Restaurants, Greek"
"444",134586,"Breakfastime","Concord","NC","28027",35.3967666522,-80.6091826344,"1","Breakfast & Brunch, Restaurants, Sandwiches, Salad"
"445",155139,"Tom + Chee","Broadview Heights","OH","44147",41.3145655,-81.6582629,"1","Salad, Soup, Sandwiches, Restaurants"
"446",13025,"Smashburger","Phoenix","AZ","85050",33.6759907223,-111.9708819669,"1","American (Traditional), Salad, Hot Dogs, Restaurants, Burgers, Sandwiches, Chicken Wings"
"447",103676,"Zoup!","Warrensville Heights","OH","44122",41.4470864803,-81.4972728027,"1","Soup, Restaurants, Salad, Sandwiches"
"448",177805,"Freshii","Toronto","ON","M5H 3X7",43.6478537168,-79.3829644359,"1","Salad, Restaurants, Food Court, Food, Soup, Juice Bars & Smoothies"
"449",100299,"Frais & Fresh","Montréal","QC","H2Y",45.4989482,-73.5540371,"1","Restaurants, Salad, Soup, Sandwiches, Health Markets, Specialty Food, Food"
"450",62121,"Panera Bread","Medina","OH","44256",41.16388,-81.861382,"1","Salad, Food, Sandwiches, Bagels, Restaurants, Soup, Breakfast & Brunch"
"451",141102,"Jean's Vegetarian Kitchen","Toronto","ON","M4J 1M6",43.6819991,-79.3307375,"0","Salad, Malaysian, Vegetarian, Noodles, Thai, Restaurants"
"452",11530,"Labarake - Caserne à Manger","Montréal","QC","H1W 1A3",45.5449080404,-73.5611579756,"1","Canadian (New), Restaurants, Brasseries, Salad"
"453",469,"Potbelly Sandwich Shop","Cleveland","OH","44106",41.509531,-81.604837,"1","Food, Italian, Breakfast & Brunch, Sandwiches, Fast Food, Delis, Salad, Restaurants, Juice Bars & Smoothies, Soup, Desserts"
"454",91917,"Inspire Restaurant","Markham","ON","L3P 5T3",43.8792378,-79.2614496,"1","French, Asian Fusion, Breakfast & Brunch, Restaurants, Salad, American (Traditional), Canadian (New)"
"455",160761,"Panera Bread","Champaign","IL","61820",40.138507,-88.243173,"1","Breakfast & Brunch, Bagels, Restaurants, Soup, Food, Coffee & Tea, Salad, Sandwiches, Bakeries"
"456",115507,"Blaze Fast-Fire'd Pizza","Las Vegas","NV","89130",36.2717805646,-115.2071982663,"1","Restaurants, Pizza, Salad, Gluten-Free, Fast Food"
"457",25119,"Max & Erma's","Pittsburgh","PA","15220",40.3932957,-80.0656653,"0","American (New), American (Traditional), Restaurants, Salad, Sandwiches, Burgers"
"458",50077,"Sea Salt Brazilian Grill","Monroe","NC","28110",35.0035317,-80.5536603,"0","Latin American, Restaurants, Salad, Steakhouses, Brazilian"
"459",68380,"Delicious by Aldu Dominican Cuisine","Gilbert","AZ","85296",33.3346675,-111.7844293,"1","Burgers, Beer, Wine & Spirits, Sandwiches, Latin American, Nightlife, Salad, Breakfast & Brunch, Dominican, Soup, Restaurants, Caribbean, Food, Bars"
"460",127666,"Revolution Pizza","Charlotte","NC","28204",35.2126987312,-80.8343228325,"0","Pizza, Restaurants, Sandwiches, Salad"
"461",41136,"Salad and Go","Phoenix","AZ","85014",33.5236942821,-112.0643750578,"1","Fast Food, Restaurants, Food, Salad"
"462",51610,"Danny Boys Pizza","North Olmsted","OH","44070",41.4286635,-81.889234,"1","Pizza, Italian, Restaurants, Bars, Salad, Sandwiches, Nightlife"
"463",154734,"Richardson's","Phoenix","AZ","85016",33.5303926,-112.0470548,"1","Tex-Mex, Mexican, New Mexican Cuisine, Restaurants, Salad, Breakfast & Brunch"
"464",108402,"Olive Garden Italian Restaurant","Chandler","AZ","85226",33.3062186132,-111.900707583,"1","Wine Bars, Restaurants, Nightlife, Bars, Italian, Salad"
"465",164494,"Panera Bread","Charlotte","NC","28207",35.201751,-80.824406,"1","Bagels, Food, Salad, Breakfast & Brunch, Coffee & Tea, Soup, Sandwiches, Delis, Restaurants"
"466",82129,"Binion's Deli","Las Vegas","NV","89101",36.1716327,-115.1442634,"1","Sandwiches, Salad, Hot Dogs, Delis, Restaurants, Food Stands, American (New)"
"467",6187,"Salad and Go","Phoenix","AZ","85024",33.6773128536,-112.0311940344,"1","Salad, Wraps, Restaurants, Juice Bars & Smoothies, Food"
"468",23907,"Subway","Mesa","AZ","85205",33.4363595614,-111.6849864765,"1","Sandwiches, Salad, Restaurants, Fast Food"
"469",155484,"Red Robin Gourmet Burgers and Brews","Surprise","AZ","85374",33.6382058,-112.3625793,"1","Restaurants, American (New), Soup, Burgers, Salad"
"470",114396,"Great Harvest Bread Company","Mentor","OH","44060",41.6796,-81.300898,"1","Restaurants, Sandwiches, Food, Bakeries, Salad"
"471",127556,"Sweet Tomatoes","Peoria","AZ","85382",33.6375975506,-112.2223644995,"1","Restaurants, Soup, Salad, Buffets, Vegetarian"
"472",65729,"Fired Pie","Scottsdale","AZ","85260",33.6194863,-111.8984525,"1","Salad, Pizza, Restaurants, Fast Food"
"473",176190,"Zaxby's Chicken Fingers & Buffalo Wings","Rock Hill","SC","29730",34.9767735,-80.9853159,"1","Southern, Restaurants, Chicken Wings, Salad, Fast Food"
"474",81464,"East End Café","Pittsburgh","PA","15208",40.4481638,-79.8984078,"0","Sandwiches, Salad, Ice Cream & Frozen Yogurt, Food, Restaurants, American (Traditional), Cafes"
"475",21120,"Sambino's Pizza","Elyria","OH","44035",41.3747225,-82.0874093,"1","Restaurants, Beer, Wine & Spirits, Caterers, Event Planning & Services, Desserts, Food Delivery Services, Pizza, Salad, Chicken Wings, Food"
"476",15710,"HealthFare Restaurant","Calgary","AB","T2P 4H4",51.049475,-114.06744,"1","Fast Food, Juice Bars & Smoothies, Food Court, Salad, Restaurants, Food, Gluten-Free, Specialty Food, Health Markets"
"477",150233,"Greenfield's Deli","Mesa","AZ","85206",33.3919569997,-111.7356869038,"1","Salad, Sandwiches, Restaurants, Delis"
"478",105093,"Otago","Montréal","QC","H4P 2H2",45.4963564,-73.6556237,"1","International, Cafes, Restaurants, Diners, Mediterranean, Pizza, Salad, Caterers, Thai, Event Planning & Services, Seafood"
"479",74753,"Wild Wing Cafe","Gastonia","NC","28056",35.2583385634,-81.1147454386,"1","Sandwiches, Salad, Restaurants, Chicken Wings"
"480",145639,"Sittoo's Pita & Salads","Parma","OH","44129",41.402938,-81.7349979,"1","Lebanese, Pizza, Mediterranean, Salad, Restaurants, Halal, Falafel, Middle Eastern"
"481",169558,"Freshii","Calgary","AB","T2X 0M5",50.9044201,-114.0585674,"1","Salad, Food, Juice Bars & Smoothies, Restaurants, Breakfast & Brunch, Grocery"
"482",75257,"Rosallie","Las Vegas","NV","89118",36.0780831,-115.2421295,"1","Food, Macarons, Bakeries, French, Specialty Food, Restaurants, Salad, Breakfast & Brunch, Sandwiches"
"483",107056,"Famous Toastery","Charlotte","NC","28262",35.310253,-80.749391,"1","Soup, Restaurants, Event Planning & Services, Salad, Breakfast & Brunch, Caterers, American (Traditional), Fast Food"
"484",44726,"Tilted Kilt Pub & Eatery","Madison","WI","53774",43.059441,-89.501962,"0","Salad, Nightlife, Fast Food, Pubs, Food, Beer, Wine & Spirits, Bars, American (New), Restaurants"
"485",36200,"The Cheesecake Factory","Las Vegas","NV","89106",36.1661416,-115.1563999,"1","Restaurants, Desserts, Salad, Breakfast & Brunch, Seafood, American (Traditional), American (New), Food"
"486",84284,"Asian Roll & Grill","Tega Cay","SC","29708",35.0474998,-80.9918989,"1","Salad, Restaurants, Japanese, Asian Fusion"
"487",67509,"Michigan & Trumbull","Pittsburgh","PA","15212",40.451505,-80.006028,"1","Pizza, Nightlife, Breakfast & Brunch, Gluten-Free, Restaurants, Bars, Food, Desserts, Salad"
"488",124976,"East Coast Wings & Grill","Waxhaw","NC","28173",34.9552617,-80.7591402,"1","Salad, Food, Chicken Wings, Soup, American (Traditional), Desserts, Tex-Mex, Restaurants"
"489",71757,"Potbelly Sandwich Shop","Scottsdale","AZ","85260",33.62767,-111.891829,"1","Fast Food, Sandwiches, Restaurants, Delis, Salad, Soup"
"490",104507,"Disilva's Pizzeria","Pittsburgh","PA","15227",40.3738079,-79.9758046,"1","Salad, Sandwiches, Food Delivery Services, Restaurants, Pizza, Food"
"491",188592,"Fresh Millions Restaurant","Mesa","AZ","85210",33.3906785,-111.855264,"0","Noodles, Sandwiches, Salad, American (New), Restaurants, Wraps"
"492",88541,"Baidu China Bistro","Las Vegas","NV","89139",36.049805,-115.244096,"1","Salad, Chinese, Restaurants"
"493",50937,"The Melting Pot - Madison","Madison","WI","53719",43.057148,-89.500764,"1","Food, Restaurants, Venues & Event Spaces, Fondue, Event Planning & Services, Desserts, Salad"
"494",79065,"Adela's Italian","Phoenix","AZ","85018",33.4798522483,-111.9939477876,"1","Italian, Restaurants, Salad"
"495",188887,"Souper Salad","Phoenix","AZ","85032",33.5989263,-111.9814759,"0","Restaurants, Salad, Buffets"
"496",109968,"Cultures","Mississauga","ON","L5B 2C9",43.5930784,-79.6424911,"1","Breakfast & Brunch, Restaurants, Salad"
"497",177832,"Mandy's","Montréal","QC","H3G 2C1",45.49847,-73.5777443,"1","Soup, Salad, Restaurants, Cafes"
"498",44929,"Pancho & Lefty's","Stow","OH","44224",41.157987,-81.4435851,"1","Mexican, Salad, Soup, Restaurants"
"499",144679,"Rubio's","Scottsdale","AZ","85260",33.628167692,-111.8914398462,"1","Fast Food, Seafood, Event Planning & Services, Salad, Restaurants, Mexican, Caterers"
"500",162667,"Boney Fingers BBQ","Cleveland","OH","44114",41.4999744,-81.6902403,"1","Event Planning & Services, Barbeque, Salad, Breakfast & Brunch, Restaurants, Caterers"
"501",98229,"Ori'Zaba's Scratch Mexican Grill","Las Vegas","NV","89121",36.115599,-115.102283,"1","Salad, Caterers, Event Planning & Services, Mexican, Restaurants, Tacos, Breakfast & Brunch"
"502",170925,"Panera Bread","Willoughby","OH","44094",41.627283,-81.431397,"1","Food, Coffee & Tea, Soup, Bagels, Restaurants, Breakfast & Brunch, Sandwiches, Salad"
"503",132840,"La Prep","Rocky View","AB","T4A 0G3",51.2032209,-113.9930715,"1","Sandwiches, Breakfast & Brunch, Restaurants, Salad"
"504",153927,"Papa Murphy's","Sun City","AZ","85351",33.6009748,-112.287967,"1","Pizza, Restaurants, Salad"
"505",42223,"Hof Kelsten","Montréal","QC","H2T 1N4",45.5203886,-73.5870333,"1","Salad, Soup, Restaurants, Bakeries, Sandwiches, Cafes, Food"
"506",64395,"Panera Bread","Las Vegas","NV","89102",36.1456186,-115.1725657,"1","Food, Sandwiches, Restaurants, Bakeries, Salad, Soup"
"507",53610,"California Pizza Kitchen at The Park","Las Vegas","NV","89109",36.103232,-115.175263,"1","Pizza, Restaurants, American (New), American (Traditional), Salad"
"508",86182,"Pizza Five85","Chandler","AZ","85226",33.317422,-111.968815,"0","Italian, Pizza, Salad, Restaurants"
"509",61792,"Cafe 808","Pittsburgh","PA","15222",40.4433448,-79.9988448,"1","Event Planning & Services, Coffee & Tea, Caterers, Restaurants, Food, Salad, Sandwiches"
"510",69767,"Wendy's","Toronto","ON","M3J 3N2",43.7858417,-79.4750685,"1","Salad, Burgers, Fast Food, Restaurants"
"511",86777,"Cafe Rio","Chandler","AZ","85249",33.2472965771,-111.7886913554,"1","Food, Restaurants, Mexican, Salad, Desserts"
"512",126665,"Salt & Lime Modern Mexican Grill","Scottsdale","AZ","85260",33.581606,-111.878578,"1","Food, Restaurants, Salad, Mexican, Beer, Wine & Spirits"
"513",151995,"Gaslight Cafe","Glendale","AZ","85301",33.5383147,-112.1833071,"0","Salad, Restaurants, Sandwiches, Cafes, Food, Cocktail Bars, Nightlife, Tea Rooms, Bars"
"514",96736,"Pizza La Rosa","Toronto","ON","M1T 1A3",43.7725733,-79.3218593,"1","Fast Food, Italian, Sandwiches, Salad, Restaurants, Halal, Pizza"
"515",34629,"Tea House Noodles","Cleveland","OH","44114",41.5005885,-81.6897623,"0","Asian Fusion, Tea Rooms, Food, Salad, Chinese, Thai, Restaurants, Noodles, Fast Food"
"516",101663,"Pizza Bellino","Pittsburgh","PA","15217",40.4382722,-79.9213674,"1","Pizza, Chicken Wings, Restaurants, Salad, Mediterranean"
"517",32432,"Anaya's Eatery","Brampton","ON","L6T 0C2",43.726828,-79.666284,"0","Restaurants, Breakfast & Brunch, Salad, Soup, Coffee & Tea, Burgers, Food"
"518",69198,"Coaltrane's Char Grill","Charlotte","NC","28202",35.2253792,-80.8419644,"0","Empanadas, Latin American, Restaurants, Food, Salad"
"519",31878,"Panera Bread","Pittsburgh","PA","15205",40.4403206,-80.1492465,"1","Soup, Bagels, Food, Breakfast & Brunch, Sandwiches, Salad, Restaurants"
"520",140418,"Jackson's Bar & Grill","Las Vegas","NV","89103",36.115196,-115.224077,"1","Salad, Bars, American (Traditional), Restaurants, Arts & Entertainment, Nightlife, Sports Bars, Casinos"
"521",68206,"Morning Glory Cafe","Phoenix","AZ","85042",33.3911323993,-112.0165380424,"1","Breakfast & Brunch, Food, Sandwiches, Salad, Restaurants, American (New), Coffee & Tea"
"522",23735,"Bella Vita","Goodyear","AZ","85338",33.3174159,-112.43874,"0","Salad, Desserts, Food, Tapas/Small Plates, Restaurants, Italian"
"523",192605,"Surang's Thai Kitchen","Las Vegas","NV","89148",36.089771,-115.297907,"1","Thai, Restaurants, Salad, Soup"
"524",79020,"Pisa Pizza","Las Vegas","NV","89109",36.1143130753,-115.1724348439,"1","Restaurants, Pizza, Fast Food, Salad"
"525",119901,"Blaze Fast-Fire'd Pizza","Champaign","IL","61822",40.1472094,-88.25494,"1","Fast Food, Pizza, Restaurants, Salad"
"526",23381,"Even Stevens Sandwiches","Phoenix","AZ","85003",33.4510721,-112.0747304,"1","Restaurants, Gluten-Free, Breakfast & Brunch, Salad, Sandwiches"
"527",159449,"Panera Bread","Amherst","OH","44001",41.4127637372,-82.2394618394,"1","Salad, Sandwiches, Breakfast & Brunch, Bakeries, Restaurants, Cafes, Soup, Bagels, Food"
"528",25222,"Sal's Pizza","Tempe","AZ","85281",33.4153899,-111.9251413,"1","Salad, Pizza, Food, Desserts, Restaurants"
"529",79687,"Mulligans Sports Bar & Grille","Fort Mill","SC","29715",34.996728911,-80.966778025,"1","Sports Bars, Burgers, Salad, Chicken Wings, Wraps, American (Traditional), Nightlife, Seafood, Restaurants, Bars"
"530",34149,"Henry's Fish & Chips","Brampton","ON","L6V 4A3",43.6931201,-79.7683854,"1","Salad, Seafood, Restaurants, Fish & Chips"
"531",47235,"Big B's Texas BBQ","Henderson","NV","89052",36.003414165,-115.1175117865,"1","Sandwiches, Restaurants, Salad, American (Traditional), Southern, Barbeque"
"532",188739,"Vanak Restaurant","Toronto","ON","M2M 3W5",43.7898425,-79.4180592,"1","Restaurants, Fast Food, Sandwiches, Salad, Food"
"533",37590,"330 Takeout","Toronto","ON","M5H 2S8",43.6499932,-79.3811834,"1","Sandwiches, Food, Restaurants, Coffee & Tea, Salad"
"534",124994,"The Soup Pot","Solon","OH","44139",41.3846427,-81.4352995,"0","Salad, Soup, Restaurants, Sandwiches"
"535",10871,"Cracker Barrel Old Country Store","Phoenix","AZ","85027",33.6817121,-112.114006,"1","Comfort Food, Event Planning & Services, American (Traditional), Caterers, Salad, Grocery, Breakfast & Brunch, Desserts, Food, Restaurants, Southern"
"536",12182,"Panera Bread","North Olmsted","OH","44070",41.418357,-81.911685,"1","Breakfast & Brunch, Restaurants, Bagels, Food, Salad, Soup, Cafes, Bakeries, Sandwiches"
"537",55195,"Johnny's","Wilmerding","PA","15148",40.3927887,-79.8100605,"1","Restaurants, Salad, Italian, American (Traditional), Soup"
"538",109739,"Wings University","Rock Hill","SC","29732",34.9620231,-81.0023698,"0","Restaurants, Salad, Sandwiches, Chicken Wings"
"539",127265,"Vento's Pizza","Pittsburgh","PA","15206",40.4652748,-79.9221357,"1","Sandwiches, Italian, Salad, Pizza, Restaurants"
"540",163616,"Nicastro's Public House","Calgary","AB","T2E 2V8",51.0778425,-114.0625035,"0","Restaurants, Burgers, Salad, Nightlife, Bars, Pubs"
"541",83123,"Blueberry Hill Family Restaurant ","Las Vegas","NV","89103",36.1149483,-115.2075811,"1","Salad, Bars, Nightlife, Food, Bakeries, Desserts, American (Traditional), American (New), Restaurants, Breakfast & Brunch"
"542",37626,"JJ's Red Hots - Uptown","Charlotte","NC","28285",35.2252005,-80.8473796,"1","Restaurants, Hot Dogs, American (Traditional), Salad"
"543",7792,"Schlotzky's Bakery Cafe","Mesa","AZ","85205",33.436652,-111.721088,"1","Salad, Delis, Italian, Restaurants"
"544",37883,"Health-A-Licious","Penn Hills Township","PA","",40.4729882325,-79.8202362657,"1","Soup, Food, Food Trucks, Salad, Restaurants, Wraps"
"545",126011,"Zaxby's Chicken Fingers & Buffalo Wings","Mint Hill","NC","28227",35.1700669,-80.6616717,"1","Fast Food, Restaurants, Salad, Chicken Wings"
"546",168857,"Smashburger","Charlotte","NC","28209",35.1703766,-80.8512498,"1","Restaurants, Salad, Burgers, American (Traditional)"
"547",117536,"Farmer Boys","Las Vegas","NV","89149",36.2710057,-115.2643925,"1","Sandwiches, Mexican, Breakfast & Brunch, Salad, Burgers, Restaurants, Diners, American (Traditional)"
"548",142941,"TRUE Crafted Pizza","Charlotte","NC","28277",35.0607983043,-80.8172035334,"1","Food, Restaurants, Salad, Soup, Pizza, Sandwiches"
"549",79205,"Little Shmiddy's Hot Meat House","Toronto","ON","M4X 1P8",43.6679145,-79.369457,"0","Breakfast & Brunch, Tapas/Small Plates, Restaurants, Canadian (New), Salad, Steakhouses"
"550",183625,"Veranda Bistro & Bar","Avon","OH","44011",41.4576201,-81.9698005,"1","Bars, Salad, Nightlife, Restaurants, Sandwiches, American (New), Soup, French"
"551",81204,"Original ChopShop","Phoenix","AZ","85028",33.5834399,-111.9768301,"1","Breakfast & Brunch, American (New), Juice Bars & Smoothies, Restaurants, Food, Salad"
"552",119919,"Filiberto's Mexican Food","Mesa","AZ","85205",33.4160454,-111.6863577,"1","Restaurants, Salad, Mexican"
"553",2146,"Z'Tejas Southwestern Grill","Phoenix","AZ","85028",33.5834449,-111.9770187,"1","Nightlife, Bars, Salad, Food, Restaurants, Mexican, Tex-Mex, Desserts"
"554",125951,"Schlotzsky's","Mesa","AZ","85210",33.382765,-111.8405779,"1","Restaurants, Delis, Fast Food, Sandwiches, Salad, Pizza"
"555",54551,"3 Steps Up","Whitby","ON","L1N 8R2",43.8873375016,-78.9448933989,"1","Coffee & Tea, Restaurants, Sandwiches, Salad, Food"
"556",135468,"Panera Bread","Toronto","ON","M3C 0H8",43.734813402,-79.3440060318,"1","Salad, Soup, Restaurants, Bagels, Food, Sandwiches, Breakfast & Brunch"
"557",97959,"Getto Boys","Calgary","AB","T2M 0J8",51.0672669118,-114.0775938705,"0","Pizza, Sandwiches, Burgers, Salad, Restaurants"
"558",179825,"Green Corner Restaurant","Chandler","AZ","85248",33.2606034,-111.8598861,"1","Greek, Middle Eastern, Restaurants, Sandwiches, Mediterranean, Salad"
"559",149691,"Panera Bread","Brunswick","OH","44212",41.237308923,-81.8128332496,"1","Salad, Restaurants, Soup, Sandwiches"
"560",108073,"Best Taste Restaurant","Glendale","AZ","85301",33.5232614,-112.2013274,"0","Sandwiches, Restaurants, Chicken Wings, Salad"
"561",38009,"Pi Co","Toronto","ON","M5R 2A5",43.6699878,-79.3898554,"1","Pizza, Restaurants, Italian, Salad, Gluten-Free"
"562",82883,"Olive Garden Italian Restaurant","Champaign","IL","61820",40.135722,-88.241153,"1","Nightlife, Salad, Bars, Italian, Restaurants, Wine Bars"
"563",185421,"Jimmy V's Subs and wings","Phoenix","AZ","85032",33.6315498373,-112.0138415694,"0","Salad, Restaurants, Sandwiches, Burgers"
"564",102535,"Crazy Pita Rotisserie & Grill","Las Vegas","NV","89135",36.148125,-115.3329749,"1","Wine Bars, Restaurants, Sandwiches, Beer Bar, Bars, Mediterranean, Nightlife, Salad, Fast Food"
"565",102878,"Jason's Deli","Chandler","AZ","85226",33.321437,-111.9678058,"1","Restaurants, Salad, Delis, Sandwiches, Event Planning & Services, Caterers"
"566",47667,"Pizza Republic","North Las Vegas","NV","89115",36.224249,-115.099077,"0","Sandwiches, Restaurants, Pizza, Salad"
"567",176350,"Sugarcreek Restaurant","Sheffield","OH","44054",41.4240233938,-82.0801858306,"1","Breakfast & Brunch, Restaurants, American (Traditional), Salad"
"568",177653,"Zaytoon Lebanese Kitchen","Cleveland","OH","44115",41.4999353,-81.6833204,"1","Breakfast & Brunch, Salad, Lebanese, Middle Eastern, Restaurants"
"569",96917,"Pronto by Giada","Las Vegas","NV","89109",36.1161559,-115.1750576,"1","Coffee & Tea, Restaurants, Bakeries, Salad, Sandwiches, Food"
"570",44595,"5 Points Grille","Richmond Heights","OH","44143",41.57547,-81.4952053,"1","Salad, Bars, American (Traditional), Nightlife, Restaurants"
"571",168096,"China One","Las Vegas","NV","89130",36.2394417,-115.2101202,"1","Chinese, Restaurants, Seafood, Salad"
"572",19828,"Upper Crust Pizza","North Olmsted","OH","44070",41.4192301598,-81.913497895,"1","Salad, Chicken Shop, Restaurants, Pizza"
"573",174758,"Diamond Corner","East York","ON","M4C 3G1",43.6940627,-79.3277384,"1","Greek, Restaurants, Pizza, Salad, Burgers"
"574",42968,"Piada Italian Street Food","Beachwood","OH","44122",41.4548090691,-81.4986709749,"1","Salad, Fast Food, Restaurants, Italian, Wraps"
"575",47492,"McAlister's Deli","Matthews","NC","28105",35.1292315,-80.7029925,"1","Delis, Salad, Restaurants, Sandwiches"
"576",191690,"Tokyo Peking Asian Restaurant","Las Vegas","NV","89183",36.0069369,-115.1466693,"0","Asian Fusion, Restaurants, Salad, Sushi Bars, Japanese"
"577",122704,"Panera Bread","Las Vegas","NV","89148",36.0957996497,-115.2966007591,"1","Breakfast & Brunch, Soup, Food, Bagels, Salad, Restaurants, Sandwiches"
"578",100673,"Cheba Hut Toasted Subs","Tempe","AZ","85281",33.422728,-111.951494,"1","Salad, Sandwiches, Vegetarian, Restaurants, American (Traditional)"
"579",145800,"Panera Bread","Scottsdale","AZ","85251",33.502782846,-111.9293627143,"1","Soup, Restaurants, Sandwiches, Salad"
"580",126632,"King David Pizza","North York","ON","M3H 5J9",43.7628513,-79.4568747,"0","Sandwiches, Restaurants, Pizza, Salad"
"581",86955,"Energy Cafe","Charlotte","NC","28202",35.2241581,-80.8487419,"1","Restaurants, Food, Salad, Sandwiches, Juice Bars & Smoothies"
"582",175977,"Great Harvest Bread - Champaign","Champaign","IL","61820",40.087815,-88.247965,"1","Event Planning & Services, Caterers, Salad, Restaurants, Breakfast & Brunch, Bakeries, Food, Sandwiches, Burgers"
"583",8466,"McCormick & Schmick's Seafood & Steaks","Las Vegas","NV","89169",36.1150754866,-115.1569413254,"0","Steakhouses, American (Traditional), Bars, Nightlife, Cocktail Bars, Seafood, Salad, Restaurants"
"584",127194,"Eat'n Park","Monroeville","PA","15146",40.4363721,-79.7725423,"1","Breakfast & Brunch, American (Traditional), Diners, Buffets, Restaurants, Salad, Burgers"
"585",31970,"Carson Kitchen","Las Vegas","NV","89101",36.1678783157,-115.1406404749,"1","Bars, Restaurants, Nightlife, Cocktail Bars, American (New), Seafood, Gastropubs, Food, Comfort Food, Salad, Tapas/Small Plates, Burgers, Desserts, Vegan"
"586",110016,"Salades Sensations","Laval","QC","H7P 5Y2",45.5710802,-73.7608336,"1","Restaurants, Salad, Sandwiches"
"587",168268,"Tropical Smoothie Cafe","Las Vegas","NV","89147",36.1141698,-115.3086428,"1","Food, Sandwiches, Salad, Restaurants, Juice Bars & Smoothies, Breakfast & Brunch"
"588",94200,"Thai Long-An","Phoenix","AZ","85013",33.5019465832,-112.0821349695,"1","Restaurants, Salad, Soup, Thai"
"589",146114,"Farmer Boys","Las Vegas","NV","89030",36.202835,-115.1198268,"1","Mexican, Sandwiches, Restaurants, American (Traditional), Diners, Fast Food, Burgers, Food, Salad, Breakfast & Brunch"
"590",16971,"Sbarro","Charlotte","NC","28208",35.2205594,-80.9438737,"1","Salad, Pizza, Restaurants, Italian"
"591",126178,"Riverstone Taverne","Brunswick","OH","44212",41.2372199589,-81.8776076633,"1","American (New), Restaurants, Salad"
"592",6980,"Habiba","Toronto","ON","M5V 2G7",43.6482314719,-79.3932659273,"1","Restaurants, Salad, Sandwiches, Middle Eastern"
"593",89188,"Stacks & Yolks","Las Vegas","NV","89108",36.2170132975,-115.225582445,"1","Salad, Sandwiches, Burgers, Breakfast & Brunch, Restaurants"
"594",160038,"Chip Off The Block Deli","Las Vegas","NV","89149",36.2777222,-115.2863093,"1","Delis, Burgers, Salad, Restaurants"
"595",151773,"Pizza Flora","Toronto","ON","M6R 2L2",43.64426,-79.448125,"1","Chicken Wings, Restaurants, Salad, Pizza"
"596",79355,"Zoup!","South Euclid","OH","44118",41.501639,-81.537999,"1","Salad, Sandwiches, Restaurants, Soup"
"597",137454,"Tutto Panini & Pasta","Markham","ON","L6E 1A2",43.8919629418,-79.2641529813,"1","Sandwiches, Restaurants, Italian, Salad"
"598",26014,"Ruko's Family Restaurant","Mentor","OH","44060",41.6795016,-81.3034403,"0","Sandwiches, Food, Salad, Restaurants, American (New)"
"599",133806,"Panera Bread","Pittsburgh","PA","15220",40.395932,-80.067397,"1","Soup, Restaurants, Breakfast & Brunch, Coffee & Tea, Bagels, Food, Bakeries, Salad, Sandwiches"
"600",158109,"Burger Rush","Tempe","AZ","85282",33.4075568,-111.9496949,"1","Food, Sandwiches, Burgers, Juice Bars & Smoothies, Salad, Restaurants"
"601",52656,"Esquire Restaurant","Toronto","ON","M1T 1A4",43.7743268,-79.322455,"1","Sandwiches, Mediterranean, Greek, Burgers, Food, Salad, Restaurants"
"602",153840,"Flock Rotisserie + Greens","Toronto","ON","M5V 1R4",43.647493,-79.392508,"1","Restaurants, Health Markets, Food, Fast Food, Soup, Specialty Food, Chicken Shop, Salad"
"603",184752,"Pizza 412","Pittsburgh","PA","15210",40.3922377,-79.997446,"1","Burgers, Gluten-Free, Restaurants, Salad, Sandwiches, Pizza"
"604",177237,"The Bar @Trails Village","Las Vegas","NV","89134",36.1936551,-115.3040847,"1","Lounges, Bars, Restaurants, Breakfast & Brunch, Nightlife, Salad"
"605",109418,"Chachi's","Calgary","AB","T2J 3V1",50.952945711,-114.065312838,"1","Restaurants, Salad, Sandwiches"
"606",139047,"b.good","Oakville","ON","L6M 4M2",43.4665119292,-79.7438201308,"0","Salad, Food, Gluten-Free, Burgers, Vegetarian, Restaurants, Juice Bars & Smoothies"
"607",165919,"Echo Sushi","Phoenix","AZ","85086",33.7998310355,-112.1278555691,"1","Salad, Japanese, Restaurants, Sushi Bars, Soup"
"608",127493,"DiBella's Subs","Mentor","OH","44060",41.6583183,-81.3780831,"1","Sandwiches, Restaurants, Cheesesteaks, Delis, Salad"
"609",133050,"PitaDale","Scottsdale","AZ","85255",33.6405155,-111.9245358,"1","Greek, Mediterranean, Salad, Restaurants"
"610",150087,"Portabello's","Milton","ON","L9T 6R2",43.5282448,-79.8373783,"1","Italian, Restaurants, Salad, Pizza"
"611",180212,"Moroccan Paradise","Tempe","AZ","85281",33.4152426,-111.9196665,"0","Bars, Arabian, Hookah Bars, Restaurants, Buffets, Burgers, Halal, Salad, Sandwiches, Nightlife, Moroccan, Mediterranean"
"612",86565,"Hybrid Fit Food","Champaign","IL","61821",40.1165621,-88.2328063,"0","Food, Salad, Restaurants, Sandwiches, Internet Cafes, Juice Bars & Smoothies, Burgers"
"613",3112,"Mapleleaf Inn","Chardon","OH","44024",41.5828671,-81.2154665,"0","Restaurants, Breakfast & Brunch, Salad"
"614",49804,"Zoes Kitchen","Charlotte","NC","28226",35.0862821193,-80.84903,"1","Restaurants, Sandwiches, Salad, Kebab, Mediterranean, Greek"
"615",68984,"Krav Street Food","Avon Lake","OH","44012",41.4938674,-82.058997,"0","Salad, Mediterranean, Restaurants, Sandwiches, Food, Food Trucks"
"616",14034,"Wolfgang Puck Bar & Grill Summerlin","Las Vegas","NV","89135",36.1515465211,-115.3326696276,"1","American (Traditional), Seafood, Pizza, American (New), Salad, Sandwiches, Restaurants, Bars, Nightlife"
"617",16708,"Soup Nutsy","Toronto","ON","M5V 3C7",43.6459076,-79.3878224,"1","Event Planning & Services, Caterers, Breakfast & Brunch, Restaurants, Specialty Food, Soup, Food, Salad"
"618",56868,"Papa Murphy's","Las Vegas","NV","89139",36.0551922,-115.2434261,"1","Salad, Gluten-Free, Restaurants, Pizza"
"619",109601,"Sweet Tomatoes","Scottsdale","AZ","85250",33.538186,-111.887991,"1","Restaurants, Vegetarian, Soup, Buffets, Salad"
"620",6652,"BIBIBOP Asian Grill","University Heights","OH","44118",41.5008778,-81.5385875,"1","Noodles, Salad, Asian Fusion, Restaurants"
"621",106940,"Sakura Sushi","Phoenix","AZ","85044",33.348359,-111.983325,"1","Soup, Buffets, Japanese, Sushi Bars, Restaurants, Salad"
"622",91449,"Tom's BBQ","Mesa","AZ","85215",33.4516018,-111.7226332,"1","Food, Food Trucks, Barbeque, Salad, Restaurants, American (Traditional), Event Planning & Services, Caterers"
"623",121184,"Crave Healthy Habits","Toronto","ON","M5K 1A1",43.6471768,-79.3815764,"1","Salad, Restaurants, Gluten-Free, Vegetarian"
"624",111848,"McAlister's Deli","Charlotte","NC","28277",35.0536635,-80.8468921,"0","Sandwiches, Delis, Restaurants, Salad"
"625",52718,"Panago Pizza","Oakville","ON","L6H 7P4",43.4632029,-79.7442112,"1","Restaurants, Salad, Pizza, Chicken Wings"
"626",143633,"Café Zupas","Mesa","AZ","85204",33.3796537,-111.7571343,"1","American (New), Restaurants, Salad, Soup, Cafes, Sandwiches"
"627",139950,"Glow","Montréal","QC","H2V 1K5",45.5216695,-73.6140214,"0","Vegetarian, Salad, Restaurants, Food, Juice Bars & Smoothies, Vegan, Gluten-Free"
"628",70536,"Flock","Toronto","ON","M5H 1Z5",43.6509528464,-79.3819611534,"1","Restaurants, Chicken Shop, Soup, Salad"
"629",103821,"Picnic","Toronto","ON","M5X 1K6",43.6483449,-79.3833074,"1","Food, Juice Bars & Smoothies, Salad, Restaurants, Sandwiches"
"630",32596,"Dagwoods","Montréal","QC","H4A 1S8",45.4767044,-73.6063388,"1","Salad, Event Planning & Services, Restaurants, Caterers, Sandwiches"
"631",1007,"Charleys Philly Steak","Charlotte","NC","28216",35.3498889,-80.8519299,"1","Steakhouses, Sandwiches, Restaurants, Salad"
"632",29437,"Green Box Express","Toronto","ON","M5V 1Z2",43.6504975894,-79.3887931094,"0","Sandwiches, Restaurants, Salad"
"633",131335,"Mixed Greens","Cleveland","OH","44113",41.4971659,-81.6940644,"1","Fast Food, Delis, Sandwiches, Salad, Specialty Food, Vegetarian, Restaurants, Fruits & Veggies, Food"
"634",96687,"Doda's Pizza","Glendale","AZ","85308",33.6392343,-112.2145105,"1","Pizza, Salad, Restaurants, Italian, Chicken Wings, Sandwiches"
"635",51831,"PDQ","Paradise Valley","AZ","85032",33.600243,-111.984803,"1","Restaurants, Salad, American (Traditional), Chicken Shop"
"636",46053,"Chop Crazy Créations","Montréal","QC","H3B 2M4",45.5001121,-73.5665224,"1","Restaurants, Salad, Sandwiches, Soup"
"637",54497,"Salad and Go","Chandler","AZ","85226",33.304269,-111.944962,"1","Wraps, Juice Bars & Smoothies, Salad, Food, Restaurants"
"638",106573,"Old Chicago","Mesa","AZ","85209",33.3832251,-111.6837464,"0","Food, American (Traditional), Breweries, Sports Bars, Salad, Pizza, Nightlife, Bars, Restaurants"
"639",71242,"Subway","Toronto","ON","M6P 1Z1",43.6655629338,-79.4658888912,"1","Salad, Restaurants, Sandwiches, American (Traditional), Food, Fast Food"
"640",187140,"The Galley","Ajax","ON","L1T 2Z7",43.8547343,-79.0555305,"1","Restaurants, Pubs, Nightlife, Salad, Bars, Fish & Chips"
"641",69648,"Pizza Authority","Elizabeth","PA","15037",40.2650348,-79.8785965,"1","Salad, Restaurants, Sandwiches, Pizza"
"642",43698,"Marcos Pizza","Las Vegas","NV","89129",36.2213845,-115.3297616,"1","Pizza, Sandwiches, Restaurants, Salad"
"643",145937,"Hillary Salades","Montréal","QC","H2W 2M4",45.5195447,-73.5727567,"1","Caterers, Soup, Food, Restaurants, Event Planning & Services, Food Delivery Services, Salad"
"644",84297,"Naf Naf Grill","Madison","WI","53703",43.0748219158,-89.3949237667,"1","Falafel, Mediterranean, Salad, Restaurants, Middle Eastern"
"645",33572,"Crafty Burg'r","Cornelius","NC","28031",35.4817329548,-80.8558829635,"1","Restaurants, Burgers, Beer Bar, Bars, Nightlife, Salad"
"646",20120,"Basil Box","North York","ON","M2M 3S9",43.7800082232,-79.415291436,"1","Gluten-Free, Thai, Salad, Vietnamese, Restaurants"
"647",61263,"Thai BBQ","Las Vegas","NV","89103",36.1129254,-115.2243713,"1","Soup, Restaurants, Chinese, Thai, Salad"
"648",173798,"Amlee Chinese Cuisine","Las Vegas","NV","89120",36.0706957,-115.0911257,"1","Soup, Chinese, Restaurants, Salad"
"649",156362,"Corelife Eatery","Pittsburgh","PA","15237",40.551036908,-80.0216101483,"1","Salad, Restaurants, Juice Bars & Smoothies, Food, Mediterranean"
"650",187770,"Giant Rustic Pizza","Phoenix","AZ","85086",33.844182,-112.13305,"1","Restaurants, Salad, Sandwiches, Pizza"
"651",118991,"Port of Subs","Las Vegas","NV","89123",36.021123,-115.119086,"1","Delis, Sandwiches, Salad, Restaurants"
"652",149432,"The Burger Cellar","Toronto","ON","M4N 2M8",43.732407,-79.403917,"1","Food, Restaurants, Beer, Wine & Spirits, Salad, Bars, Burgers, Nightlife"
"653",70443,"Bob Evans","Bridgeville","PA","15017",40.3667171,-80.1067693,"1","Comfort Food, Breakfast & Brunch, Salad, Hotels & Travel, Restaurants, Bed & Breakfast, Sandwiches, American (Traditional)"
"654",42033,"Panera Bread","Pittsburgh","PA","15235",40.429091169,-79.8130032421,"1","Salad, Bagels, Sandwiches, Food, Breakfast & Brunch, Soup, Bakeries, Restaurants"
"655",187042,"Panera Bread","South Euclid","OH","44118",41.5016104641,-81.5394338967,"1","Breakfast & Brunch, Restaurants, Bakeries, Soup, Bagels, Food, Salad, Sandwiches"
