"","business_id","name","city","state","postal_code","latitude","longitude","is_open","categories"
"1",24340,"Marathon Diner","Pittsburgh","PA","15231",40.4961769456,-80.2460112364,"1","Sandwiches, Salad, Restaurants, Burgers, Comfort Food"
"2",4441,"Aroma Espresso Bar","Toronto","ON","M3J 2S5",43.7698543376,-79.5019328828,"1","Sandwiches, Cafes, Food, Restaurants, Coffee & Tea"
"3",145384,"Served","Henderson","NV","89012",36.0107451,-115.0648029,"1","Ethnic Food, American (New), Burgers, Food, Restaurants, Asian Fusion, Specialty Food, Mexican, Sandwiches, Breakfast & Brunch, Korean"
"4",159540,"Ravi Soups","Toronto","ON","M5V 1R1",43.6475853,-79.3920316,"1","Soup, Restaurants, Sandwiches"
"5",59655,"Subway","Pittsburgh","PA","15219",40.4428627,-79.996412,"1","Fast Food, Sandwiches, Restaurants"
"6",120464,"Wendy's","Madison","WI","53716",43.062872,-89.308293,"1","Fast Food, Sandwiches, Restaurants, Burgers"
"7",7746,"Stage Deli Of Las Vegas","Las Vegas","NV","89109",36.1173267,-115.1765011,"0","Sandwiches, Restaurants, Delis, Desserts, Food"
"8",59949,"Pita Pit","Las Vegas","NV","89183",36.012764,-115.136056,"0","Middle Eastern, Restaurants, Vegetarian, Juice Bars & Smoothies, Ethnic Food, Salad, Food, Sandwiches, Specialty Food"
"9",99615,"Piazza Manna","North York","ON","M2M 4G3",43.7801785,-79.416408,"1","Sandwiches, Restaurants, Pizza, Salad"
"10",29720,"Oregano's Pizza Bistro","Phoenix","AZ","85014",33.50951,-112.060238,"1","Restaurants, Pizza, Sandwiches, Italian"
"11",72460,"Woody's Barbq","Calgary","AB","T2A 6L8",51.0601777,-113.9810304,"0","Sandwiches, Restaurants, Barbeque, Salad"
"12",87154,"Jersey Mike's Subs","Middleton","WI","53562",43.0914253964,-89.527287314,"1","Fast Food, Restaurants, Delis, Sandwiches, Wraps"
"13",33869,"Coffee, Tea, or Me","Las Vegas","NV","89102",36.1452198,-115.1766512,"0","Sandwiches, Juice Bars & Smoothies, Coffee & Tea, Food, Donuts, Ice Cream & Frozen Yogurt, Restaurants"
"14",18143,"Jimmy John's","Wexford","PA","15090",40.6320562,-80.0585513,"1","Fast Food, Sandwiches, Restaurants, Food, Food Delivery Services, Delis"
"15",15650,"Hello Bistro","Pittsburgh","PA","15237",40.5701342672,-80.0214552865,"1","Burgers, Restaurants, Cafes, Salad, Sandwiches"
"16",132930,"Panera Bread","Chandler","AZ","85248",33.2481682645,-111.8397652668,"0","Food, Sandwiches, Restaurants, Soup, Bakeries, Salad"
"17",161128,"Arbys Restaurant Higley Rd","Mesa","AZ","85205",33.4502623,-111.718404,"1","Sandwiches, Fast Food, Restaurants"
"18",34212,"Fernando's","Pittsburgh","PA","15222",40.4437123888,-79.9953632967,"0","Fast Food, Sandwiches, Restaurants"
"19",23517,"Pita Pit","Indian Trail","NC","28079",35.0631169,-80.633164,"1","Mediterranean, Restaurants, Breakfast & Brunch, Fast Food, Middle Eastern, Sandwiches"
"20",63752,"Subway","Surprise","AZ","85374",33.6388214,-112.3997883,"1","Sandwiches, Fast Food, Restaurants"
"21",34573,"Joeys of Chicago","Phoenix","AZ","85018",33.4949805,-111.9898781,"0","Soup, Sandwiches, Hot Dogs, Restaurants"
"22",72222,"Eggspectation","Montréal","QC","H2X 2X3",45.507291,-73.565672,"1","Burgers, American (Traditional), Cafes, Breakfast & Brunch, Restaurants, Sandwiches, Comfort Food"
"23",184537,"Subway","Sun City","AZ","85351",33.60136,-112.287538,"1","Sandwiches, Fast Food, Restaurants"
"24",116415,"Panera Bread","Richmond Hill","ON","L4C 5G2",43.8568578495,-79.4344568253,"1","Salad, Bagels, Breakfast & Brunch, Sandwiches, Food, Bakeries, Soup, Restaurants"
"25",27289,"JC's Restaurant","Burton","OH","44021",41.4709663391,-81.1464233398,"1","Burgers, American (New), Sandwiches, Breakfast & Brunch, Restaurants"
"26",133490,"The Cure","Toronto","ON","M6K 1T5",43.6497245738,-79.4315845899,"0","Sandwiches, Breakfast & Brunch, Nightlife, Cocktail Bars, Food, Bars, Restaurants, American (Traditional), Canadian (New), Diners, Specialty Food, Delis, Meat Shops, Delicatessen"
"27",77322,"Brockton Haunt","Toronto","ON","M6H 1B6",43.652360563,-79.4339237061,"1","Juice Bars & Smoothies, Restaurants, Sandwiches, Food, Cafes, Coffee & Tea"
"28",80627,"Jet's Pizza","Parma","OH","44129",41.4155836,-81.731971,"1","Restaurants, Pizza, Chicken Wings, Sandwiches"
"29",70614,"Pita Paradise","North York","ON","M3J 2C7",43.767825,-79.469884,"1","Restaurants, Sandwiches"
"30",153713,"Even Stevens Sandwiches","Gilbert","AZ","85234",33.3568181,-111.7897728,"0","Gluten-Free, Breakfast & Brunch, Sandwiches, Restaurants, Salad"
"31",79409,"Frite Alors","Montréal","QC","H1Y 2J7",45.5499455,-73.5742233,"1","Food Trucks, Burgers, Food, Sandwiches, Restaurants"
"32",64139,"Pennylicks Gourmet Cafe","Toronto","ON","M5T 2M1",43.6559277,-79.4024678,"0","Food, Restaurants, Sandwiches, Coffee & Tea, Desserts"
"33",17787,"Sacks Sandwiches - Hardy","Tempe","AZ","85281",33.4212223787,-111.9516137633,"1","Fast Food, Sandwiches, Restaurants, American (New)"
"34",154220,"Deli Pizza Cafe","Las Vegas","NV","89123",36.0357393,-115.171471,"0","Delis, Restaurants, Sandwiches, Pizza"
"35",90410,"Ravi Soup","Toronto","ON","M6R 1A7",43.6393223111,-79.4425679049,"1","Sandwiches, Soup, Restaurants"
"36",27196,"Peppi's","Pittsburgh","PA","15222",40.436969,-80.0004543,"1","Restaurants, Sandwiches"
"37",162376,"Margo's","Toronto","ON","M8V 1C4",43.6146607077,-79.4890733063,"0","Sandwiches, Poutineries, Restaurants, Cafes"
"38",56935,"Le Gourmand","Toronto","ON","M5V 3S6",43.6481229,-79.3966409,"1","Restaurants, Desserts, Sandwiches, Cafes, French, Coffee & Tea, Food, Breakfast & Brunch"
"39",80696,"Daisy Mountain Coffee Roasters","Phoenix","AZ","85086",33.7996940069,-112.1286818051,"1","Sandwiches, Restaurants, Breakfast & Brunch, Coffee & Tea, Internet Cafes, Food"
"40",80030,"Earl of Sandwich","Tempe","AZ","85281",33.4251725238,-111.9397368282,"0","Salad, Wraps, Event Planning & Services, Soup, Caterers, Sandwiches, Food, Restaurants"
"41",113420,"Fresh Attractions","Charlotte","NC","28208",35.2186768033,-80.9424017063,"1","Restaurants, Sandwiches"
"42",53529,"Einstein Bros Bagels","Las Vegas","NV","89119",36.0574675327,-115.1207419292,"1","Restaurants, Pizza, Food, Bagels, Sandwiches, Breakfast & Brunch"
"43",171664,"McAlister's Deli","Champaign","IL","61820",40.14166846,-88.2503601437,"1","Salad, Delis, Restaurants, Sandwiches, Food"
"44",174115,"Firehouse Subs","Gastonia","NC","28054",35.262106,-81.138489,"1","Restaurants, Fast Food, Burgers, Delis, Sandwiches"
"45",9067,"City Oven","Pittsburgh","PA","15216",40.400967,-80.0425457,"0","Pizza, Food Stands, Sandwiches, Restaurants, Breakfast & Brunch"
"46",162067,"Michelle's Place","Medina","OH","44256",41.1404321,-81.8636042,"1","Desserts, American (New), Restaurants, American (Traditional), Sandwiches, Breakfast & Brunch, Food"
"47",123650,"Pita Gourmet","Montréal","QC","H2S 1Z4",45.5322357611,-73.5975787416,"1","Restaurants, Turkish, Greek, Middle Eastern, Mediterranean, Lebanese, Kebab, Sandwiches"
"48",131928,"U Food Grill","Cleveland","OH","44135",41.410913,-81.833665,"1","Juice Bars & Smoothies, Restaurants, Sandwiches, Food"
"49",7207,"Winchell's Donut House","Las Vegas","NV","89146",36.1282146,-115.2252957,"1","Sandwiches, Food, Donuts, Bagels, Restaurants"
"50",86013,"Subway","Glendale","AZ","85302",33.5814942,-112.15194,"1","Restaurants, Sandwiches, Fast Food"
"51",113273,"Village Inn - North Peoria","Peoria","AZ","85383",33.7118664044,-112.2702986773,"1","Breakfast & Brunch, Burgers, Restaurants, Sandwiches"
"52",103807,"Pho Thanh Huong","Las Vegas","NV","89119",36.1001831,-115.138668,"1","Vietnamese, American (New), Restaurants, Sandwiches"
"53",143409,"Paradise Bakery & Cafe","Tempe","AZ","85281",33.4339009093,-111.9020921101,"0","Food, Restaurants, Bakeries, Cafes, Sandwiches"
"54",190193,"Which Wich","Scottsdale","AZ","85255",33.6763236,-111.9240234,"1","Sandwiches, Restaurants"
"55",84773,"Subway","Goodyear","AZ","85338",33.484027,-112.363106,"1","Restaurants, Fast Food, Sandwiches"
"56",10880,"Archie's Delicatessan","Glendale","AZ","85306",33.6107503,-112.1853699,"0","Restaurants, Sandwiches, Delis"
"57",179477,"Subway","Cleveland","OH","44111",41.4500971,-81.7694673,"1","Sandwiches, Restaurants, Fast Food"
"58",142016,"Gourmet Laurier","Montréal","QC","H2J 1G6",45.5308114,-73.5859832,"1","Restaurants, Sandwiches, Delis, Specialty Food, Food"
"59",78213,"Buddha Pie","Toronto","ON","M6P 1S3",43.6602773,-79.4797994,"1","Pizza, Restaurants, Sandwiches, Coffee & Tea, Food"
"60",18677,"Chris' Deli","Charlotte","NC","28205",35.2020194,-80.781657,"1","Delis, Sandwiches, Restaurants, Salad"
"61",15858,"The Dixie Pig Tega Cay","Fort Mill","SC","29708",35.0544299,-81.0073289,"1","Barbeque, Specialty Food, Food, Restaurants, Sandwiches"
"62",1761,"Philly's Famous","Chandler","AZ","85224",33.3227508,-111.8597026,"1","Cheesesteaks, Sandwiches, Restaurants, American (Traditional), Delis"
"63",42648,"The Original OMG Steak & Hoagies","Vaughan","ON","L4H 2Z7",43.8383106,-79.5596136,"1","Cheesesteaks, Restaurants, Burgers, Sandwiches"
"64",114200,"Subway","Las Vegas","NV","89142",36.1438977,-115.0641604,"1","Restaurants, Fast Food, Sandwiches"
"65",6028,"Subway","Etobicoke","ON","M9C 3S8",43.6532012,-79.5731226,"1","Sandwiches, Fast Food, Restaurants"
"66",101468,"Lenny's Deli","Avon Lake","OH","44012",41.4938209,-82.0611978,"0","Delis, American (Traditional), Sandwiches, Restaurants"
"67",89018,"Panera Bread","North Ridgeville","OH","44039",41.385899,-81.9751,"1","Sandwiches, Bagels, Soup, Breakfast & Brunch, Salad, Restaurants, Bakeries, Food"
"68",116036,"Baker Wee","Phoenix","AZ","85053",33.6099016098,-112.1506690979,"1","Caterers, Desserts, Bakeries, Event Planning & Services, Custom Cakes, Sandwiches, Coffee & Tea, Party & Event Planning, Restaurants, Food"
"69",4979,"Subway","Las Vegas","NV","89139",36.0340897,-115.2074639,"0","Restaurants, Sandwiches, Fast Food"
"70",23868,"Rockne's","Medina","OH","44256",41.1358602,-81.8146315,"1","Sandwiches, American (New), Bars, Beer Bar, Restaurants, Nightlife"
"71",87633,"Honey Baked Ham Company","Willoughby","OH","44094",41.626608,-81.437889,"1","Delis, Sandwiches, Food, Cafes, Restaurants, Specialty Food, Salad, Meat Shops"
"72",184763,"New Way Gourmet","Pittsburgh","PA","15201",40.4645039,-79.9602215,"0","Mediterranean, Sandwiches, Delis, Restaurants, Pizza"
"73",129329,"Twisted Rose Winery and Eatery","Scottsdale","AZ","85260",33.6222438,-111.8974713,"0","Sandwiches, Wineries, Food, Beer, Wine & Spirits, Arts & Entertainment, American (New), Restaurants"
"74",64360,"Jersey Mike's Subs","Fairview Park","OH","44126",41.4417738,-81.8623573,"0","Fast Food, Restaurants, Delis, Sandwiches"
"75",125214,"PDQ","North Las Vegas","NV","89032",36.2389331706,-115.1899415263,"1","Sandwiches, Fast Food, Salad, Restaurants, Chicken Shop"
"76",177554,"Subway","Cecil","PA","15321",40.3186133324,-80.2045314441,"1","Sandwiches, Restaurants"
"77",84784,"Capriotti's Sandwich Shop","Las Vegas","NV","89129",36.2213965,-115.3298839,"1","Food, Sandwiches, Restaurants, Salad"
"78",40263,"The Crepe Club","Phoenix","AZ","85016",33.5104431,-112.0287274,"0","Food, Sandwiches, Party & Event Planning, Caterers, Restaurants, French, Desserts, Creperies, Juice Bars & Smoothies, Event Planning & Services, Breakfast & Brunch"
"79",70590,"Extreme Pita","Markham","ON","L3R 4M9",43.8657893,-79.291638,"1","Sandwiches, Restaurants, Italian, Fast Food"
"80",135223,"American Deli","Montgomery","NC","28215",35.2355292586,-80.735678226,"1","Sandwiches, Burgers, Fast Food, Cheesesteaks, Restaurants, Chicken Wings"
"81",29274,"Subway","Toronto","ON","M4M 1H1",43.6590216,-79.3491051,"1","Delicatessen, Food, Fast Food, Sandwiches, Restaurants"
"82",62864,"Subway","Las Vegas","NV","89139",36.0552179,-115.2259209,"1","Sandwiches, Fast Food, Restaurants"
"83",50890,"La Rotonda","Montréal","QC","H1E 3N1",45.634278,-73.5939136,"0","Burgers, Restaurants, Pizza, Italian, Sandwiches"
"84",77499,"Tammie Coe Cakes","Phoenix","AZ","85004",33.4586921291,-112.0655679703,"1","Restaurants, Bakeries, Desserts, Coffee & Tea, Food, Sandwiches"
"85",153961,"Rudy Martino Original House of Submarines","Pittsburgh","PA","15218",40.4213034,-79.8902636,"1","Sandwiches, Restaurants, Diners"
"86",74238,"La Novita Bakery","Mississauga","ON","L5A 1Y5",43.5843766,-79.6210645,"1","Food, Restaurants, Bakeries, Delis, Sandwiches"
"87",17954,"Jimmy John's","Strongsville","OH","44136",41.306317,-81.8345108,"1","Fast Food, Delis, Sandwiches, Food, Food Delivery Services, Restaurants"
"88",141636,"Sub City","Cleveland","OH","44143",41.5406119,-81.4971698,"0","Bars, Sports Bars, Nightlife, Lounges, Restaurants, Sandwiches"
"89",141482,"Centro Panini","Vaughan","ON","L4L 9R8",43.8253403,-79.557277,"1","Specialty Food, Restaurants, Food, Italian, Sandwiches"
"90",102154,"Tyber Creek Pub","Charlotte","NC","28203",35.2099102,-80.8593356,"1","Irish Pub, Bars, British, Pubs, Burgers, Restaurants, Sandwiches, Irish, American (New), Nightlife"
"91",106832,"Romeo's Pizza","North Olmsted","OH","44070",41.4071441722,-81.9420079177,"1","Restaurants, Sandwiches, Pizza, Salad"
"92",170313,"Einstein Bros","Las Vegas","NV","89102",36.1432476,-115.2063054,"1","Restaurants, Sandwiches"
"93",22745,"Chez Vito","Montréal","QC","H2T 2W7",45.5225015809,-73.5955922475,"1","Specialty Food, Restaurants, Sandwiches, Meat Shops, Food, Delis, Delicatessen, Imported Food"
"94",43254,"Crossroads Grille","Monroe","NC","28110",35.04757,-80.644707,"1","Restaurants, American (Traditional), Chicken Wings, Sandwiches"
"95",81918,"Panera Bread","Tempe","AZ","85281",33.432945436,-111.9055820909,"1","Soup, Sandwiches, Restaurants, Salad"
"96",157001,"La Madeleine French Bakery & Café","Chandler","AZ","85226",33.3053280086,-111.9046638357,"1","Food, Restaurants, French, Sandwiches, Desserts"
"97",87704,"Jersey Mike's Subs","Gilbert","AZ","85297",33.2855958946,-111.7875759867,"1","Restaurants, Sandwiches, Delis, Fast Food"
"98",179430,"Tea Fusion Cafe","Charlotte","NC","28262",35.3020623325,-80.7478508227,"1","Sandwiches, Coffee & Tea, Restaurants, Bubble Tea, Desserts, Cafes, Food"
"99",181801,"Swensons Food Truck","Akron","OH","44310",41.1148,-81.494936,"1","Caterers, German, Food Trucks, Restaurants, Event Planning & Services, Fast Food, Food, Sandwiches"
"100",68723,"Subway","Saint-Laurent","QC","H4R 1P8",45.4938787,-73.7050947,"0","Fast Food, Sandwiches, Restaurants"
"101",35283,"Jimmy John's","Phoenix","AZ","85032",33.5985771873,-111.9784468156,"1","Food Delivery Services, Sandwiches, Delis, Restaurants, Fast Food, Vegetarian, Food"
"102",73824,"Smoke N Pig","Las Vegas","NV","89166",36.3138121777,-115.3060238063,"0","Food Trucks, Food, Barbeque, Sandwiches, Street Vendors, Restaurants, Specialty Food"
"103",93599,"Passion Grill","Toronto","ON","M8V 2Y6",43.6016854,-79.5017682,"1","American (Traditional), Halal, Sandwiches, Burgers, Restaurants"
"104",81596,"Arepa Market","Toronto","ON","M5T 2L6",43.654787,-79.4021369,"0","Gluten-Free, Latin American, Sandwiches, Restaurants"
"105",83606,"Manhattan Deli Bar & Grille","Willoughby","OH","44094",41.6071023,-81.4414043,"1","Sandwiches, Delis, American (Traditional), Restaurants, Bars, Beer Bar, Nightlife, Breakfast & Brunch, Event Planning & Services, Caterers"
"106",121582,"Rainbow Donuts Cafe and Deli","Phoenix","AZ","85032",33.611676987,-111.9984461607,"1","Bagels, Restaurants, Donuts, Sandwiches, Cafes, Food, Breakfast & Brunch, Delis"
"107",92982,"BB Cafe","Chandler","AZ","85224",33.3061249,-111.8609991,"0","Restaurants, Breakfast & Brunch, Caterers, Sandwiches, Event Planning & Services, Cafes"
"108",190125,"Leena's Food","Pittsburgh","PA","15289",40.4418197,-79.9571314,"0","Halal, Vegan, Sandwiches, Vegetarian, Ethnic Food, Greek, Middle Eastern, Restaurants, Specialty Food, Mediterranean, Food"
"109",64109,"McDonald's","Calgary","AB","T2B 3R9",51.0141241,-114.0004216,"1","Sandwiches, Burgers, Restaurants, Fast Food"
"110",115909,"The Green Regime","Las Vegas","NV","89119",36.0838414902,-115.1197339967,"1","Restaurants, Food Stands, Sandwiches, Salad, Food, Juice Bars & Smoothies"
"111",1667,"Subway","Mesa","AZ","85206",33.3904087,-111.6900874,"0","Sandwiches, Restaurants, Fast Food"
"112",139642,"Half Moon Sports Grill","Phoenix","AZ","85022",33.6370139392,-112.0701480992,"1","Bars, Sports Bars, Restaurants, Nightlife, Sandwiches, American (New), Burgers"
"113",61637,"Perfect Pear Bistro","Tempe","AZ","85284",33.3216322198,-111.9625568958,"1","Wine Bars, American (New), Nightlife, Salad, Gluten-Free, Bars, Sandwiches, Restaurants"
"114",181866,"Soupesoup","Montréal","QC","H2W 1G8",45.5178756,-73.5785416,"0","Sandwiches, Restaurants, Cafes, Soup"
"115",182261,"Texas Roadhouse","Tempe","AZ","85284",33.3383358638,-111.9703973585,"1","American (New), Barbeque, Restaurants, Sandwiches, American (Traditional), Salad, Steakhouses"
"116",176681,"Firehouse Subs","Scottsdale","AZ","85260",33.6194863,-111.8984525,"1","Sandwiches, Fast Food, Restaurants, Delis"
"117",36310,"Jimmy John's Gourmet Sandwiches","Las Vegas","NV","89102",36.1441525,-115.2069549,"0","Sandwiches, Restaurants"
"118",18060,"Panera Bread","Murrysville","PA","15668",40.421806,-79.661538,"1","Restaurants, Breakfast & Brunch, Sandwiches, Bagels, Food, Salad, Soup"
"119",188591,"Trung Nguyen V-N Sub","Calgary","AB","T2G 0B6",51.0503479,-114.060811,"1","Restaurants, Sandwiches, Vietnamese"
"120",139494,"Panera Bread","Allison Park","PA","15101",40.602218,-79.945617,"1","Bagels, Soup, Salad, Restaurants, Food, Sandwiches, Breakfast & Brunch"
"121",130781,"Glass Nickel Pizza","Sun Prairie","WI","53590",43.1831104,-89.2138433,"1","Chicken Wings, Food, Event Planning & Services, Pizza, Sandwiches, Italian, Caterers, Salad, Restaurants, Food Delivery Services"
"122",48140,"Saigon Deli","Calgary","AB","T2A 0A7",51.0443627,-113.9692718,"1","Vietnamese, Sandwiches, Delis, Restaurants"
"123",74106,"Pita Land","Toronto","ON","M3N 2V2",43.7571675,-79.514186,"1","Sandwiches, Restaurants, Halal, Middle Eastern"
"124",81201,"Fromagerie Qui Lait Cru","Montréal","QC","H2S 3S3",45.5364653,-73.6146713,"1","Food, Restaurants, Delis, Cheese Shops, Sandwiches, Specialty Food"
"125",23959,"Subway","Mesa","AZ","85206",33.3954256,-111.6841917,"1","Sandwiches, Restaurants, Fast Food"
"126",119210,"Super Kolbasa & Deli","Toronto","ON","M6R 2K6",43.641556,-79.44705,"0","Polish, Sandwiches, Restaurants, Specialty Food, Food, Cheese Shops, Delis"
"127",145055,"Vermont Sandwich Co","Scottsdale","AZ","85258",33.5689093073,-111.8898525286,"0","Caterers, Event Planning & Services, Sandwiches, Restaurants"
"128",56909,"Battiste & Dupree Cajun Grill","Cleveland","OH","44121",41.5055208,-81.5368915,"1","Seafood, Restaurants, Cajun/Creole, Sandwiches"
"129",159584,"Cappuccino Company","Calgary","AB","T2P 1A4",51.0470953,-114.0835409,"0","Coffee & Tea, Restaurants, Sandwiches, Desserts, Food"
"130",37321,"Urban Beans Cafe & Bar","Phoenix","AZ","85014",33.4885590269,-112.0653334273,"1","Bars, Vegetarian, Coffee & Tea, Nightlife, Bakeries, Cafes, Breakfast & Brunch, Sandwiches, Restaurants, Food"
"131",99336,"Cafe 56","Cleveland","OH","44124",41.5214960134,-81.4373204383,"1","Salad, Sandwiches, Soup, Restaurants"
"132",107706,"Hungry Howie's Pizza","Charlotte","NC","28226",35.088038,-80.860588,"1","Restaurants, Sandwiches, Pizza, Italian"
"133",103179,"Port of Subs","North Las Vegas","NV","89031",36.261004,-115.135427,"0","Restaurants, Sandwiches, Salad, Food, Desserts, Wraps"
"134",22364,"American Burger","Charlotte","NC","28277",35.0622318,-80.7733554,"0","Sandwiches, Burgers, American (Traditional), Restaurants"
"135",173939,"Eat 'em Sandwiches","Las Vegas","NV","89120",36.056199,-115.105022,"0","Restaurants, Sandwiches"
"136",37404,"Subway","Pittsburgh","PA","15213",40.4414535,-79.9574563,"1","Sandwiches, Fast Food, Restaurants"
"137",136030,"Johnny Rockets","Chandler","AZ","85226",33.3056623,-111.8975292,"0","Restaurants, Fast Food, Sandwiches, American (Traditional), Burgers, Food"
"138",17184,"Weston Favourites","Toronto","ON","M9N 1W8",43.7008781042,-79.5193493081,"0","Food Delivery Services, Italian, Coffee & Tea, Restaurants, Food, Sandwiches, Pizza"
"139",100969,"Heritage Bakery & Deli","Calgary","AB","T3E 3A3",51.037337,-114.140965,"1","Food, Restaurants, Delis, Bakeries, Sandwiches"
"140",40356,"McDonald's","Calgary","AB","T2Y 2Z7",50.9065861,-114.0657084,"1","Fast Food, Restaurants, Burgers, Sandwiches"
"141",48091,"The Grilled Cheese Truck","Phoenix","AZ","",33.4483771,-112.0740373,"0","Food Trucks, Food, Restaurants, Sandwiches"
"142",54967,"Pita Pavilion","North York","ON","M6A 3B4",43.7166569,-79.4472576,"1","Food, Sandwiches, Restaurants"
"143",74729,"Holy Grill","Calgary","AB","T2P 2T8",51.048892,-114.0711799,"1","Sandwiches, Food, Restaurants, Burgers, Breakfast & Brunch"
"144",20652,"Domino's","Charlotte","NC","28227",35.2137877,-80.829107,"1","Sandwiches, Pizza, Chicken Wings, Fast Food, Restaurants"
"145",61280,"Sweet Home Wisconsin","Madison","WI","53715",43.0678178,-89.4016726,"1","Restaurants, Burgers, Hot Dogs, Sandwiches"
"146",83825,"Subway","Las Vegas","NV","89123",36.0410197,-115.1167131,"1","Restaurants, Fast Food, Sandwiches"
"147",3361,"Phoenix Coney Island","Glendale","AZ","85302",33.554001,-112.1692291,"0","American (Traditional), Sandwiches, Burgers, Restaurants"
"148",80085,"Firehouse Subs","Concord","NC","28027",35.369273,-80.72329,"1","Delis, Fast Food, Sandwiches, Restaurants"
"149",99219,"Locus144","Toronto","ON","M6K 3P6",43.638173,-79.417677,"1","Nightlife, Lounges, Bars, Sandwiches, Italian, Restaurants"
"150",86673,"Bloom Bakery at Public Square","Cleveland","OH","44114",41.5000373,-81.6919258,"1","Coffee & Tea, Bakeries, Sandwiches, Restaurants, Food, Vegan, Desserts"
"151",191671,"McAlister's Deli","Charlotte","NC","28278",35.1613607169,-80.9716010056,"1","Salad, Sandwiches, Delis, Restaurants"
"152",129570,"Capriotti's Sandwich Shop","Las Vegas","NV","89110",36.168028,-115.062472,"1","Sandwiches, Restaurants, Salad, Burgers"
"153",71121,"Pitchforks & Corks","Tempe","AZ","85281",33.4234904,-111.935169,"1","Food, Bars, Restaurants, Sandwiches, Beer, Wine & Spirits, Nightlife, Wine Bars, Coffee & Tea, Cocktail Bars"
"154",36478,"Penn Station East Coast Subs","Brooklyn","OH","44144",41.4244578,-81.7354314,"1","Restaurants, Sandwiches, Cheesesteaks, Salad"
"155",46190,"Denny's","Las Vegas","NV","89101",36.1699356,-115.1414301,"1","Diners, Restaurants, American (Traditional), Breakfast & Brunch, Sandwiches"
"156",67296,"Fromagerie Des Nations","Anjou","QC","H1M 3M4",45.597492,-73.566159,"1","Restaurants, Sandwiches, Food, Specialty Food, Delis, Cheese Shops"
"157",116038,"Pork on a Fork","Phoenix","AZ","85016",33.5074647365,-112.0407363257,"1","Restaurants, Salad, Barbeque, Caterers, Sandwiches, Event Planning & Services"
"158",132439,"Moe's Original Bar B Que","Matthews","NC","28105",35.117562,-80.720445,"1","Restaurants, Caterers, Sandwiches, Barbeque, Salad, Nightlife, Event Planning & Services, Bars"
"159",128722,"Those Guys Pies","Las Vegas","NV","89130",36.2200387,-115.2123514,"0","Pizza, Restaurants, Sandwiches, American (New), Cheesesteaks"
"160",3228,"Domino's Pizza","New Kensington","PA","15068",40.5897698975,-79.7250798717,"1","Sandwiches, Restaurants, Pizza, Chicken Wings"
"161",143307,"Angelo's Pizzeria & Restaurant","Aurora","OH","44202",41.3150215295,-81.3572040344,"1","Restaurants, Food, Desserts, Sandwiches, Pizza"
"162",136944,"Mahon's Sandwich Shop","Phoenix","AZ","85004",33.470194,-112.07493,"1","Delis, Restaurants, Sandwiches"
"163",14150,"Hawgs Deli & Bar","St-Leonard","QC","H1P 3K8",45.597956,-73.578836,"1","Bars, Restaurants, Nightlife, Delis, Sports Bars, Sandwiches"
"164",188114,"Subway","Charlotte","NC","28262",35.294772,-80.755847,"1","American (Traditional), Sandwiches, Food, Restaurants, Fast Food"
"165",155067,"Malone's Pourhouse","Charlotte","NC","28217",35.1686070885,-80.8760010079,"0","Pubs, Sandwiches, Nightlife, Bars, American (New), Sports Bars, Restaurants"
"166",189435,"Subway","Las Vegas","NV","89123",36.0302336,-115.1354155,"1","Restaurants, Fast Food, Sandwiches"
"167",67331,"Bodega 13","Scottsdale","AZ","85255",33.7008135,-111.8890438,"1","Tapas/Small Plates, Sandwiches, Jazz & Blues, Tapas Bars, Nightlife, Modern European, Restaurants, Arts & Entertainment"
"168",178047,"Quiznos","Las Vegas","NV","89130",36.2616736455,-115.2491297969,"0","Fast Food, Delis, Sandwiches, Restaurants"
"169",158694,"Einstein Bros Bagels","Pittsburgh","PA","15241",40.3475049005,-80.0545406342,"0","Breakfast & Brunch, Food, Sandwiches, Bagels, Restaurants"
"170",147134,"Capriotti's","Las Vegas","NV","89139",36.032546,-115.210216,"1","American (Traditional), Restaurants, Sandwiches, Delis"
"171",7485,"District 28 Bar Bistro","Toronto","ON","M4M 2M8",43.6552665,-79.3405143,"1","Bars, Sandwiches, Breakfast & Brunch, Event Planning & Services, Burgers, Restaurants, Cafes, Nightlife, Venues & Event Spaces"
"172",132498,"New Orleans Take-Out","Madison","WI","53704",43.0984345318,-89.3644666672,"0","Restaurants, Sandwiches, Seafood, Cajun/Creole"
"173",87163,"Subway","Las Vegas","NV","89119",36.0854286,-115.149927,"1","Restaurants, Fast Food, Sandwiches"
"174",24475,"Zoes Kitchen","Chandler","AZ","85226",33.3179531038,-111.9671074491,"1","Restaurants, Kebab, Greek, American (New), Mediterranean, Southern, Sandwiches"
"175",166732,"Nook","Toronto","ON","M5V 1K4",43.644829,-79.396777,"1","Caterers, Event Planning & Services, Restaurants, Cafes, Breakfast & Brunch, Sandwiches"
"176",68568,"Subway","Tempe","AZ","85281",33.4192981,-111.9402206,"0","Sandwiches, Restaurants, Fast Food"
"177",12263,"Farine","Montréal","QC","H2T 2L1",45.5244186,-73.6000477,"1","Pizza, Breakfast & Brunch, Bakeries, Cafes, Specialty Food, Sandwiches, Food, Restaurants, Italian"
"178",21904,"Mr Sub","Scarborough","ON","M1X 1E6",43.8223937,-79.2472657,"1","Salad, Soup, Restaurants, Sandwiches"
"179",142065,"Taste Cafe","Markham","ON","L6G 0C5",43.8535260816,-79.3388300389,"0","Sandwiches, Coffee & Tea, Food, Cafes, Restaurants, Breakfast & Brunch"
"180",188327,"East Side Pizza","Las Vegas","NV","89145",36.1604696,-115.2898891,"0","Restaurants, Caterers, Food, Pizza, Sandwiches, Italian, Event Planning & Services, Food Delivery Services"
"181",105145,"The Salvador Deli","Charlotte","NC","28205",35.2474789,-80.805282,"0","Delis, Sandwiches, Restaurants"
"182",99196,"Koek Koek","Toronto","ON","M4N 2H8",43.7168348169,-79.400094375,"0","Sandwiches, Salad, Restaurants, Cafes"
"183",190970,"Jersey Mike's Subs","Charlotte","NC","28277",35.0611103,-80.817254,"1","Sandwiches, Fast Food, Restaurants, Delis"
"184",36065,"Subway","Las Vegas","NV","89149",36.2643443318,-115.2579024737,"1","Food, Fast Food, Restaurants, Sandwiches"
"185",153977,"Ninety's Ice Cream & Sandwiches","Charlotte","NC","28262",35.3105707,-80.7492861,"1","Desserts, Food, Ice Cream & Frozen Yogurt, Juice Bars & Smoothies, Restaurants, Sandwiches"
"186",124109,"Cafe Vite","Toronto","ON","M2N 6X4",43.7756161872,-79.4147684053,"1","Food, Sandwiches, Ice Cream & Frozen Yogurt, Vietnamese, Cafes, Restaurants"
"187",45828,"Subway","Las Vegas","NV","89183",36.0106875,-115.1371278,"1","Restaurants, Fast Food, Sandwiches"
"188",178750,"Spitfirez Catering","Wilmerding","PA","15148",40.395472,-79.806074,"1","Food Delivery Services, Event Planning & Services, Restaurants, Food, Barbeque, Bartenders, Caterers, Soup, Sandwiches"
"189",123309,"Corrado's Authentic Italian Cuisine","Toronto","ON","M4J 2N5",43.6928272,-79.3339954,"0","Pizza, Italian, Sandwiches, Restaurants"
"190",55763,"Go! Bistro","Mayfield Heights","OH","44124",41.5261731,-81.4387633,"0","American (Traditional), Sandwiches, Food, Restaurants"
"191",54512,"La Prep","Toronto","ON","M5K 1A1",43.6478979,-79.3820355,"1","Salad, Sandwiches, Breakfast & Brunch, Restaurants"
"192",29212,"Duckworth's Kitchen & Taphouse","Charlotte","NC","28209",35.1708909,-80.8504498,"1","Bars, Sandwiches, Restaurants, Beer Bar, Nightlife, American (New), Beer, Wine & Spirits, Chicken Wings, Burgers, Sports Bars, Pizza, Food, American (Traditional), Cheesesteaks"
"193",101188,"Park 51 Cafe","Charlotte","NC","28210",35.090561,-80.867977,"1","Sandwiches, Restaurants, Salad, American (Traditional)"
"194",40231,"Grinders Coffee","Phoenix","AZ","85020",33.5674282,-112.0731696,"1","Restaurants, Food, Cafes, Coffee Roasteries, Sandwiches, Breakfast & Brunch, Coffee & Tea"
"195",129083,"Dagwoods","Phoenix","AZ","85016",33.5071896,-112.0318945,"1","Sandwiches, Delis, Restaurants"
"196",68683,"Cozzeria Pizzeria","Elyria","OH","44035",41.374399931,-82.0860510574,"1","Pizza, Sandwiches, Restaurants, Italian, Salad"
"197",178850,"Soma Cafe","Phoenix","AZ","85034",33.5839581,-111.9788671,"0","Sandwiches, Burgers, Restaurants, Breakfast & Brunch, Vegetarian"
"198",151264,"Empire Provisions","Calgary","AB","T2V 1K8",50.9790183,-114.0837946,"1","Delicatessen, Food, Sandwiches, Breakfast & Brunch, Specialty Food, Restaurants, Meat Shops, Cafes"
"199",184843,"The Cuppa","Las Vegas","NV","89135",36.1488913095,-115.3333637771,"0","Bagels, Coffee & Tea, Sandwiches, Bakeries, Food, Restaurants"
"200",98297,"Tim Hortons","Toronto","ON","M3A 1Z5",43.7606862502,-79.3266298622,"1","Sandwiches, Restaurants, Food, Breakfast & Brunch, Coffee & Tea"
"201",110546,"Subway","Las Vegas","NV","89120",36.0792394487,-115.1015573367,"1","Sandwiches, Restaurants, Fast Food"
"202",129315,"Mr Submarine","Phoenix","AZ","85016",33.4876081937,-112.0301229134,"1","Salad, Restaurants, Sandwiches"
"203",20691,"Subway","Scottsdale","AZ","85262",33.7988514,-111.9305908,"1","Restaurants, Sandwiches, Fast Food"
"204",29940,"Subway","Las Vegas","NV","89131",36.279833,-115.2615955,"1","Restaurants, Sandwiches, Fast Food"
"205",140977,"Barro's Pizza","Chandler","AZ","85249",33.2204347,-111.8248942,"1","Italian, Pizza, Sandwiches, Restaurants"
"206",125888,"Jimmy John's","Phoenix","AZ","85003",33.4482076863,-112.0747093518,"1","Food, Sandwiches, Food Delivery Services, Restaurants, Fast Food, Salad, Delis"
"207",49592,"Candy's Kitchen","Phoenix","AZ","85022",33.6060548,-112.0663997,"1","Coffee & Tea, Cafes, Sandwiches, Food, Breakfast & Brunch, Restaurants"
"208",135961,"Subway","Las Vegas","NV","89118",36.0711489,-115.2073958,"1","Restaurants, Sandwiches, Fast Food"
"209",158006,"Capriotti's Sandwich Shop","Las Vegas","NV","89121",36.1170337131,-115.0904042894,"1","Restaurants, Delis, Sandwiches"
"210",180016,"Subway","Toronto","ON","M4Y 2E1",43.6654189,-79.3810194,"0","Sandwiches, Restaurants, Fast Food"
"211",108534,"Rocky's Philly Cheese Steaks","Las Vegas","NV","89123",36.052568,-115.168477,"1","Fast Food, Restaurants, Sandwiches, Middle Eastern"
"212",151714,"Barro's Pizza","Phoenix","AZ","85023",33.611424,-112.1106287,"1","Sandwiches, Italian, Restaurants, Pizza"
"213",172132,"Goodcents Deli Fresh Subs","Glendale","AZ","85306",33.611237,-112.164799,"1","Sandwiches, Delis, Restaurants"
"214",22487,"Cafe Hesed","Newmarket","ON","L3Y 3Z4",44.0519496,-79.4563833,"1","Sandwiches, Korean, Coffee & Tea, Food, Restaurants"
"215",54770,"Hob Nobs","Phoenix","AZ","85003",33.465462,-112.078017,"1","Sandwiches, Restaurants, American (New), Cafes, Delis, Breakfast & Brunch, Pizza, Nightlife, Food, Local Flavor, Arts & Entertainment, Jazz & Blues, Coffee & Tea"
"216",157279,"Potbelly Sandwich Shop","Madison","WI","53719",43.058245,-89.504807,"1","Juice Bars & Smoothies, Food, Salad, Soup, Delis, Fast Food, Restaurants, Sandwiches"
"217",76155,"Subway","Las Vegas","NV","89101",36.1696655,-115.1441707,"1","Sandwiches, Fast Food, Restaurants"
"218",2826,"The Junction Grill","Toronto","ON","M6P 2R1",43.6651845,-79.4686334,"1","Coffee & Tea, Sandwiches, Breakfast & Brunch, Desserts, Restaurants, Portuguese, Creperies, Food"
"219",33200,"The Farm Kitchen","Phoenix","AZ","85042",33.390829,-112.0129594,"1","Sandwiches, Soup, Restaurants, Breakfast & Brunch, Salad"
"220",27819,"Popeyes Louisiana Kitchen","Mississauga","ON","L4Y 2A5",43.6085397443,-79.5842409474,"1","Sandwiches, Food, Restaurants, Fast Food, Seafood"
"221",113261,"Dave's Cosmic Subs","Medina","OH","44256",41.157469,-81.861339,"1","Sandwiches, Restaurants, Food"
"222",73560,"Propulsion : Cantine Végétalienne","Montréal","QC","H2L 2H4",45.5193311,-73.5554149,"0","Vegan, Arts & Entertainment, Food, Music Venues, Restaurants, Vegetarian, Health Markets, Sandwiches, Specialty Food, Nightlife"
"223",73676,"Sacks Sandwiches - ASU","Tempe","AZ","85281",33.4197977,-111.9390302,"1","Restaurants, Sandwiches"
"224",114545,"Dunkin' Donuts","Denver","NC","28037",35.4604106,-80.9925985,"1","Sandwiches, Restaurants, Food, Coffee & Tea, Donuts"
"225",109434,"Ladybug House of Sandwiches","Phoenix","AZ","85006",33.4660663,-112.0582801,"1","Burgers, Delis, Sandwiches, Restaurants"
"226",97659,"Coffee Cup Family Restaurant","Bedford","OH","44146",41.3967393,-81.5424675,"1","American (Traditional), Restaurants, Breakfast & Brunch, Sandwiches"
"227",96506,"Farmer Boys","Las Vegas","NV","89119",36.081352,-115.1192262,"1","Sandwiches, Restaurants, Mexican, American (Traditional), Burgers, Salad, Breakfast & Brunch, Diners"
"228",120296,"Elixir Organic Cafe & Lounge","Las Vegas","NV","89123",36.0153561,-115.1185146,"0","Gluten-Free, Juice Bars & Smoothies, Vegetarian, Breakfast & Brunch, American (New), Restaurants, Health Markets, Specialty Food, Delis, Sandwiches, Food"
"229",94147,"Subway","Fountain Hills","AZ","85268",33.5745565,-111.7163752,"1","Restaurants, Fast Food, Sandwiches"
"230",156012,"Penn Station","Mentor","OH","44060",41.649309,-81.3824938,"1","Sandwiches, Restaurants"
"231",104585,"Freshii","Toronto","ON","M5P 2W4",43.6889719726,-79.4128546492,"1","Fast Food, Salad, Restaurants, Gluten-Free, Sandwiches"
"232",35431,"Supreme Lunch Break","Tempe","AZ","85281",33.4249468,-111.976795,"1","Caterers, Sandwiches, Food, Coffee & Tea, Breakfast & Brunch, Delis, Event Planning & Services, Restaurants"
"233",144397,"Southern Kitchen","Las Vegas","NV","",36.1699412,-115.1398296,"0","Restaurants, Caterers, Event Planning & Services, Food, Sandwiches, Food Trucks, Southern"
"234",94393,"Geno's Cheesesteaks & Deli","Gilbert","AZ","85295",33.3073585,-111.7585492,"0","Sandwiches, Restaurants, Cheesesteaks, Delis"
"235",170980,"Neveria Chayos","Phoenix","AZ","85051",33.5381782,-112.1334426,"1","Desserts, Food, Ice Cream & Frozen Yogurt, Specialty Food, Candy Stores, Restaurants, Juice Bars & Smoothies, Sandwiches"
"236",10947,"Domino's Pizza","Henderson","NV","89012",36.020876,-115.047722,"1","Pizza, Food, Chicken Wings, Restaurants, Food Delivery Services, Sandwiches"
"237",130150,"Texas Roadhouse","Phoenix","AZ","85085",33.7149105285,-112.1160852606,"1","Restaurants, Beer, Wine & Spirits, Steakhouses, Food, Sandwiches"
"238",5695,"Jimmy John's","Matthews","NC","28105",35.128028,-80.702461,"1","Restaurants, Food Delivery Services, Sandwiches, Fast Food, Food, Delis"
"239",74726,"My Little Pizzeria & Deli","Markham","ON","L6E 1A6",43.9008489,-79.264781,"1","Pizza, Restaurants, Italian, Sandwiches"
"240",126690,"Jacobson Bros Meats & Deli","Stoughton","WI","53589",42.91752,-89.2473489,"1","Delis, Restaurants, Meat Shops, Sandwiches, Grocery, Food, Specialty Food"
"241",164348,"Cleveland Deli and Beverage","Cleveland","OH","44135",41.433372,-81.8008714,"1","Salad, Delis, Restaurants, Sandwiches, Diners, Food, Convenience Stores"
"242",455,"Gator's Deli","Indian Trail","NC","28079",35.053885,-80.683484,"0","Restaurants, Sandwiches"
"243",57936,"Tropical Smoothie Cafe","Henderson","NV","89052",36.0007806,-115.0836777,"1","Restaurants, Food, Juice Bars & Smoothies, Sandwiches"
"244",43959,"Subway","Chandler","AZ","85224",33.307342,-111.873993,"1","Sandwiches, Fast Food, Restaurants"
"245",144639,"Greenway Grill & Deli","Scottsdale","AZ","85260",33.6258545591,-111.9106749755,"1","Restaurants, Sandwiches, Delis"
"246",122010,"Domino's Pizza","Gilbert","AZ","85296",33.3371177,-111.7571813,"1","Pizza, Food Delivery Services, Restaurants, Chicken Wings, Food, Sandwiches"
"247",167407,"Everly","Madison","WI","53711",43.0565808,-89.4291096,"1","Breakfast & Brunch, Restaurants, Sandwiches, American (New), Bars, Vegetarian, Nightlife"
"248",35551,"Müvbox","Montréal","QC","H2Y 2E2",45.4988220371,-73.5528670841,"1","Seafood, French, Pizza, Sandwiches, Restaurants"
"249",153306,"Freshii","Toronto","ON","M5V 2L4",43.6477264,-79.3962471,"1","Soup, Juice Bars & Smoothies, Restaurants, Food, Sandwiches"
"250",44659,"Subway","Sun Prairie","WI","53590",43.1784668,-89.237732,"1","Sandwiches, Restaurants, Fast Food"
"251",14471,"Quattro","Montréal","QC","H2Y 1N9",45.5021973,-73.5602649,"1","Sandwiches, Restaurants"
"252",141521,"Gyro in Your Face","Surprise","AZ","85379",33.6071869,-112.3933836,"0","Caterers, Sandwiches, Food Trucks, Food, Restaurants, Mediterranean, Event Planning & Services"
"253",142318,"Eggslut","Las Vegas","NV","89109",36.1099991328,-115.1742914289,"1","Sandwiches, Restaurants, Breakfast & Brunch"
"254",13362,"Melt Grilled Cheese","Toronto","ON","M5V 1X2",43.6490226,-79.3915508,"1","Sandwiches, Restaurants, Delis"
"255",79125,"Dunn's Famous Decarie","Montréal","QC","H4P 2G8",45.494719,-73.651871,"1","Delis, Restaurants, Salad, Sandwiches"
"256",139269,"Panera Bread","Highland Heights","OH","44143",41.539594,-81.451432,"1","Bagels, Restaurants, Sandwiches, Soup, Breakfast & Brunch, Salad, Bakeries, Food"
"257",31811,"Saigon Kitchen","Surprise","AZ","85374",33.6382038313,-112.3634433746,"1","Vietnamese, Restaurants, Asian Fusion, Sandwiches"
"258",35749,"Subway","Las Vegas","NV","",36.1701296258,-115.2908725811,"1","Fast Food, Restaurants, Food, Sandwiches"
"259",103412,"Bagelino's","Calgary","AB","T2P 1Z5",51.0457559,-114.0791699,"1","Bagels, Food, Sandwiches, Breakfast & Brunch, Cafes, Restaurants"
"260",154709,"Louis Souvlaki & Grill","Toronto","ON","M1C 1B7",43.7834364,-79.169776,"1","Sandwiches, Greek, Pizza, Mediterranean, Restaurants, Italian"
"261",56541,"Original Hamburger Works","Phoenix","AZ","85007",33.4798071,-112.0911877,"1","Nightlife, Bars, Sports Bars, Dive Bars, Restaurants, Burgers, Sandwiches"
"262",109589,"'Turel","Montréal","QC","H2T 1P3",45.522114,-73.5843931,"1","Breakfast & Brunch, Food, Sandwiches, Restaurants, Juice Bars & Smoothies"
"263",75298,"Johnny Rockets","Las Vegas","NV","89119",36.0902237379,-115.1764392958,"1","Burgers, Sandwiches, Restaurants, Diners, American (Traditional)"
"264",43319,"Nishie G's Cafe","Rock Hill","SC","29732",34.9638736,-81.0338443,"1","Breakfast & Brunch, American (New), Restaurants, American (Traditional), Sandwiches"
"265",157463,"Subway","Henderson","NV","89074",36.0358639,-115.0990529,"1","Sandwiches, Restaurants, Fast Food"
"266",136014,"Lodge Wood Fired Grill","Concord","NC","28027",35.3611081,-80.7110796,"1","Steakhouses, Restaurants, Sandwiches, American (Traditional)"
"267",154836,"Life Cafe","Las Vegas","NV","89135",36.1581511387,-115.3277724847,"1","Restaurants, Salad, Cafes, Sandwiches"
"268",88080,"Canter's Delicatessen","Las Vegas","NV","89109",36.124467,-115.171033,"0","Delis, Restaurants, Sandwiches"
"269",70998,"Lakeside Coffee","Rouses Point","NY","12979",44.9931808,-73.3641541,"1","Coffee & Tea, Sandwiches, Salad, Food, Restaurants"
"270",169121,"Blimpie","Phoenix","AZ","85023",33.6396424445,-112.100218949,"1","Sandwiches, Food, Restaurants"
"271",8328,"The Kings’ Plate","King City","ON","L7B 0L1",43.9343602,-79.5076532,"1","Pizza, Italian, Sandwiches, Restaurants"
"272",64124,"Bojangles' Famous Chicken 'n Biscuits","Charlotte","NC","28212",35.1772696,-80.7508267,"1","Sandwiches, Salad, Fast Food, Restaurants, Food"
"273",49240,"Peanut Butter Jelly Time","Pittsburgh","PA","15224",40.462119,-79.949462,"0","Restaurants, Desserts, Food, Ice Cream & Frozen Yogurt, American (Traditional), Sandwiches"
"274",63993,"Starbucks","Toronto","ON","M5H 3Y2",43.6497992662,-79.3793812386,"1","Food, Coffee & Tea, Bakeries, Restaurants, Sandwiches"
"275",181141,"Subway","Las Vegas","NV","89178",36.0198631,-115.2704078,"1","Restaurants, Fast Food, Sandwiches, Salad"
"276",98682,"L'Artisan","Montréal","QC","H2H 1V5",45.5343448,-73.5779068,"1","Chocolatiers & Shops, Restaurants, Food, Bakeries, Desserts, Sandwiches, Specialty Food"
"277",47538,"Bygs Smoked Meat","Terrebonne","QC","J6W 3E4",45.6933338296,-73.6353978914,"1","Restaurants, Sandwiches, Canadian (New)"
"278",176654,"Le Watson","Montréal","QC","H2S 1C8",45.5334269,-73.6143061,"1","Coffee & Tea, Food, Restaurants, Vegan, Sandwiches, Juice Bars & Smoothies, Cafes"
"279",190665,"Lindos Restaurant","Pittsburgh","PA","15233",40.4514362,-80.0183074,"1","Diners, Coffee & Tea, Breakfast & Brunch, Sandwiches, Greek, Burgers, Restaurants, Food"
"280",38081,"Copoli","Montréal","QC","H4A 1S7",45.4766352,-73.6056252,"0","Pizza, Burgers, Sandwiches, Restaurants"
"281",15826,"Arby's","Bridgeville","PA","15017",40.3678974,-80.103154,"1","Fast Food, Restaurants, Burgers, Sandwiches"
"282",133844,"Nostalgia Coffee Company","Toronto","ON","M4B 2S7",43.7068179377,-79.3116290867,"1","Restaurants, Food, Breakfast & Brunch, Sandwiches, Coffee & Tea"
"283",33505,"RUDY","Toronto","ON","M5V 2C5",43.6500169,-79.3891884,"1","Fast Food, Sandwiches, Restaurants, Burgers"
"284",39822,"Subway","Las Vegas","NV","89148",36.0696147774,-115.2982040877,"1","Sandwiches, Restaurants, Fast Food"
"285",187768,"Mr Hero","Cleveland","OH","44130",41.3793253,-81.7857203,"1","Sandwiches, Restaurants"
"286",112722,"Poke Express","Las Vegas","NV","89123",36.018156,-115.117786,"0","Specialty Food, Sandwiches, Poke, Breakfast & Brunch, Ethnic Food, Hawaiian, Restaurants, Food"
"287",139243,"Applebee's","Gastonia","NC","28056",35.2580834,-81.1152778,"0","Burgers, American (Traditional), Restaurants, Sandwiches, Nightlife, Sports Bars, Bars"
"288",72063,"Subway","Brampton","ON","L6Z 1Y4",43.728192,-79.7963163,"1","Fast Food, Restaurants, Sandwiches"
"289",5782,"Thé Mon Café","Montréal","QC","H2Y 3Y8",45.5018456042,-73.5588258505,"1","Desserts, Soup, Sandwiches, Breakfast & Brunch, Restaurants, Coffee & Tea, Food, Cafes"
"290",120818,"Ravi Soups","Toronto","ON","M6P",43.661585,-79.455197,"1","Sandwiches, Restaurants, Soup"
"291",102621,"Martin's Deli","Rocky River","OH","44116",41.476153,-81.847554,"1","Beer, Wine & Spirits, Breakfast & Brunch, Delis, Caterers, Sandwiches, Nightlife, Food, Restaurants, Bars, Wine Bars, Event Planning & Services"
"292",144374,"Food Lion Inc","Charlotte","NC","28269",35.3434293,-80.7695827,"0","Delis, Restaurants, Sandwiches"
"293",187807,"Domino's Pizza","Mesa","AZ","85215",33.4537442,-111.683725,"1","Chicken Wings, Restaurants, Sandwiches, Pizza"
"294",31523,"Freshii","Vaughan","ON","L4K 5Y5",43.827835,-79.5393532,"1","Juice Bars & Smoothies, Food, Restaurants, Salad, Sandwiches"
"295",110159,"Red's Catering","Twinsburg","OH","44087",41.2847462774,-81.4410142888,"1","Soup, Event Planning & Services, Buffets, Sandwiches, Caterers, Restaurants, Breakfast & Brunch, Salad"
"296",113413,"Tropical Smoothie Cafe","Cleveland","OH","44106",41.5085652459,-81.6054113209,"1","Juice Bars & Smoothies, Food, Restaurants, Cafes, Sandwiches"
"297",51219,"McDonald's","Scottsdale","AZ","85260",33.6291111452,-111.891448937,"1","Restaurants, Sandwiches"
"298",57139,"Subway","Davidson","NC","28036",35.5034994,-80.8631998,"1","Fast Food, Sandwiches, Restaurants"
"299",22984,"Critics Cafe","Cleveland","OH","44114",41.5000373,-81.6919258,"1","Restaurants, Sandwiches"
"300",114977,"Breakfast ING","Mississauga","ON","L5C 4E3",43.5680670047,-79.6662918851,"1","Breakfast & Brunch, Malaysian, Cafes, Sandwiches, Restaurants, Singaporean"
"301",65428,"La Prep","Toronto","ON","M4W 3G7",43.6710659,-79.3857432,"1","Salad, Food, Breakfast & Brunch, Cafes, Restaurants, Sandwiches"
"302",63024,"Johnny Rockets","Avondale","AZ","85392",33.4667028066,-112.279586792,"0","Burgers, Fast Food, Diners, Restaurants, Sandwiches, American (Traditional)"
"303",101953,"Cafe Neon","Toronto","ON","M6J 1H6",43.6442043,-79.4196947,"1","Restaurants, Food, Sandwiches, Breakfast & Brunch, Coffee & Tea"
"304",191716,"The Wingery","Vaughan","ON","L4L 8B7",43.7892470765,-79.5474220812,"1","Restaurants, Sandwiches, Food, Chicken Wings, Desserts"
"305",52570,"2 Gals Kitchen","Concord","NC","28025",35.4089100659,-80.5795615911,"1","Restaurants, Sandwiches, Cafes"
"306",146340,"Domino's Pizza","Las Vegas","NV","89134",36.1916690719,-115.3068856471,"1","Food, Pizza, Restaurants, Chicken Wings, Sandwiches"
"307",27107,"Tim Hortons","Toronto","ON","M5S 1V4",43.6682968,-79.3977184,"1","Restaurants, Sandwiches, Coffee & Tea, Food, Breakfast & Brunch"
"308",130873,"Bertha's Café","Phoenix","AZ","85016",33.4958205544,-112.0146683135,"1","Restaurants, Cafes, Desserts, Sandwiches, Breakfast & Brunch, American (Traditional), Food, Bakeries"
"309",135464,"Pasquales on Macleod","Calgary","AB","T2H 0L3",50.9928416732,-114.0707807006,"1","Steakhouses, Restaurants, Italian, Seafood, Nightlife, Bars, Wine Bars, Sandwiches"
"310",145354,"Subway","Pittsburgh","PA","15219",40.438858555,-79.9895100816,"1","Fast Food, Salad, Restaurants, Sandwiches, Delis"
"311",190256,"Sunset Grill","Calgary","AB","T3R 0S4",51.170429,-114.143686,"1","Canadian (New), Restaurants, Diners, Breakfast & Brunch, Burgers, Sandwiches, Salad"
"312",80141,"Miami Déli","Montréal","QC","H1W 1B5",45.5419924,-73.5575465,"1","Breakfast & Brunch, Restaurants, Delis, Sandwiches"
"313",115866,"Pizza Heaven Bistro","Phoenix","AZ","85014",33.5124076744,-112.0653533936,"1","Pizza, Chicken Wings, Sandwiches, Restaurants, Italian"
"314",126538,"Burger King","Las Vegas","NV","89113",36.0552449209,-115.2765671317,"1","Fast Food, Sandwiches, Burgers, Restaurants, Food"
"315",30075,"Quik Chik - 410 & Steeles","Brampton","ON","L6W 0A6",43.6792201144,-79.7206666936,"1","Seafood, Chicken Wings, Halal, Chicken Shop, Restaurants, Fish & Chips, Sandwiches, Fast Food"
"316",104182,"Diva","Vaughan","ON","L4K 4K7",43.8075903,-79.5340868,"1","Sandwiches, Salad, Burgers, Restaurants, Breakfast & Brunch"
"317",30299,"Rustic Cosmo Cafe","Toronto","ON","M6K 1L4",43.6420723,-79.4299737,"1","Food, Restaurants, Coffee & Tea, Breakfast & Brunch, Sandwiches"
"318",128903,"Cousins Subs","Scottsdale","AZ","85258",33.5793844,-111.8871604,"0","Sandwiches, Delis, Restaurants"
"319",112140,"Orca  The Sandwich Shoppe","Toronto","ON","M6N 3S3",43.685922,-79.4869324,"1","Soup, Sandwiches, Salad, Restaurants"
"320",157245,"Jimmy John's","Pittsburgh","PA","15203",40.4289028834,-79.9812828932,"1","Restaurants, Fast Food, Delis, Sandwiches"
"321",770,"Tropical Smoothie Cafe","Las Vegas","NV","89129",36.2191781,-115.2624712,"1","Restaurants, Sandwiches, Juice Bars & Smoothies, Food, Breakfast & Brunch"
"322",104718,"Capriotti's Sandwich Shop","Las Vegas","NV","89120",36.070760187,-115.0883286676,"1","Sandwiches, Restaurants"
"323",15296,"Penn Station East Coast Subs","Macedonia","OH","44056",41.3134158,-81.5120998,"1","American (New), Restaurants, Fast Food, Cheesesteaks, Sandwiches"
"324",185395,"Provision","Calgary","AB","T2R 1N8",51.0408406,-114.0707798,"1","Modern European, Vegetarian, Breakfast & Brunch, American (Traditional), Wine Bars, Nightlife, Restaurants, French, Food, Sandwiches, Coffee & Tea, Bars"
"325",10863,"The Hipp","Cleveland","OH","44103",41.5039153,-81.6539516,"0","Sandwiches, Restaurants, Asian Fusion, American (New), American (Traditional)"
"326",43242,"Panera Bread","Chandler","AZ","85248",33.248227,-111.839767,"1","Sandwiches, Soup, Restaurants, Salad, Cafes"
"327",177698,"Johnny Rockets","Las Vegas","NV","89109",36.0954628,-115.1758039,"1","Restaurants, Sandwiches, Burgers, American (Traditional), Diners"
"328",87094,"Subway","Cleveland","OH","44120",41.4651688,-81.5625247,"1","Restaurants, Sandwiches, Fast Food"
"329",106791,"Ladles","Fort Mill","SC","29715",35.0571301,-80.9344997,"1","Sandwiches, Soup, Restaurants, Salad"
"330",126428,"King David Pizza","Thornhill","ON","L4J",43.8107738622,-79.4536817031,"0","Middle Eastern, Mediterranean, Pizza, Sandwiches, Salad, Restaurants"
"331",86684,"Subway","Henderson","NV","89052",35.9993096,-115.1040059,"1","Sandwiches, Fast Food, Restaurants"
"332",70753,"Panera Bread","Las Vegas","NV","89118",36.0573979,-115.2422172,"1","Restaurants, Salad, Sandwiches, Soup"
"333",117283,"Dairy Queen & Orange Julius","Oakville","ON","L6H 7P3",43.4855516533,-79.7179054141,"1","Burgers, Ice Cream & Frozen Yogurt, Restaurants, Sandwiches, Food"
"334",156707,"Via Panini","Maple","ON","L6A 3L2",43.8515629,-79.5347961,"1","Restaurants, Italian, Sandwiches"
"335",90886,"Arby's","Las Vegas","NV","89149",36.2887247,-115.2884593,"1","Restaurants, Food, Fast Food, Sandwiches, Burgers"
"336",129914,"Arby's","Champaign","IL","61821",40.1124216,-88.2794573,"1","Restaurants, Sandwiches, Fast Food"
"337",67875,"Mezza Mediterranean Grill","Calgary","AB","T2G 0G4",51.0473397,-114.0594343,"0","Food, Mediterranean, Grocery, Sandwiches, Restaurants, Delis"
"338",81337,"Swensons Drive-In","Akron","OH","44313",41.108643,-81.569682,"1","Sandwiches, Fast Food, Burgers, Restaurants"
"339",122228,"Domino's Pizza","Phoenix","AZ","85051",33.5401686,-112.1338888,"1","Chicken Wings, Restaurants, Pizza, Sandwiches"
"340",128328,"Subway","Avondale","AZ","85323",33.4567713,-112.2735726,"1","Restaurants, Fast Food, Sandwiches"
"341",129721,"Subway","Chandler","AZ","85225",33.34051,-111.842792,"1","Fast Food, Sandwiches, Restaurants"
"342",1232,"Which Wich","Indian Land","SC","29707",35.0019416809,-80.8566665649,"1","Sandwiches, Restaurants"
"343",152608,"Café Culinaire le Webster","Saint-Lambert","QC","J4P 1W8",45.5009503,-73.5094977,"1","Sandwiches, Juice Bars & Smoothies, Restaurants, Ice Cream & Frozen Yogurt, Food, Cafes"
"344",74849,"The Wine Room at Afton Village","Concord","NC","28027",35.4141736,-80.6701084,"1","Wine Bars, Sandwiches, Food, Nightlife, Beer, Wine & Spirits, American (Traditional), Bars, Restaurants"
"345",102406,"Subway","Phoenix","AZ","85015",33.536874,-112.0990788,"1","Restaurants, Sandwiches, Fast Food"
"346",65671,"Subway","Avon Lake","OH","44012",41.494273,-82.044675,"1","Fast Food, Sandwiches, Restaurants"
"347",185698,"Crispy Banh Mi","Charlotte","NC","28205",35.236732,-80.776576,"1","Restaurants, Vietnamese, Juice Bars & Smoothies, Food, Sandwiches"
"348",174695,"Xavier Artisan","Montréal","QC","H2Y 2B2",45.5025048,-73.5546985,"0","Sandwiches, Soup, Ice Cream & Frozen Yogurt, Food, Restaurants"
"349",176105,"Wildflower","Glendale","AZ","85308",33.6427575,-112.2209374,"1","Sandwiches, Breakfast & Brunch, American (New), Food, Restaurants, Event Planning & Services, Caterers, Salad, Bakeries"
"350",66438,"Cowtown Beef Shack","Calgary","AB","T2M 3M7",51.0671323,-114.0896244,"0","Southern, Barbeque, Restaurants, Delis, Sandwiches"
"351",167068,"Knuckle Sandwich","Toronto","ON","M4C 3G4",43.6962242,-79.328696,"1","Caterers, Restaurants, Poutineries, Event Planning & Services, Sandwiches"
"352",187861,"Subway","Cross Plains","WI","53528",43.1116503,-89.6429262,"0","Restaurants, Fast Food, Sandwiches"
"353",60751,"Avanti Pizza","Henderson","NV","89074",36.0333259146,-115.0988701014,"0","Restaurants, Pizza, Sandwiches, Italian"
"354",108194,"Bar Vinedo","Queen Creek","AZ","85142",33.2852033191,-111.6845115989,"1","American (Traditional), Cocktail Bars, Restaurants, Music Venues, American (New), Salad, Nightlife, Sandwiches, Arts & Entertainment, Bars"
"355",148291,"Subway","Tempe","AZ","85284",33.3509714,-111.9610056,"1","Fast Food, Salad, Sandwiches, Restaurants"
"356",145366,"Orchid Garden Deli & Grill","Scarborough","ON","M1T 3L4",43.7843518,-79.2921897,"0","Restaurants, Delis, Sandwiches"
"357",152954,"Upper Crust","Dorval","QC","H4Y 1H1",45.4590728581,-73.755816333,"1","Restaurants, Sandwiches"
"358",157789,"Toast Cafe","Surprise","AZ","85374",33.6418104569,-112.367303744,"0","Sandwiches, Restaurants, Salad, Burgers, American (Traditional), Breakfast & Brunch"
"359",61274,"Casey Jones Grill","Phoenix","AZ","85032",33.6405727,-112.0202933,"1","American (Traditional), Restaurants, Bars, Nightlife, Sports Bars, Sandwiches, Pubs"
"360",59076,"Pesto Prima Cafe & Coffee","Scottsdale","AZ","85257",33.4578096238,-111.9081744295,"0","Internet Cafes, American (New), Restaurants, Sandwiches, Food, Cafes, Coffee & Tea"
"361",134210,"Birona Hummus Bar","Montréal","QC","H2T 1S5",45.5253466,-73.5974198,"1","Restaurants, Mediterranean, Salad, Sandwiches, Moroccan"
"362",64903,"Streetcar Po-boys","Las Vegas","NV","89102",36.1520371,-115.1632669,"0","Comfort Food, Restaurants, Soul Food, Sandwiches, Cajun/Creole"
"363",147224,"Iron Creek Bar Grille","Cuddy","PA","15031",40.3481607,-80.1554834,"1","Bars, Sandwiches, American (Traditional), Restaurants, Nightlife"
"364",53131,"Jaspers Deli","Toronto","ON","M5J 2H7",43.6467318,-79.3839517,"1","Delis, Delicatessen, Food, Sandwiches, Restaurants"
"365",74010,"Subway","Toronto","ON","M2N 6L6",43.7686976,-79.4131633,"1","Food Court, Sandwiches, Fast Food, Restaurants"
"366",43313,"Tim Horton's","Brampton","ON","L6T 5T9",43.713822,-79.72112,"1","Restaurants, Food, Sandwiches, Donuts, Coffee & Tea"
"367",181764,"Subway","Middleton","WI","53562",43.1035568,-89.4868063,"1","Restaurants, Sandwiches, Fast Food"
"368",142503,"Domino's Pizza","Strongsville","OH","44136",41.3109346,-81.8357024,"1","Restaurants, Sandwiches, Chicken Wings, Pizza"
"369",128970,"McDonald's","Calgary","AB","T2L 2J7",51.098413,-114.1437634,"1","Fast Food, Sandwiches, Restaurants, Burgers"
"370",13164,"Dave's Cosmic Subs","University Heights","OH","44118",41.4861181,-81.5368572,"1","Sandwiches, Restaurants"
"371",116629,"Sugar & Ice","Las Vegas","NV","89109",36.126506,-115.165731,"0","Restaurants, Food, Ice Cream & Frozen Yogurt, Sandwiches"
"372",170229,"Muscle Maker Grill","Peoria","AZ","85381",33.610526,-112.2394728,"1","Gluten-Free, Restaurants, Salad, Sandwiches"
"373",158237,"Popeyes Louisiana Kitchen","Markham","ON","L6E 0H7",43.9049705,-79.2677549,"1","Food, Restaurants, Seafood, Fast Food, Sandwiches"
"374",79683,"Bouffe Dave Plant Food","Montréal","QC","H2L 1Z9",45.5191325,-73.5574797,"1","Specialty Food, Coffee & Tea, Restaurants, Bakeries, Food, Sandwiches, Breakfast & Brunch, Salad"
"375",185293,"Giovannis Pizzeria","Strongsville","OH","44133",41.2774946,-81.7857953,"1","Pizza, Sandwiches, Restaurants, Salad"
"376",98234,"Glass Nickel Pizza","Madison","WI","53705",43.0754635216,-89.4666998853,"1","Pizza, Food Delivery Services, Food, Event Planning & Services, Restaurants, Italian, Sandwiches, Caterers, Vegetarian, Salad, Chicken Wings"
"377",33304,"Slim Chickens","Chandler","AZ","85286",33.278104,-111.7924641,"1","Sandwiches, Restaurants, Southern, Chicken Wings"
"378",38763,"Skymark Deli","Mississauga","ON","L4W 5A4",43.6583413,-79.5973076,"1","Restaurants, Delis, Caterers, Event Planning & Services, Sandwiches"
"379",61772,"Druxy's Famous Deli","Toronto","ON","M3H 5Y2",43.769681,-79.4676433,"0","Breakfast & Brunch, Sandwiches, Delis, Restaurants, Food, Coffee & Tea"
"380",90962,"Subway","Mesa","AZ","85207",33.4347926,-111.6322095,"1","Sandwiches, Fast Food, Restaurants"
"381",62195,"Fit For Life","Toronto","ON","M5J",43.6481326,-79.3795089,"1","Restaurants, Breakfast & Brunch, Sandwiches, Vegetarian"
"382",130839,"Primanti Bros","Pittsburgh","PA","15238",40.5390311,-79.8389968,"1","Restaurants, Sports Bars, Nightlife, Sandwiches, Bars, American (New)"
"383",187503,"Tim Horton's","Toronto","ON","M9C 1A8",43.6202565376,-79.554585591,"1","Restaurants, Sandwiches, Coffee & Tea, Food"
"384",58650,"Jason's Deli","Henderson","NV","89014",36.0559042,-115.0412703,"1","Sandwiches, Restaurants, Delis, Salad, Caterers, Event Planning & Services"
"385",28125,"Butcher And The Baker","Calgary","AB","T2P 3H7",51.0477381,-114.0673828,"1","Bakeries, Sandwiches, Restaurants, Food"
"386",49235,"Chipotle Mexican Grill","Charlotte","NC","28211",35.171265,-80.807472,"1","Mexican, Restaurants, Fast Food, Tex-Mex, Sandwiches"
"387",3568,"Sugar & Spice Bakery Cafe","Surprise","AZ","85379",33.6083751,-112.3590891,"0","Sandwiches, Bubble Tea, Food, Coffee & Tea, Donuts, Restaurants, Bakeries"
"388",37367,"East of York Gourmet Food","Toronto","ON","M4C 1J4",43.6850116,-79.3165863,"1","Restaurants, Food, Indian, Cafes, Vegetarian, Sandwiches, Specialty Food"
"389",40882,"Melon Cafe","Charlotte","NC","28217",35.1429967,-80.9068695,"1","Restaurants, Sandwiches, Breakfast & Brunch, Food, Cafes, Coffee & Tea"
"390",586,"The Pita Pit","Champaign","IL","61820",40.110039,-88.229804,"0","Restaurants, Sandwiches"
"391",15275,"Snacks","Las Vegas","NV","89109",36.1137695312,-115.1755599976,"0","Cafes, Sandwiches, Coffee & Tea, Food, Restaurants, Beer, Wine & Spirits"
"392",185360,"Café Zupas","Las Vegas","NV","89118",36.0603197442,-115.2416230813,"1","Salad, Restaurants, Soup, Sandwiches, American (New)"
"393",65854,"Famous Dave's Barbeque","Las Vegas","NV","89147",36.1141807443,-115.3039205521,"0","Caterers, Restaurants, Event Planning & Services, Sandwiches, Barbeque"
"394",68191,"Sunterra Quality Food Markets","Calgary","AB","T2P 5H1",51.0489633,-114.0647558,"1","Restaurants, Sandwiches, Delis"
"395",51632,"The House Brasserie","Scottsdale","AZ","85251",33.4933582,-111.9312196,"1","French, American (New), American (Traditional), Food, Burgers, Sandwiches, Coffee & Tea, Nightlife, Bars, Restaurants, Brasseries"
"396",175764,"Old Station Sub Shop","Phoenix","AZ","85007",33.4467764,-112.0894828,"1","Sandwiches, Restaurants, Wraps"
"397",123728,"Cyprus Grill","Chandler","AZ","85248",33.2617999,-111.8602743,"0","Vegan, Sandwiches, Greek, Restaurants, Mediterranean"
"398",179410,"Swensons Drive-In","Montrose","OH","44333",41.1345883,-81.6397571,"1","Sandwiches, Burgers, Restaurants, Fast Food, American (Traditional)"
"399",35995,"Starbucks","Mesa","AZ","85215",33.45091,-111.73493,"1","Coffee & Tea, Bakeries, Sandwiches, Restaurants, Food"
"400",47306,"Safeway Food & Drug","Calgary","AB","T3C 1S2",51.0413976,-114.1400206,"1","Delis, Restaurants, Sandwiches"
"401",13174,"Cousins Subs","Phoenix","AZ","85034",33.4466884,-111.9774937,"0","Delis, Sandwiches, Restaurants"
"402",149808,"Select Sandwich","Mississauga","ON","L5B 3C2",43.591961,-79.6359403,"1","Caterers, Sandwiches, Restaurants, Event Planning & Services"
"403",117901,"Panini Bread & Grill","Glendale","AZ","85308",33.6405425475,-112.1349456693,"1","Salad, Delis, Breakfast & Brunch, Breweries, Caterers, American (Traditional), Event Planning & Services, Food, Sandwiches, Restaurants"
"404",38252,"Boardwalk Billy's Raw Bar-river & Ribs - Crown Point","Charlotte","NC","28270",35.138449,-80.736385,"1","Seafood, Sandwiches, Sports Bars, Barbeque, Bars, Nightlife, Restaurants, American (Traditional), Beer Bar, Cocktail Bars"
"405",131759,"Ciccio Sanwiccio","Toronto","ON","M4Y 2B6",43.6695184,-79.3866159,"1","Sandwiches, Restaurants"
"406",148965,"Sandwich Carvery 108","Las Vegas","NV","89104",36.1478424072,-115.1555023193,"0","Restaurants, Food, Sandwiches, Do-It-Yourself Food"
"407",190253,"Swiss Chalet Rotisserie & Grill","Uxbridge","ON","L9P 1N7",44.0883611051,-79.1342054259,"1","Chicken Wings, Salad, Sandwiches, Restaurants, Comfort Food, American (Traditional)"
"408",149398,"Right By Nature Hometown Market","Pittsburgh","PA","15222",40.4535411,-79.9824409,"0","Health Markets, Grocery, Restaurants, Sandwiches, Specialty Food, Food"
"409",138399,"Dakota","Scottsdale","AZ","85251",33.5012449,-111.9233517,"1","Food, Nightlife, Breakfast & Brunch, Restaurants, Sandwiches, American (New), Bars"
"410",103487,"Pita Pit","Mississauga","ON","L4W 4C3",43.6157182884,-79.6180022906,"1","Sandwiches, Restaurants, Fast Food"
"411",87967,"Jack's New Yorker Deli","Charlotte","NC","28202",35.2301905,-80.8396029,"0","Breakfast & Brunch, Comfort Food, Delis, Sandwiches, Restaurants, Caterers, Event Planning & Services"
"412",151993,"Chopped Leaf","Calgary","AB","T3H 4C7",51.0665181,-114.2094358,"1","Salad, Restaurants, Sandwiches, Fast Food"
"413",100132,"Paolini's Sausage & Meat","Calgary","AB","T2H 1K1",51.0030532,-114.0576925,"1","Sandwiches, Meat Shops, Restaurants, Food, Specialty Food, Delis"
"414",86922,"Caribou Coffee & Einstein Bros. Bagels","Tempe","AZ","85281",33.4227444,-111.9258396,"1","Restaurants, Sandwiches, Bagels, Food, Coffee & Tea, Internet Cafes"
"415",67730,"Arby's","Las Vegas","NV","89121",36.1003749,-115.1148517,"0","Restaurants, Fast Food, Sandwiches"
"416",174169,"Crave Sandwich Cafe & Catering","Phoenix","AZ","85004",33.450823,-112.066715,"1","Caterers, Sandwiches, Restaurants, Event Planning & Services"
"417",140240,"South 21 Matthews","Matthews","NC","28105",35.1153113,-80.6951474,"1","Salad, Restaurants, Sandwiches, Burgers"
"418",50570,"Adrian's Pizza","Pittsburgh","PA","15237",40.539227,-79.9909002,"1","Sandwiches, Pizza, Restaurants, Food Delivery Services, Food"
"419",21005,"Freshii","Toronto","ON","M4W 1A9",43.670347,-79.3853019,"1","Restaurants, Soup, Sandwiches, Breakfast & Brunch"
"420",26318,"Barriques University","Madison","WI","53705",43.0719626,-89.4289533,"1","Restaurants, Coffee & Tea, Sandwiches, Cafes, Food"
"421",54472,"Cheese E Wagon","Mesa","AZ","85201",33.4329528,-111.8449346,"1","Cheesesteaks, Food, Restaurants, American (Traditional), Food Trucks, Sandwiches, Specialty Food, Street Vendors, Cheese Shops"
"422",138689,"The Bistro","Boulder City","NV","89005",35.9713894,-114.8512532,"0","Restaurants, Seafood, Italian, Sandwiches, Steakhouses"
"423",168736,"Jimmy John's","Madison","WI","53703",43.0747472,-89.3947488,"1","Restaurants, Food, Food Delivery Services, Delis, Fast Food, Sandwiches"
"424",93652,"Subway","Mesa","AZ","85201",33.414116,-111.872118,"1","Sandwiches, Fast Food, Restaurants"
"425",40616,"Lulu","Charlotte","NC","28205",35.220328,-80.8079829,"0","Restaurants, Coffee & Tea, Food, Sandwiches, Southern, American (New), American (Traditional), French"
"426",19069,"Cabano's Comfort Food","Toronto","ON","M4Y 0A5",43.6676141,-79.3864589,"1","Burgers, Comfort Food, Sandwiches, Restaurants, American (Traditional)"
"427",123817,"Domino's Pizza","Dravosburg","PA","15034",40.3492497,-79.8913423,"1","Chicken Wings, Food, Restaurants, Food Delivery Services, Sandwiches, Pizza"
"428",94093,"Arby's","Strongsville","OH","44136",41.3056142,-81.8357297,"1","Sandwiches, Restaurants, Burgers, Fast Food"
"429",50920,"Bruegger's Bagels","Pittsburgh","PA","15213",40.4412932,-79.9569755,"1","Bagels, Sandwiches, Restaurants, Food, Breakfast & Brunch"
"430",87842,"Subway","Northfield","OH","44067",41.3437599394,-81.5291206448,"1","Sandwiches, Fast Food, Restaurants"
"431",35523,"The Alcove","Pittsburgh","PA","15220",40.4266685097,-80.040649866,"1","Breakfast & Brunch, American (Traditional), Restaurants, Food, Fast Food, Delis, Sandwiches, Diners"
"432",192315,"The Italian Bread Place & Deli","Pittsburgh","PA","15205",40.4262926363,-80.0566652736,"0","Delis, Sandwiches, Restaurants"
"433",133498,"Flury's Cafe","Cuyahoga Falls","OH","44221",41.136498,-81.483051,"1","Restaurants, Burgers, Sandwiches, Breakfast & Brunch"
"434",18087,"Subway","Mesa","AZ","85202",33.4081326,-111.8739526,"1","Sandwiches, Restaurants, Fast Food"
"435",192409,"Anzi Pizzeria","Charlotte","NC","28277",35.0391005,-80.7943885,"1","Sandwiches, Restaurants, Sicilian, Food Delivery Services, Pizza, Food, Italian"
"436",161120,"Streets of New York","Mesa","AZ","85210",33.3792078,-111.8426523,"1","Sandwiches, Italian, Restaurants, Pizza"
"437",170316,"Subway","Las Vegas","NV","89148",36.0957458,-115.2967171,"0","Restaurants, Sandwiches, Fast Food"
"438",108749,"Dunkin' Donuts","Glendale","AZ","85308",33.6706196,-112.2016265,"1","Coffee & Tea, Food, Restaurants, Donuts, Sandwiches"
"439",60719,"Twisted Meltz","Kent","OH","44240",41.1535258,-81.3568781,"1","Sandwiches, Burgers, Food, Soup, Ice Cream & Frozen Yogurt, Restaurants, American (Traditional), Salad"
"440",6215,"Milano Foodworks","Markham","ON","L3R 1A3",43.8181704,-79.3497643,"1","Greek, Sandwiches, Italian, Restaurants"
"441",122149,"Subway","North Las Vegas","NV","89031",36.2624391248,-115.2066929181,"1","Fast Food, Sandwiches, Restaurants"
"442",80029,"Defalco's Italian Grocery","Scottsdale","AZ","85257",33.4740594,-111.9271441,"1","Sandwiches, Delis, Grocery, Food, Italian, Restaurants"
"443",72915,"Subway","Brecksville","OH","44141",41.3195686,-81.6256928,"1","Sandwiches, Restaurants, Fast Food"
"444",125291,"Lucky's Pizza","Glendale","AZ","85304",33.5969511,-112.2008183,"1","Italian, Pizza, Restaurants, Chicken Wings, Sandwiches"
"445",40002,"Healthy Heart Food Delivery","North York","ON","M3B 2R9",43.7364218,-79.3516355,"1","Specialty Food, Restaurants, Food Delivery Services, Health Markets, Sandwiches, Food"
"446",134909,"Ô Claf","Montréal","QC","H3G 1W9",45.500084,-73.577303,"1","Sandwiches, Specialty Food, Soup, Salad, Delis, Restaurants, Food"
"447",11228,"Chef's Grill and Deli","Phoenix","AZ","85044",33.3375219,-111.9945634,"0","Delis, Restaurants, Sandwiches, American (Traditional)"
"448",100263,"Yitz's Deli & Catering","Toronto","ON","M5N 1A2",43.7047418,-79.4090844,"1","Event Planning & Services, Sandwiches, Delis, Food, Tobacco Shops, Caterers, Kosher, Shopping, Restaurants, Bakeries"
"449",14498,"Arby's","Medina","OH","44256",41.13722,-81.7963447,"1","Fast Food, Restaurants, Sandwiches, Burgers"
"450",136091,"Talise","North York","ON","M2N 7A1",43.7762869,-79.4145559,"0","Sandwiches, Restaurants, Delis"
"451",87108,"Charley's Grilled Subs","Beachwood","OH","44122",41.498488,-81.4941423,"1","Restaurants, Sandwiches"
"452",176025,"Fresco's Fish & Chips","Toronto","ON","M6C 1B6",43.6808548,-79.4305171,"0","Sandwiches, Fish & Chips, Chicken Wings, Breakfast & Brunch, Restaurants"
"453",56839,"Noble Roman's Pizza Slots A Fun","Las Vegas","NV","89109",36.135924,-115.162907,"1","Restaurants, Sandwiches, Pizza"
"454",117246,"Stumpy's Pizza & Subs","Phoenix","AZ","85020",33.5528379673,-112.0535259189,"1","Pizza, Food, Desserts, Italian, Restaurants, Sandwiches"
"455",74830,"Aroma Espresso Bar","Toronto","ON","M5S 1Y3",43.6655226,-79.4102724,"1","Breakfast & Brunch, Restaurants, Food, Bakeries, Coffee & Tea, Sandwiches, Internet Cafes"
"456",180704,"Sauced Wood Fired Pizza","Fairview Park","OH","44126",41.4420035406,-81.8638411341,"1","Sandwiches, Street Vendors, Restaurants, Pizza, Italian, Food, Food Trucks"
"457",33094,"Greenberg's Deli","Las Vegas","NV","89136",36.1023786,-115.1745465,"1","Delis, Sandwiches, Pizza, Restaurants"
"458",189117,"Café Fiesta","Henderson","NV","89015",36.0319583,-115.0091278,"1","Breakfast & Brunch, Cafes, Restaurants, American (Traditional), Sandwiches, Burgers"
"459",79581,"Subway","Harrisburg","NC","28075",35.323857,-80.6477947,"1","Sandwiches, Restaurants, Fast Food"
"460",105402,"Subway","Bedford","OH","44146",41.3697778,-81.5127737,"1","Sandwiches, Restaurants, Fast Food"
"461",131117,"The Submarine","Calgary","AB","T2E 2Z6",51.0951903,-114.0629513,"1","Restaurants, Vietnamese, Sandwiches, Soup"
"462",64239,"California Sandwiches","Vaughan","ON","L4K 0H1",43.8344462464,-79.5208149031,"1","Sandwiches, Restaurants"
"463",6144,"Arby's","Gilbert","AZ","85234",33.3786834,-111.7551885,"1","Sandwiches, Fast Food, Restaurants"
"464",171605,"Druxy's Famous Deli","Toronto","ON","M5C 1R5",43.6527324,-79.3772996,"1","Delis, Breakfast & Brunch, Caterers, Event Planning & Services, Sandwiches, Restaurants"
"465",27144,"701 Main","Waxhaw","NC","28173",34.9235888,-80.7501152,"1","Sandwiches, American (Traditional), Nightlife, Bars, Greek, Breakfast & Brunch, Restaurants"
"466",146758,"Jersey Mike's Subs","Cuyahoga Falls","OH","44221",41.162800635,-81.476689687,"1","Sandwiches, Delis, Restaurants, Fast Food"
"467",90011,"Potbelly Sandwich Shop","Chandler","AZ","85226",33.30467,-111.904925,"1","Sandwiches, Restaurants"
"468",148149,"IHOP","Avondale","AZ","85323",33.45633,-112.34042,"1","Sandwiches, American (Traditional), Breakfast & Brunch, Restaurants, American (New), Burgers"
"469",45894,"Subway","Pickering","ON","L1V 4H7",43.8454344487,-79.070083424,"1","Restaurants, Sandwiches, Fast Food"
"470",5761,"Subway","Toronto","ON","M6G 1L5",43.6634065,-79.4185575,"1","Restaurants, Sandwiches, Fast Food"
"471",190150,"Beaudevin","Charlotte","NC","28208",35.2203324063,-80.9440162454,"1","Wine Bars, Sandwiches, Arts & Entertainment, Nightlife, Wineries, Tapas/Small Plates, Restaurants, Food, Bars"
"472",98702,"Lakefront Cafe on Langdon","Madison","WI","53706",43.0765783098,-89.3994861824,"0","Burgers, Food Stands, Restaurants, Sandwiches, Vegetarian, American (Traditional), Pizza"
"473",123973,"Roly Poly","Mayfield Heights","OH","44124",41.5182538,-81.4509208,"0","Sandwiches, Fast Food, Restaurants, Vegetarian"
"474",192187,"Subway","Tempe","AZ","85282",33.3932482,-111.9770632,"1","Fast Food, Restaurants, Sandwiches"
"475",151702,"Soupesoup","Montréal","QC","H3G 2C1",45.49876,-73.5786786,"0","Soup, Canadian (New), American (New), Sandwiches, Restaurants"
"476",129939,"Arby's","Phoenix","AZ","85022",33.6398815,-112.061726,"1","Sandwiches, Restaurants, Fast Food"
"477",16123,"Jimmy's Backyard BBQ","Cuyahoga Falls","OH","44221",41.1578353,-81.4927271,"1","Tex-Mex, Sandwiches, Restaurants, Mexican, Barbeque"
"478",134596,"La Cantine","Las Vegas","NV","89129",36.2198750347,-115.2506966928,"1","Bakeries, Sandwiches, Vegan, Cafes, Fast Food, Restaurants, Mexican, Food"
"479",143724,"Arby's","Indian Trail","NC","28079",35.080575,-80.658006,"1","Sandwiches, Fast Food, Restaurants"
"480",43256,"Forefathers Cheesesteaks","Scottsdale","AZ","85258",33.5528324,-111.8813119,"1","Restaurants, Salad, American (Traditional), Sandwiches, Cheesesteaks, American (New)"
"481",87936,"Gallagher's Sports Grill","Phoenix","AZ","85020",33.54666,-112.046985,"1","Sports Bars, American (Traditional), Nightlife, Bars, Restaurants, Burgers, Sandwiches"
"482",3596,"Papa Kelsey's Pizza & Subs","Mesa","AZ","85207",33.416708,-111.634091,"1","Restaurants, Sandwiches, Pizza, Chicken Wings"
"483",82646,"Famous Toastery","Davidson","NC","28036",35.4992007,-80.848785,"1","Restaurants, American (New), Bars, Event Planning & Services, Breakfast & Brunch, Sandwiches, Nightlife, Caterers, American (Traditional)"
"484",190013,"Quiznos","Las Vegas","NV","89103",36.1002691,-115.2092345,"0","Fast Food, Delis, Restaurants, Sandwiches"
"485",89948,"Pho 90","Las Vegas","NV","89102",36.1260081178,-115.1984550092,"1","Restaurants, Vietnamese, Food, Sandwiches, Coffee & Tea, Breakfast & Brunch, Soup"
"486",384,"Barro's Pizza","Tempe","AZ","85283",33.378956,-111.925552,"1","Sandwiches, Italian, Pizza, Restaurants"
"487",152661,"Comfort Cravings","Phoenix","AZ","85003",33.4495511,-112.0789355,"0","Food, Food Trucks, Sandwiches, Barbeque, Restaurants, American (Traditional), Cuban, Comfort Food"
"488",10013,"Jz's Pizza","Toronto","ON","M5V 3W1",43.6452767607,-79.3897039038,"1","Sandwiches, Restaurants, Italian, Pizza"
"489",168804,"Pizza My Dear","Las Vegas","NV","89119",36.0573008729,-115.1283009279,"1","Sandwiches, Gluten-Free, Food, Italian, Pizza, Food Delivery Services, Restaurants"
"490",104002,"Cowtown Beef Shack","Calgary","AB","T2Z 0N2",50.9155748,-113.9619684,"1","Sandwiches, Restaurants, Barbeque, Delis"
"491",164246,"Barriques - Monroe St.","Madison","WI","53711",43.0649299,-89.4165809,"1","Restaurants, Beer, Wine & Spirits, Coffee & Tea, Food, Cafes, Sandwiches"
"492",32011,"Jugo Juice","Calgary","AB","T2S 0B4",51.0379424905,-114.0763545308,"1","Sandwiches, Restaurants, Juice Bars & Smoothies, Food"
"493",146442,"Jimmy John's","Fitchburg","WI","53719",43.0154874,-89.4772216,"1","Food, Restaurants, Sandwiches, Food Delivery Services, Delis, Fast Food"
"494",98688,"Aroma Espresso Bar","Toronto","ON","M4W 3L4",43.6719155,-79.3779708,"1","Cafes, Sandwiches, Breakfast & Brunch, Restaurants, Coffee & Tea, Food"
"495",167015,"La Rosa Chilena","North York","ON","M3K 1E2",43.7313356,-79.4650661,"1","Food, Sandwiches, Bakeries, Restaurants, Latin American"
"496",6409,"Penn Station East Coast Subs","Cleveland","OH","44118",41.50128,-81.5366,"1","Food, Sandwiches, Restaurants, American (New), Pizza"
"497",190577,"Subway","Madison","WI","53704",43.1276226,-89.3630221,"1","Sandwiches, Fast Food, Restaurants"
"498",177132,"Jimmy John's","Cleveland","OH","44113",41.4993953,-81.6996672,"1","Fast Food, Delis, Sandwiches, Restaurants"
"499",138777,"Johnny Brusco's New York Style Pizza","Concord","NC","28027",35.419034,-80.742997,"1","Pizza, Restaurants, Italian, Sandwiches"
"500",93975,"Pizza Care","Pittsburgh","PA","15219",40.438725,-79.984349,"1","Restaurants, Soup, Pizza, Wraps, Specialty Food, Pasta Shops, Italian, Sandwiches, Food, American (New)"
"501",44424,"Irv's Sandwich Shop","Cleveland Heights","OH","44118",41.5008372,-81.5563232,"1","Breakfast & Brunch, Sandwiches, Diners, Restaurants"
"502",110538,"Mr Sub","Pickering","ON","L1W 3E5",43.8333616,-79.0686101,"1","Sandwiches, Restaurants"
"503",50445,"Arby's","Glendale","AZ","85302",33.58235,-112.1837321,"1","Sandwiches, Restaurants, Fast Food"
"504",175400,"Domino's Pizza","Phoenix","AZ","85035",33.466386,-112.167899,"1","Pizza, Restaurants, Sandwiches, Chicken Wings"
"505",12146,"Cosi","Middleton","WI","53562",43.0907846895,-89.5255461719,"0","Sandwiches, Restaurants"
"506",147776,"Nam Sandwich","Toronto","ON","M6J 1G3",43.6451986,-79.4143964,"0","Sandwiches, Restaurants, Asian Fusion"
"507",101449,"Aida's Pine Valley Bakery","Woodbridge","ON","L4L 5V2",43.7799557703,-79.5706223657,"1","Sandwiches, Ethnic Food, Specialty Food, Bakeries, Restaurants, Food, Pizza, Coffee & Tea"
"508",69267,"Nikki's Akropolis Pizza","Henderson","NV","89014",36.0643468121,-115.0595177338,"0","Pizza, Restaurants, Greek, Salad, Italian, Sandwiches"
"509",131198,"Il Chianti Italian Steak & Seafood","Henderson","NV","89012",36.0133950245,-114.9927590543,"1","Seafood, Desserts, Restaurants, Italian, Food, Steakhouses, Sandwiches"
"510",184310,"Schlotzsky's","Scottsdale","AZ","85258",33.577807,-111.8865948,"1","Restaurants, Sandwiches, Fast Food, Delis"
"511",9439,"Wolfgang Puck Bar & Grill Las Vegas","Las Vegas","NV","89109",36.102543,-115.169884,"1","Sandwiches, Pizza, Salad, Food, Beer, Wine & Spirits, Nightlife, Bars, Restaurants, Hotels & Travel, American (New)"
"512",181327,"Schlotzsky's","Las Vegas","NV","89109",36.098909,-115.175557,"1","Food, Delis, Pizza, Sandwiches, Restaurants"
"513",70580,"Fresh Off The Boat","Toronto","ON","M5V 2A7",43.6486781,-79.3972377,"1","Seafood, Fish & Chips, Food, Specialty Food, Fast Food, Restaurants, Sandwiches"
"514",96491,"Hot Oven Bakery","Etobicoke","ON","M9B 3Y8",43.6327916,-79.5546772,"1","Food, Coffee & Tea, Desserts, Delis, Bakeries, Sandwiches, Comfort Food, Restaurants"
"515",127658,"Sidewalk Cafe","Las Vegas","NV","89169",36.1192138,-115.1556587,"1","Restaurants, Breakfast & Brunch, Sandwiches, Cafes"
"516",13050,"Melt Grilled Cheese","Toronto","ON","M8W 4Z9",43.5962879,-79.525566,"0","Restaurants, Sandwiches"
"517",107988,"Arby's","North Las Vegas","NV","89084",36.2874000523,-115.178330854,"1","Fast Food, Sandwiches, Restaurants"
"518",163955,"Tim Hortons","Etobicoke","ON","M9W 6J1",43.7356605542,-79.6047291532,"1","Food, Sandwiches, Restaurants, Bakeries, Breakfast & Brunch, Coffee & Tea"
"519",167825,"Me Vietnamese Kitchen","Gastonia","NC","28056",35.2613882214,-81.1321284994,"1","Restaurants, Comfort Food, Vietnamese, Bubble Tea, Sandwiches, Gluten-Free, Soup, Noodles, Food"
"520",42400,"Blimpie","PHOENIX","AZ","85028",33.583618,-111.974141,"1","Sandwiches, Restaurants"
"521",28110,"Quiznos","Chandler","AZ","85224",33.2985655,-111.8775871,"0","Restaurants, Sandwiches, Fast Food, Delis"
"522",14885,"Steak ’n Shake","Pleasant Hills","PA","15236",40.3357415666,-79.9481347203,"1","Sandwiches, Restaurants, Burgers, Fast Food, American (New), Diners, Breakfast & Brunch, American (Traditional)"
"523",84247,"Pony Express Cafe","Scottsdale","AZ","85262",33.7413162,-111.8441435,"1","American (New), Wraps, Sandwiches, Restaurants, Breakfast & Brunch, Cafes, Salad, Food, Coffee & Tea"
"524",13098,"Cadillac Cafe","Pineville","NC","28134",35.0954356,-80.88214,"1","Cafes, Food, Automotive, Restaurants, American (Traditional), Sandwiches, Car Dealers"
"525",130410,"Firehouse Subs","Concord","NC","28027",35.395303,-80.616795,"1","Fast Food, Delis, Sandwiches, Restaurants"
"526",17138,"Subway","Phoenix","AZ","85018",33.4954691,-111.9881878,"1","Restaurants, Sandwiches, Fast Food"
"527",28785,"Burger Joint","Henderson","NV","89052",35.995645,-115.0998826,"0","Food, Sandwiches, Restaurants, Beer, Wine & Spirits, American (New), Tapas Bars, Burgers, Fast Food"
"528",136633,"Applewood Smoke Burger","Pittsburgh","PA","15206",40.4762289,-79.9208742,"1","Burgers, Restaurants, Vegetarian, Sandwiches"
"529",63902,"California Sandwiches","Toronto","ON","M3B 1Y2",43.7542720222,-79.351681564,"1","Restaurants, Sandwiches, Food"
"530",10513,"Sidewalk Citizen Bakery","Calgary","AB","T2N 1V8",51.0554691,-114.0854041,"1","Restaurants, Sandwiches, Food, Bakeries"
"531",175746,"Melt Bar and Grilled","Independence","OH","44131",41.3941325081,-81.6446144208,"1","Restaurants, Nightlife, Sandwiches, Pubs, Food, Comfort Food, American (Traditional), Beer, Wine & Spirits, Bars"
"532",139767,"Parry's Pizzeria & Bar","Charlotte","NC","28216",35.352549,-80.851181,"1","Restaurants, Nightlife, Cocktail Bars, American (Traditional), Sandwiches, Pizza, Beer Bar, Bars"
"533",38833,"Subway","Richmond Hill","ON","L4B 4V9",43.84333,-79.4080531,"1","Sandwiches, Restaurants, Fast Food"
"534",126105,"Food Lion","Charlotte","NC","28227",35.213121,-80.690289,"1","Delis, Sandwiches, Restaurants"
"535",80088,"Great Harvest Bread Company","Henderson","NV","89014",36.0661553,-115.0367291,"1","Bakeries, Sandwiches, Food, Restaurants, Coffee & Tea"
"536",75861,"Domino's Pizza","Fairlawn","OH","44333",41.127474,-81.609428,"1","Chicken Wings, Sandwiches, Pizza, Restaurants"
"537",137687,"Terrines & Pâtés","Montréal","QC","H4C 2G3",45.479565,-73.576862,"1","Delis, Food, Specialty Food, Cheese Shops, Delicatessen, Restaurants, Sandwiches, Meat Shops"
"538",159737,"Souvlaki Hut","Toronto","ON","M6S 1M8",43.6517188,-79.4745649,"1","Food, Restaurants, Salad, Greek, Sandwiches, Soup"
"539",153754,"Café Chat l'Heureux","Montréal","QC","H2W 1H3",45.51859441,-73.5777685435,"1","Sandwiches, Canadian (New), Coffee & Tea, Vegetarian, Food, Restaurants"
"540",178948,"Applebee's Grill + Bar","University Heights","OH","44118",41.500991,-81.534645,"1","Restaurants, American (Traditional), Sandwiches, Bars, Nightlife, Steakhouses, Burgers, Sports Bars"
"541",23317,"Bacon","Scottsdale","AZ","85251",33.4960516,-111.9303102,"0","Breakfast & Brunch, Restaurants, Food, Sandwiches, Coffee & Tea"
"542",170680,"Honey Baked Ham Company","Mesa","AZ","85206",33.3799175,-111.6886633,"1","Delis, Sandwiches, Cafes, Food, Specialty Food, Restaurants, Meat Shops"
"543",47648,"In The Mood Cafe","Matthews","NC","28104",35.068873494,-80.7007759792,"0","Food, Salad, Restaurants, Ice Cream & Frozen Yogurt, Coffee & Tea, Sandwiches"
"544",1611,"Vintner Grill","Las Vegas","NV","89135",36.1594376869,-115.3166287189,"1","American (New), Wine Bars, Sandwiches, Cocktail Bars, Bars, Nightlife, American (Traditional), Restaurants"
"545",32825,"Arby's","Phoenix","AZ","85018",33.4807433,-111.9984064,"1","Sandwiches, Restaurants, Burgers, Fast Food"
"546",17005,"Arby's","Phoenix","AZ","85042",33.3773552,-112.0708618,"1","Sandwiches, Fast Food, Restaurants"
"547",156105,"Chachi's Sandwich Bar","Calgary","AB","T2X 0M5",50.9045981,-114.0576751,"1","Sandwiches, Food, Restaurants"
"548",166117,"Tim Hortons","Toronto","ON","M2R 1X9",43.7729021189,-79.4423142786,"1","Coffee & Tea, Cafes, Food, Restaurants, Breakfast & Brunch, Sandwiches"
"549",44263,"Mamma's Pizza","Toronto","ON","M3B",43.7541178,-79.3579634,"1","Restaurants, Sandwiches, Pizza, Italian"
"550",147025,"Ladeda Fish, Chicken & Gyro","North Versailles","PA","15137",40.3874938809,-79.8217218742,"1","Fish & Chips, Mediterranean, Chicken Wings, Sandwiches, Restaurants"
"551",44496,"Einstein Bros","Las Vegas","NV","89119",36.1032874506,-115.14194525,"1","Sandwiches, Coffee & Tea, Food, Restaurants, Bagels"
"552",124476,"Cafe Sky Eatery","Mooresville","NC","28117",35.527673,-80.868254,"0","Pizza, Restaurants, Cafes, Salad, Sandwiches"
"553",58211,"Boston Pizza","Calgary","AB","T2V 4J8",50.961760366,-114.1215700813,"1","Pizza, Restaurants, Sandwiches, Burgers"
"554",42998,"Subway","Toronto","ON","M5A 1E2",43.6499929,-79.3696799,"1","Restaurants, Sandwiches, Food, Fast Food"
"555",167520,"Nevada Chicken Cafe","Las Vegas","NV","89146",36.1437858,-115.2266305,"1","Cafes, Sandwiches, Delis, Wraps, Restaurants, American (Traditional), Barbeque, Chicken Shop, Food, American (New), Salad"
"556",152000,"Kneaders Bakery and Cafe Chandler","Chandler","AZ","85248",33.26237,-111.8616448,"1","Desserts, Food, Restaurants, Sandwiches, Bakeries"
"557",170245,"Jet's Pizza","Middleburg Heights","OH","44130",41.3601101,-81.8155819,"1","Salad, Sandwiches, Restaurants, Pizza"
"558",146799,"Put A Cone On It","Toronto","ON","M6G 1K8",43.6643322,-79.4144186,"1","Desserts, Food, Ice Cream & Frozen Yogurt, Coffee & Tea, Restaurants, Sandwiches"
"559",90160,"Swensons Drive-In","Stow","OH","44224",41.1548939,-81.4008951,"1","Burgers, Fast Food, Sandwiches, Restaurants"
"560",33674,"Anton & James","Montréal","QC","H3A 1P7",45.4994103181,-73.5740598801,"1","Restaurants, Food, Pizza, Salad, Sandwiches, Bakeries"
"561",31901,"Panera Bread","Phoenix","AZ","85016",33.5102572705,-112.028929691,"0","Salad, Soup, Sandwiches, Restaurants"
"562",143560,"Safeway Food & Drug","Calgary","AB","T2A 7R4",51.0542467,-113.9848652,"1","Food, Delis, Health & Medical, Sandwiches, Pharmacy, Grocery, Restaurants"
"563",100374,"Northwood","Toronto","ON","M6G 1M1",43.662508,-79.4220581,"1","Food, Restaurants, Nightlife, Sandwiches, Chinese, Cocktail Bars, Cafes, Bars, Coffee & Tea"
"564",41148,"Babcock Hall Dairy Store","Madison","WI","53706",43.0749778,-89.4137655,"1","Restaurants, Local Flavor, Food, Ice Cream & Frozen Yogurt, Cheese Shops, Sandwiches, Specialty Food"
"565",56476,"Mel's Montreal Delicatessen","Toronto","ON","M5S 1X5",43.6658099,-79.408497,"0","Food, Delis, Sandwiches, Restaurants"
"566",28156,"Pita Pit","Calgary","AB","T2R 0Y4",51.0385619,-114.0713292,"0","Restaurants, Fast Food, Sandwiches"
"567",155395,"Phillys","Montréal","QC","H2S 1G6",45.5386587,-73.6103204,"1","Cheesesteaks, Restaurants, Poutineries, Sandwiches"
"568",108084,"Jay C's Deli & Bar","Saint-Hubert","QC","J3Y 3R5",45.4979332,-73.4045813,"1","Delis, Restaurants, Sandwiches"
"569",124961,"Cheba Hut Toasted Subs","Mesa","AZ","85202",33.3938544,-111.868177,"1","American (Traditional), Fast Food, Restaurants, Sandwiches, Salad"
"570",106671,"Subway","Phoenix","AZ","85048",33.3035053,-111.99869,"1","Sandwiches, Fast Food, Restaurants"
"571",27603,"East of Chicago Pizza","Solon","OH","44139",41.384599,-81.43914,"0","Sandwiches, Pizza, Restaurants, Gluten-Free"
"572",180732,"Honey Baked Ham Company","Parma","OH","44129",41.4184224,-81.7247247,"1","Cafes, Delis, Specialty Food, Sandwiches, Restaurants, Food, Meat Shops"
"573",55489,"Subway","Phoenix","AZ","85029",33.581388,-112.123171,"1","Sandwiches, Fast Food, Restaurants"
"574",125630,"The Hero Factory","Phoenix","AZ","85003",33.449777,-112.075344,"0","Breakfast & Brunch, Sandwiches, Food, Delis, Restaurants"
"575",6088,"Honey Baked Ham Company","Las Vegas","NV","89146",36.1583602,-115.2431251,"1","Cafes, Food, Caterers, Specialty Food, Sandwiches, Meat Shops, Restaurants, Delis, Event Planning & Services"
"576",97677,"Panera Bread","Pittsburgh","PA","15237",40.5702463735,-80.021790831,"1","Salad, Sandwiches, Soup, Restaurants"
"577",12396,"City Centre Cafe","Las Vegas","NV","89101",36.1665965,-115.1442241,"0","Cafes, Sandwiches, Restaurants"
"578",115735,"Panera Bread","Strongsville","OH","44136",41.3141693629,-81.83472,"1","Breakfast & Brunch, Bagels, Soup, Sandwiches, Salad, Food, Restaurants"
"579",139731,"Mulligan's Sports Bar and Grill","West Mifflin","PA","15122",40.3607613,-79.9321502,"1","Restaurants, Sandwiches, American (New), Delis, Sports Bars, Bars, Beer, Wine & Spirits, Food, Nightlife, American (Traditional)"
"580",124271,"La Bastringue","Montréal","QC","H2G 1K7",45.5405031,-73.5993003,"0","Restaurants, Breakfast & Brunch, Sandwiches, Cafes, French"
"581",24254,"Johnny Rockets","Glendale","AZ","85305",33.5351526877,-112.2609186172,"1","Restaurants, Sandwiches, American (Traditional), Fast Food, Burgers, Diners"
"582",32869,"Wildflower","Scottsdale","AZ","85260",33.6277358352,-111.8916024636,"1","Restaurants, Bakeries, Salad, Food, Specialty Food, Sandwiches, Pasta Shops"
"583",179517,"Chipotle Mexican Grill","Mesa","AZ","85204",33.3796878,-111.7560177,"1","Sandwiches, Fast Food, Mexican, Restaurants, Tex-Mex"
"584",112044,"Oregano's Pizza Bistro","Goodyear","AZ","85395",33.4649623296,-112.3878981996,"1","Sandwiches, Pizza, Italian, Restaurants"
"585",159209,"Panera Bread","Tempe","AZ","85284",33.334007,-111.967197,"1","Sandwiches, Restaurants, Salad, Soup"
"586",80758,"Prague Fine Food Emporium","Toronto","ON","M6J 1E4",43.6469359,-79.4060298,"0","Czech/Slovakian, Czech, Delis, Modern European, Event Planning & Services, Sandwiches, Restaurants, Caterers"
"587",101060,"Subway","North Olmsted","OH","44070",41.4178357,-81.8966901,"1","Restaurants, Sandwiches, Fast Food"
"588",45721,"Green Café","Montréal","QC","H3Z 1P2",45.4875938,-73.5862168,"1","Sandwiches, Cafes, Salad, Vegan, Breakfast & Brunch, Restaurants"
"589",60967,"Della's Kitchen","Las Vegas","NV","89119",36.0929513501,-115.1775243461,"1","Breakfast & Brunch, American (Traditional), Restaurants, Sandwiches"
"590",88041,"The Clubhouse Gibsonia","Gibsonia","PA","15044",40.6171125,-79.9449297,"1","Restaurants, Sports Bars, American (Traditional), Sandwiches, Bars, Nightlife"
"591",64799,"Subway","Calgary","AB","T2G 2Y8",51.0168614,-114.0451308,"1","Restaurants, Fast Food, Sandwiches"
"592",74548,"Brulerie des Monts","Saint-Sauveur","QC","J0R 1R0",45.895817,-74.1564012,"1","Food, Coffee Roasteries, Sandwiches, Breakfast & Brunch, Restaurants"
"593",130552,"What About Bob's Subs","Willoughby","OH","44094",41.6293334,-81.4210012,"0","Restaurants, Nightlife, Sandwiches, Adult Entertainment"
"594",70493,"Jimmy John's","Las Vegas","NV","89117",36.135529,-115.278454,"1","Restaurants, Delis, Fast Food, Sandwiches"
"595",155624,"Subway","Mount Holly","NC","28120",35.2881982,-81.0170307,"1","Sandwiches, Restaurants, Fast Food"
"596",136720,"Port of Subs","Scottsdale","AZ","85251",33.4915405,-111.9259162,"0","Specialty Food, Health Markets, Sandwiches, Restaurants, Food"
"597",117857,"The Extreme Pita","Calgary","AB","T3K 6B8",51.1614405,-114.0657159,"1","Sandwiches, Restaurants"
"598",107008,"Tim Horton's","Mississauga","ON","L5C 4E3",43.5684737843,-79.665732209,"1","Coffee & Tea, Food, Breakfast & Brunch, Sandwiches, Bakeries, Restaurants"
"599",8117,"Pita Pit","Mentor","OH","44060",41.655977,-81.372896,"1","Mediterranean, Sandwiches, Fast Food, Restaurants"
"600",58255,"Melt Grilled Cheese","Scarborough","ON","M1P 2G6",43.758688,-79.2889502,"0","Sandwiches, Restaurants"
"601",45233,"Subway","Euclid","OH","44117",41.5731317,-81.5251893,"1","Fast Food, Restaurants, Sandwiches"
"602",31225,"Subway","Pittsburgh","PA","15216",40.3992802,-80.043815,"1","Fast Food, Restaurants, Sandwiches"
"603",160369,"Boston Market","Pittsburgh","PA","15220",40.4180836,-80.0460264,"1","Restaurants, Caterers, Comfort Food, Sandwiches, Event Planning & Services, Pizza, Chicken Wings, American (New), American (Traditional)"
"604",126862,"Rubin's Deli & Restaurant","Elyria","OH","44035",41.3990802553,-82.1204752475,"1","Delis, Sandwiches, American (Traditional), Greek, Restaurants, Burgers, Mediterranean"
"605",93193,"Caribbean Choice","Calgary","AB","T2E 2T4",51.0721549,-114.0629827,"1","Event Planning & Services, Caterers, Sandwiches, Grocery, Delis, Restaurants, Caribbean, Food"
"606",62254,"Buna's Kitchen","Toronto","ON","M5V 3P1",43.6481726,-79.3947836,"1","Sandwiches, Salad, Restaurants, Specialty Food, Cafes, Food, Modern European"
"607",117676,"Tim Horton's","Brampton","ON","L6S 0C5",43.760668,-79.7204014,"1","Sandwiches, Coffee & Tea, Food, Breakfast & Brunch, Restaurants"
"608",89113,"Sittoo's Pita & Salad","North Olmsted","OH","44070",41.4253082,-81.8979079,"1","Sandwiches, Restaurants, Mediterranean, Vegetarian, Salad, Lebanese, Middle Eastern"
"609",139104,"Arby's","Phoenix","AZ","85053",33.6400897,-112.1314014,"1","Sandwiches, Fast Food, Restaurants, American (Traditional)"
"610",36389,"Cottage","Toronto","ON","M2N 7L4",43.7748786,-79.4132928,"1","Burgers, Sandwiches, Halal, Pizza, Restaurants, Persian/Iranian"
"611",74998,"Harvest Grains","Madison","WI","53715",43.0717653,-89.4081342,"1","Delis, Sandwiches, Restaurants"
"612",59680,"Marie's Cafe","Medina","OH","44256",41.1393741,-81.8633777,"1","Coffee & Tea, Breakfast & Brunch, Restaurants, Mediterranean, Food, Diners, Sandwiches, Specialty Food, Middle Eastern, Ethnic Food"
"613",72531,"BQM King West","Toronto","ON","M5V 3H5",43.641859,-79.4112192,"0","Cocktail Bars, Sandwiches, Burgers, Food, Restaurants, Nightlife, Bars, Beer, Wine & Spirits"
"614",49133,"Steak 'n Hoagie Shop","Matthews","NC","28104",35.095978,-80.6775481,"1","Sandwiches, Restaurants, Cheesesteaks"
"615",160879,"Wolfie's","North York","ON","M3H 2S5",43.754976,-79.4424973,"1","Food, Coffee & Tea, Sandwiches, Restaurants, Delis"
"616",86742,"Shorty's Sandwich Shop","Phoenix","AZ","85040",33.4066905,-112.0001763,"1","Breakfast & Brunch, Restaurants, Salad, Food, Sandwiches, Event Planning & Services, Soup, Grocery, Delis, Caterers"
"617",42180,"Old Brooklyn Cheese Company","Cleveland","OH","44109",41.4426846,-81.7046795,"1","Meat Shops, Food, Cheese Shops, Local Flavor, Education, Sandwiches, Tasting Classes, Grocery, Cheese Tasting Classes, Specialty Food, Restaurants"
"618",140301,"My Sandwich","Toronto","ON","M5V 1Z7",43.6501306,-79.3904119,"0","Soup, Restaurants, Sandwiches"
"619",46033,"Leonardos Pizza","Fairlawn","OH","44333",41.1328355,-81.6140538,"1","Italian, Sandwiches, Chicken Wings, Restaurants, Pizza"
"620",109138,"Hanini's Market","Wilkinsburg","PA","15221",40.439089,-79.878795,"1","Sandwiches, Food, Grocery, Restaurants, Delis"
"621",99918,"Penn Station","Cleveland","OH","44118",41.501638,-81.537237,"0","Sandwiches, Restaurants, American (New)"
"622",153986,"The Whole Plate","Toronto","ON","M6R 2K6",43.641556,-79.44705,"1","Salad, Restaurants, Sandwiches, Food, Juice Bars & Smoothies, Canadian (New)"
"623",174561,"Pudgies Eatery","Akron","OH","44310",41.1020052,-81.4730687,"0","Food Delivery Services, Sandwiches, Food, Restaurants, Pizza"
"624",35071,"Romaine Empire","Las Vegas","NV","89109",36.1161559,-115.1750576,"0","Sandwiches, Food Court, Restaurants, Salad, Seafood"
"625",24329,"V Picasso","Champaign","IL","61820",40.117237,-88.2431919,"1","Wine Bars, Food, Nightlife, Venues & Event Spaces, Sandwiches, American (New), Tapas Bars, Farmers Market, Event Planning & Services, Bars, Restaurants"
"626",7497,"Baguette Cafe","Las Vegas","NV","89113",36.066865,-115.273241,"1","Delis, Coffee & Tea, Vegan, Breakfast & Brunch, Food, Cafes, Restaurants, Sandwiches, French"
"627",188793,"Rudy's Subs","Monroeville","PA","15146",40.4376316,-79.7758839,"1","Beer, Wine & Spirits, Pizza, Sandwiches, Restaurants, Food"
"628",49140,"Super Five Foods O-A Vita Pita","Brampton","ON","L6Y 5L8",43.6577117,-79.7238767,"1","Restaurants, Sandwiches"
"629",135678,"Cafe Zupas","Glendale","AZ","85308",33.6399609671,-112.2198586911,"0","Sandwiches, American (Traditional), Salad, Restaurants, Soup"
"630",177304,"Rockaberry","Dollard-Des-Ormeaux","QC","H9B 1Z8",45.484633,-73.796026,"1","Salad, Diners, Desserts, Sandwiches, Cafes, Bagels, Restaurants, Food"
"631",45928,"Arby's","Phoenix","AZ","85032",33.6006294,-111.9801718,"1","Restaurants, Italian, Fast Food, American (Traditional), Sandwiches"
"632",68439,"Bruegger's Bagels","Cleveland Hghts.","OH","44106",41.5012588,-81.5929132,"1","Bagels, Breakfast & Brunch, Food, Restaurants, Sandwiches"
"633",60629,"Brubaker's Pub","Akron","OH","44310",41.1156675,-81.4714126,"1","Salad, Pubs, Sandwiches, Restaurants, Bars, Nightlife, Irish Pub"
"634",34071,"Tim Hortons","Toronto","ON","M4M 3G6",43.669144,-79.3391627,"1","Sandwiches, Delis, Restaurants"
"635",181797,"Jersey Mike's Subs","Lake Wylie","SC","29710",35.118894,-81.079893,"1","Restaurants, Fast Food, Sandwiches, Delis"
"636",88938,"Java Me Craze'","Scottsdale","AZ","85251",33.5026882,-111.9320913,"0","Sandwiches, Restaurants, Food, Coffee & Tea"
"637",64519,"Schlotzsky's","Gastonia","NC","28056",35.2568441,-81.1127538,"1","Delis, Restaurants, Sandwiches"
"638",86552,"Eat! Eat!","Calgary","AB","T2G 0T2",51.0406139,-114.0327117,"0","Restaurants, Breakfast & Brunch, Sandwiches"
"639",69838,"Blimpie","PHOENIX","AZ","85053",33.6102682,-112.1507068,"1","Sandwiches, Restaurants, Salad"
"640",5781,"Sourdough Escape","Henderson","NV","89074",36.0180739949,-115.1012240723,"0","Salad, Restaurants, Food, Sandwiches"
"641",109233,"Jimmy Johns","Brecksville","OH","44141",41.3140926,-81.654662,"1","Restaurants, Sandwiches"
"642",172455,"Panera Bread","Charlotte","NC","28210",35.151154,-80.841072,"1","Restaurants, Bagels, Breakfast & Brunch, Bakeries, Soup, Salad, Sandwiches, Food"
"643",32764,"Dave's Cosmic Subs","Macedonia","OH","44056",41.3146266,-81.5207304,"1","Delis, Restaurants, Sandwiches"
"644",181477,"Dilly's Deli Sandwich Shop","Scottsdale","AZ","85254",33.617273,-111.926576,"0","Delis, Restaurants, Event Planning & Services, Caterers, Sandwiches"
"645",114122,"Subway","Toronto","ON","M5B 1C9",43.6564976,-79.3782647,"1","Fast Food, Sandwiches, Restaurants"
"646",89525,"Fox's Pizza Den","Oakmont","PA","15139",40.5157702,-79.8428651,"1","Pizza, Restaurants, Sandwiches"
"647",65890,"Blimpie","PHOENIX","AZ","85083",33.7139169,-112.1429492,"1","Fast Food, Sandwiches, Restaurants, Delis"
"648",26836,"Tru Burger","Anthem","AZ","85086",33.8432273456,-112.1347311749,"1","Restaurants, American (New), Burgers, Sandwiches, American (Traditional)"
"649",160148,"Subway","Phoenix","AZ","85032",33.599418911,-111.9892552998,"1","Sandwiches, Fast Food, Restaurants"
"650",169599,"Which Wich","Huntersville","NC","28078",35.4448811,-80.876996,"1","Food, American (New), Sandwiches, Restaurants"
"651",20241,"56 Kitchen","Solon","OH","44139",41.3864229,-81.440083,"1","Bars, Cocktail Bars, Restaurants, Nightlife, Wine Bars, Pizza, Sandwiches, American (New)"
"652",63488,"Vito's Pizza","Glendale","AZ","85301",33.5532034,-112.1523473,"1","Chicken Wings, Sandwiches, Pizza, Restaurants"
"653",139388,"Quiznos Subs","Toronto","ON","M5J 2Y5",43.6400132,-79.3814447,"0","Sandwiches, Restaurants"
"654",132361,"Showmars - Arrowood Rd","Charlotte","NC","28217",35.1466312809,-80.9243124292,"1","Food, Southern, Greek, Restaurants, Sandwiches"
"655",55803,"Subway","Phoenix","AZ","85040",33.3990049,-112.0724706,"1","Sandwiches, Restaurants, Fast Food"
"656",29665,"Zoe's Food Truck","Montréal","QC","H2N 1Y7",45.5364685,-73.6480789,"1","Sandwiches, Food, Restaurants, Food Trucks"
"657",192012,"The Common Market","Charlotte","NC","28205",35.2189339,-80.8117172,"1","Delicatessen, Delis, Beer, Wine & Spirits, Food, Arts & Entertainment, Sandwiches, Music Venues, Restaurants, Nightlife"
"658",33188,"QDOBA Mexican Eats","Matthews","NC","28105",35.1279916406,-80.7024751604,"1","Restaurants, Mexican, Sandwiches, Event Planning & Services, Caterers, Fast Food"
"659",108649,"Sunprint On The Square","Madison","WI","53703",43.0754305,-89.385822,"0","Food, Coffee & Tea, Sandwiches, Restaurants"
"660",43874,"La Grande Orange Pizzeria","Phoenix","AZ","85018",33.5020532515,-111.9957802209,"1","Food, Restaurants, Salad, Italian, Pizza, Sandwiches, Burgers"
"661",110833,"Chez Hailar","Montréal","QC","H3H 1C9",45.4962791,-73.5817441,"1","Restaurants, Sandwiches, Pizza, Persian/Iranian, Halal"
"662",46194,"The Fish Store & Sandwiches","Toronto","ON","M6G 1B7",43.6549209,-79.4163139,"0","Seafood, Sandwiches, Restaurants"
"663",40343,"Barroco","Lakewood","OH","44107",41.4770749,-81.7783377,"1","Colombian, Gluten-Free, Sandwiches, Nightlife, Latin American, American (Traditional), Restaurants, Bars"
"664",161843,"Subway","Streetsboro","OH","44241",41.2504281,-81.3652316,"0","Restaurants, Fast Food, Sandwiches"
"665",975,"Osteria 2350","Pittsburgh","PA","15222",40.4545236189,-79.9825752939,"1","Italian, Restaurants, Sandwiches, Pizza"
"666",188167,"Express Deli ","Brook Park","OH","44142",41.4159318,-81.8029688,"1","Food, Sandwiches, Wraps, Restaurants, Delis"
"667",182313,"OUTTA BRONX","Phoenix","AZ","85005",33.4654132718,-111.9926441962,"1","Sandwiches, Delis, Restaurants, American (New), Chicken Wings"
"668",39283,"Fuel Pizza","Davidson","NC","28036",35.4963185,-80.85272,"1","Chicken Wings, Pizza, Restaurants, Sandwiches"
"669",33569,"Ocean Blue Caribbean Restaurant and Bar","Chandler","AZ","85226",33.3059385,-111.9471779,"1","Restaurants, Sandwiches, Buffets, Seafood, Caribbean"
"670",71332,"Arby's","Macedonia","OH","44056",41.3143138,-81.5144244,"1","Fast Food, Restaurants, Sandwiches, Burgers"
"671",166972,"Pizza Pronto & Gyro House - Avalon","Avalon","PA","15202",40.502209,-80.0706483,"1","Sandwiches, Chicken Wings, Burgers, Pizza, Food, Italian, Restaurants, Food Delivery Services"
"672",170182,"Mr Hero","Brooklyn","OH","44144",41.4255473,-81.7352149,"1","Sandwiches, Restaurants"
"673",160341,"Sidewinder Subs","Gilbert","AZ","85233",33.3494438463,-111.821302053,"1","Sandwiches, Restaurants, Food"
"674",41498,"Milio's Sandwiches","Sun Prairie","WI","53590",43.1830112,-89.2192033,"1","Sandwiches, Restaurants"
"675",44676,"Beerhead Bar & Eatery","Cleveland","OH","44113",41.4995023017,-81.7053054663,"1","Nightlife, Sandwiches, Beer Bar, Restaurants, Beer, Wine & Spirits, Bars, Beer Gardens, American (Traditional), Food"
"676",65882,"Barro's Pizza","Mesa","AZ","85210",33.3910694,-111.8555096,"1","Restaurants, Pizza, Italian, Sandwiches"
"677",68330,"Common Market SouthEnd","Charlotte","NC","28203",35.2104474,-80.8633349,"1","Sandwiches, Breakfast & Brunch, Restaurants, Delis"
"678",76251,"Subway","North Las Vegas","NV","89031",36.2603216422,-115.1541252723,"1","Restaurants, Sandwiches, Fast Food"
"679",3818,"Cafe 1010","Phoenix","AZ","85007",33.4481931,-112.086027,"1","Sandwiches, Cafes, Breakfast & Brunch, Restaurants, Burgers, Food"
"680",25078,"Zoup!","Richmond Hill","ON","L4B 0E2",43.8615176,-79.3894713,"0","Soup, Restaurants, Sandwiches, Salad"
"681",132927,"La Prep","Toronto","ON","M5C 3G7",43.6527954,-79.3788429,"1","Breakfast & Brunch, Restaurants, Sandwiches"
"682",188623,"International Discount Foods","North York","ON","M3J 3K5",43.7821596,-79.4904296,"1","Restaurants, Delis, Sandwiches, Imported Food, Specialty Food, Ethnic Food, Canadian (New), Food"
"683",92830,"QuikTrip","Mesa","AZ","85202",33.408077,-111.875096,"1","Convenience Stores, Food, Automotive, Gas Stations, Sandwiches, Grocery, Restaurants"
"684",14935,"Subway","Peoria","AZ","85382",33.636529,-112.23077,"0","Sandwiches, Fast Food, Restaurants"
